{"version": 0.6, "generator": "Overpass API 0.7.62.10 2d4cfc48", "osm3s": {"timestamp_osm_base": "2026-02-26T14:04:15Z", "copyright": "The data included in this document is from www.openstreetmap.org. The data is made available under ODbL."}, "elements": [{"type": "node", "id": 360874500, "lat": 50.4630624, "lon": -3.7352556, "tags": {"bus": "yes", "highway": "bus_stop", "name": "Staverton Turn", "naptan:AtcoCode": "1100DEZ05035", "naptan:NaptanCode": "dvnawtmg", "public_transport": "platform", "shelter": "no"}}, {"type": "node", "id": 360874575, "lat": 50.462945, "lon": -3.7353227, "tags": {"bus": "yes", "highway": "bus_stop", "name": "Staverton Turn", "naptan:AtcoCode": "1100DEZ05034", "naptan:NaptanCode": "dvnawtma", "public_transport": "platform", "shelter": "no"}}, {"type": "node", "id": 365965539, "lat": 50.4315954, "lon": -3.6832228, "tags": {"bench": "yes", "bus": "yes", "departures_board": "timetable", "highway": "bus_stop", "name": "Opposite Town Mill", "naptan:AtcoCode": "1100DEA10299", "naptan:NaptanCode": "dvndamdg", "operator": "Stagecoach", "passenger_information_display": "yes", "public_transport": "platform", "shelter": "yes", "tactile_paving": "no"}}, {"type": "node", "id": 365965545, "lat": 50.4309406, "lon": -3.6825958, "tags": {"bench": "yes", "bin": "yes", "bus": "yes", "highway": "bus_stop", "lit": "yes", "name": "Opposite Seven Stars", "naptan:AtcoCode": "1100DEA10298", "naptan:Bearing": "SW", "naptan:CommonName": "Opposite Royal Seven Stars Hotel", "naptan:Indicator": "Stop E", "naptan:NaptanCode": "dvndamdw", "naptan:PlusbusZoneRef": "TOTNES", "naptan:Street": "Coronation Road", "naptan:verified": "no", "operator": "Stagecoach", "passenger_information_display": "yes", "public_transport": "platform", "shelter": "yes", "tactile_paving": "no"}}, {"type": "node", "id": 374502251, "lat": 50.4461984, "lon": -3.7091736, "tags": {"highway": "bus_stop", "name": "Cott", "naptan:AtcoCode": "1100DEA10286", "naptan:Bearing": "S", "naptan:CommonName": "Cott", "naptan:Indicator": "S-bound", "naptan:NaptanCode": "dvndagdw", "naptan:PlusbusZoneRef": "TOTNES", "naptan:Street": "Cott Road", "naptan:verified": "no"}}, {"type": "node", "id": 374502452, "lat": 50.4465038, "lon": -3.7099261, "tags": {"highway": "bus_stop", "name": "Shinners Bridge", "naptan:AtcoCode": "1100DEA10288", "naptan:Bearing": "NE", "naptan:CommonName": "Shinners Bridge", "naptan:Indicator": "NE-bound", "naptan:NaptanCode": "dvndagdj", "naptan:PlusbusZoneRef": "TOTNES", "naptan:Street": "A385", "naptan:verified": "no"}}, {"type": "node", "id": 374503389, "lat": 50.450819, "lon": -3.7127213, "tags": {"bench": "no", "bus": "yes", "highway": "bus_stop", "name": "Church", "naptan:AtcoCode": "1100PLY38566", "naptan:Bearing": "NW", "naptan:CommonName": "Church", "naptan:Indicator": "NW-bound", "naptan:NaptanCode": "dvndagaj", "naptan:Street": "A384", "naptan:verified": "no", "passenger_information_display": "no", "public_transport": "platform", "shelter": "no"}}, {"type": "node", "id": 374503461, "lat": 50.4506572, "lon": -3.7125035, "tags": {"bench": "no", "bus": "yes", "highway": "bus_stop", "naptan:AtcoCode": "1100PLY38568", "naptan:NaptanCode": "dvndagap", "public_transport": "platform", "shelter": "no"}}, {"type": "node", "id": 374504077, "lat": 50.4466701, "lon": -3.7091117, "tags": {"highway": "bus_stop", "name": "Shinners Bridge", "naptan:AtcoCode": "1100PLY38597", "naptan:Bearing": "SE", "naptan:CommonName": "Shinners Bridge", "naptan:Indicator": "SE-bound", "naptan:NaptanCode": "dvndagjd", "naptan:PlusbusZoneRef": "TOTNES", "naptan:Street": "A385", "naptan:verified": "no"}}, {"type": "node", "id": 374504113, "lat": 50.4465033, "lon": -3.7087074, "tags": {"highway": "bus_stop", "name": "Cider Press Centre", "naptan:AtcoCode": "1100DEA10287", "naptan:Bearing": "W", "naptan:CommonName": "Shinners Bridge", "naptan:Indicator": "W-bound", "naptan:NaptanCode": "dvndagjp", "naptan:PlusbusZoneRef": "TOTNES", "naptan:Street": "A385", "naptan:verified": "no"}}, {"type": "node", "id": 496819270, "lat": 50.4285782, "lon": -3.6153597, "tags": {"highway": "bus_stop", "name": "Blagdon Caravan Park", "naptan:AtcoCode": "1190TOA10946", "naptan:Bearing": "E", "naptan:CommonName": "Blagdon Caravan Park", "naptan:NaptanCode": "tbyadat", "naptan:PlusbusZoneRef": "NABT", "naptan:ShortCommonName": "Blagdon Caravan Park", "naptan:Street": "Totnes Road", "naptan:verified": "no", "source": "naptan_import"}}, {"type": "node", "id": 496819275, "lat": 50.4284826, "lon": -3.6157647, "tags": {"highway": "bus_stop", "name": "Blagdon Caravan Park", "naptan:AtcoCode": "1190TOA10947", "naptan:Bearing": "W", "naptan:CommonName": "Blagdon Caravan Park", "naptan:Indicator": "Opp", "naptan:Landmark": "Beechdown Farm", "naptan:NaptanCode": "tbyadap", "naptan:PlusbusZoneRef": "NABT", "naptan:ShortCommonName": "Blagdon Caravan Park", "naptan:Street": "Totnes Road", "naptan:verified": "no", "source": "naptan_import"}}, {"type": "node", "id": 496819281, "lat": 50.4310391, "lon": -3.6233568, "tags": {"highway": "bus_stop", "name": "Falcon Park", "naptan:AtcoCode": "1190TOA10948", "naptan:Bearing": "E", "naptan:CommonName": "Falcon Park", "naptan:Indicator": "Opp", "naptan:NaptanCode": "tbyadam", "naptan:PlusbusZoneRef": "NABT", "naptan:Street": "Totnes Road", "naptan:verified": "no", "shelter": "yes", "source": "naptan_import"}}, {"type": "node", "id": 496819283, "lat": 50.4318829, "lon": -3.6273424, "tags": {"highway": "bus_stop", "name": "Half Way Park", "naptan:AtcoCode": "1190TOA10950", "naptan:Bearing": "E", "naptan:CommonName": "Half Way Park", "naptan:Indicator": "Opp", "naptan:NaptanCode": "tbyadag", "naptan:Street": "Totnes Road", "naptan:verified": "no", "source": "naptan_import"}}, {"type": "node", "id": 553048330, "lat": 50.4293662, "lon": -3.6756935, "tags": {"bench": "no", "bus": "yes", "highway": "bus_stop", "name": "Westonfields", "naptan:AtcoCode": "1100DEA10303", "naptan:Bearing": "SW", "naptan:CommonName": "Westonfields", "naptan:Indicator": "SW-bound", "naptan:NaptanCode": "dvndamwd", "naptan:PlusbusZoneRef": "TOTNES", "naptan:Street": "Westonfields", "naptan:verified": "no", "public_transport": "platform", "shelter": "no"}}, {"type": "node", "id": 553049085, "lat": 50.4289003, "lon": -3.6792333, "tags": {"bench": "no", "bus": "yes", "highway": "bus_stop", "name": "Pathfields", "naptan:AtcoCode": "1100DEA10301", "naptan:Bearing": "NW", "naptan:CommonName": "Pathfields", "naptan:Indicator": "NW-bound", "naptan:NaptanCode": "dvndamjp", "naptan:PlusbusZoneRef": "TOTNES", "naptan:Street": "Pathfields", "naptan:verified": "no", "passenger_information_display": "no", "public_transport": "platform", "shelter": "no", "tactile_paving": "no"}}, {"type": "node", "id": 559560322, "lat": 50.4356334, "lon": -3.6888267, "tags": {"bench": "no", "bus": "yes", "highway": "bus_stop", "name": "Totnes Railway Station", "naptan:AtcoCode": "1100DEA10297", "naptan:Bearing": "N", "naptan:CommonName": "Rail Station Forecourt", "naptan:Indicator": "Stop A", "naptan:NaptanCode": "dvndajtd", "naptan:PlusbusZoneRef": "TOTNES", "naptan:Street": "Station Approach", "naptan:verified": "no", "public_transport": "platform", "shelter": "no"}}, {"type": "node", "id": 559568450, "lat": 50.4350257, "lon": -3.6910232, "tags": {"bus": "yes", "highway": "bus_stop", "name": "Totnes Station, North side", "naptan:AtcoCode": "1100DEA10296", "naptan:Bearing": "SE", "naptan:CommonName": "Rail Station", "naptan:Indicator": "Stop B", "naptan:NaptanCode": "dvndajmt", "naptan:PlusbusZoneRef": "TOTNES", "naptan:Street": "A381", "naptan:verified": "no", "public_transport": "platform", "shelter": "yes", "tactile_paving": "yes"}}, {"type": "node", "id": 559570670, "lat": 50.4372217, "lon": -3.693443, "tags": {"bus": "yes", "highway": "bus_stop", "name": "Kevicc Southbound", "naptan:AtcoCode": "1100DEA10294", "naptan:Bearing": "SE", "naptan:CommonName": "King Edward VI School", "naptan:Indicator": "SE-bound", "naptan:NaptanCode": "dvndajgd", "naptan:PlusbusZoneRef": "TOTNES", "naptan:Street": "Ashburton Road", "naptan:verified": "no", "public_transport": "platform", "shelter": "yes"}}, {"type": "node", "id": 559570747, "lat": 50.4374488, "lon": -3.6938853, "tags": {"bus": "yes", "highway": "bus_stop", "name": "Kevicc Northbound", "naptan:AtcoCode": "1100DEA10295", "naptan:Bearing": "NW", "naptan:CommonName": "King Edward VI School", "naptan:Indicator": "NW-bound", "naptan:NaptanCode": "dvndajdt", "naptan:PlusbusZoneRef": "TOTNES", "naptan:Street": "Ashburton Road", "naptan:verified": "no", "public_transport": "platform", "shelter": "yes"}}, {"type": "node", "id": 559582080, "lat": 50.4345107, "lon": -3.6938888, "tags": {"bus": "yes", "highway": "bus_stop", "name": "Barracks Hill/Western Bypass", "naptan:AtcoCode": "1100DEA10281", "naptan:Bearing": "SE", "naptan:CommonName": "Barracks Hill", "naptan:Indicator": "SE-bound", "naptan:NaptanCode": "dvndajga", "naptan:PlusbusZoneRef": "TOTNES", "naptan:Street": "Barracks Hill", "naptan:verified": "no", "public_transport": "platform", "shelter": "no", "tactile_paving": "no"}}, {"type": "node", "id": 559605461, "lat": 50.4422761, "lon": -3.708127, "tags": {"bench": "no", "highway": "bus_stop", "name": "The Cott", "naptan:AtcoCode": "1100DEA10282", "naptan:Bearing": "S", "naptan:CommonName": "Cott Inn", "naptan:Indicator": "opp", "naptan:NaptanCode": "dvndagmd", "naptan:PlusbusZoneRef": "TOTNES", "naptan:Street": "Cott Road", "naptan:verified": "no", "shelter": "no"}}, {"type": "node", "id": 559608091, "lat": 50.4434521, "lon": -3.70835, "tags": {"bus": "yes", "highway": "bus_stop", "name": "Newman Crescent", "naptan:AtcoCode": "1100DEA10284", "naptan:Bearing": "S", "naptan:CommonName": "Newman Crescent", "naptan:Indicator": "S-bound", "naptan:NaptanCode": "dvndagma", "naptan:PlusbusZoneRef": "TOTNES", "naptan:Street": "Cott Road", "naptan:verified": "no", "public_transport": "platform"}}, {"type": "node", "id": 559621108, "lat": 50.4541438, "lon": -3.7169234, "tags": {"highway": "bus_stop", "name": "Huxhams Cross", "naptan:AtcoCode": "1100DEA10393", "naptan:Bearing": "SE", "naptan:CommonName": "Huxhams Cross", "naptan:Indicator": "SE-bound", "naptan:NaptanCode": "dvndadtp", "naptan:verified": "no", "wheelchair": "yes", "wheelchair:description": "bis stop is accessible. the country bus lets down a ramp."}}, {"type": "node", "id": 559621136, "lat": 50.454341, "lon": -3.7173949, "tags": {"highway": "bus_stop", "name": "Huxhams Cross", "naptan:AtcoCode": "1100DEA10394", "naptan:Bearing": "NW", "naptan:CommonName": "Huxhams Cross", "naptan:Indicator": "NW-bound", "naptan:NaptanCode": "dvndadtj", "naptan:verified": "no", "wheelchair": "limited", "wheelchair:description": "bus stop on this side of the road is a bit treacherous. while it is only one step down to street level crossing the road or going anywhere from there can be difficult."}}, {"type": "node", "id": 730800313, "lat": 50.4640503, "lon": -3.7000729, "tags": {"highway": "bus_stop", "naptan:AtcoCode": "1100DEA10396", "naptan:NaptanCode": "dvndagwp"}}, {"type": "node", "id": 955001416, "lat": 50.4298897, "lon": -3.6926215, "tags": {"bench": "no", "bus": "yes", "highway": "bus_stop", "name": "Harper's Hill", "naptan:AtcoCode": "1100DEA10276", "naptan:Bearing": "SE", "naptan:CommonName": "Cistern Street", "naptan:Indicator": "SE-bound", "naptan:NaptanCode": "dvndajgt", "naptan:PlusbusZoneRef": "TOTNES", "naptan:Street": "Western By-pass", "naptan:verified": "no", "network": "Bob The Bus", "network:wikidata": "Q110421798", "operator": "Bob the Bus", "operator2": "Stagecoach", "public_transport": "platform", "shelter": "no", "tactile_paving": "no"}}, {"type": "node", "id": 955004398, "lat": 50.4306983, "lon": -3.6782357, "tags": {"bench": "no", "bus": "yes", "highway": "bus_stop", "name": "Seymour Place", "naptan:AtcoCode": "1100DEA10320", "naptan:Bearing": "NE", "naptan:CommonName": "Seymour Place", "naptan:Indicator": "NE-bound", "naptan:NaptanCode": "dvndampt", "naptan:PlusbusZoneRef": "TOTNES", "naptan:Street": "Bridgetown", "naptan:verified": "no", "passenger_information_display": "no", "public_transport": "platform", "shelter": "no", "tactile_paving": "no"}}, {"type": "node", "id": 965248443, "lat": 50.4272385, "lon": -3.6778476, "tags": {"bus": "yes", "highway": "bus_stop", "name": "Parkers Way", "naptan:AtcoCode": "1100DEZ05101", "naptan:Bearing": "W", "naptan:CommonName": "Parkers Way", "naptan:Indicator": "W-bound", "naptan:NaptanCode": "dvndamtd", "naptan:PlusbusZoneRef": "TOTNES", "naptan:Street": "Parkers Way", "naptan:verified": "no", "public_transport": "platform"}}, {"type": "node", "id": 965248990, "lat": 50.4295529, "lon": -3.6755597, "tags": {"bus": "yes", "highway": "bus_stop", "name": "Westonfields", "naptan:AtcoCode": "1100DEA10302", "naptan:Bearing": "NE", "naptan:CommonName": "Westonfields", "naptan:Indicator": "NE-bound", "naptan:NaptanCode": "dvndamwm", "naptan:PlusbusZoneRef": "TOTNES", "naptan:Street": "Westonfields", "naptan:verified": "no", "public_transport": "platform"}}, {"type": "node", "id": 965249085, "lat": 50.4279297, "lon": -3.6814324, "tags": {"bench": "no", "bin": "yes", "bus": "yes", "highway": "bus_stop", "name": "Steamer Quay", "naptan:AtcoCode": "1100DEY38489", "naptan:Bearing": "NW", "naptan:CommonName": "Steamer Quay", "naptan:Indicator": "NW-bound", "naptan:NaptanCode": "dvndamja", "naptan:PlusbusZoneRef": "TOTNES", "naptan:Street": "Steamer Quay Road", "naptan:verified": "no", "public_transport": "platform", "shelter": "no"}}, {"type": "node", "id": 1935188292, "lat": 50.4275213, "lon": -3.6757456, "tags": {"bus": "yes", "highway": "bus_stop", "public_transport": "platform"}}, {"type": "node", "id": 2182819589, "lat": 50.4313935, "lon": -3.6936426, "tags": {"bus": "yes", "highway": "bus_stop", "name": "Plymouth Road", "naptan:AtcoCode": "1100DEA10278", "naptan:Bearing": "S", "naptan:CommonName": "Western By-pass", "naptan:Indicator": "S-bound", "naptan:NaptanCode": "dvndajdw", "naptan:PlusbusZoneRef": "TOTNES", "naptan:Street": "Western By Pass", "naptan:verified": "no", "public_transport": "platform"}}, {"type": "node", "id": 2182901992, "lat": 50.4313251, "lon": -3.693766, "tags": {"bus": "yes", "highway": "bus_stop", "name": "Plymouth Road", "naptan:AtcoCode": "1100DEA10279", "naptan:Bearing": "N", "naptan:CommonName": "Western By-pass", "naptan:Indicator": "N-bound", "naptan:NaptanCode": "dvndajdp", "naptan:PlusbusZoneRef": "TOTNES", "naptan:Street": "Western By-pass", "naptan:verified": "no", "public_transport": "platform", "shelter": "no"}}, {"type": "node", "id": 2294637371, "lat": 50.4033437, "lon": -3.6214597, "tags": {"highway": "bus_stop", "naptan:AtcoCode": "1100DEB10839", "naptan:NaptanCode": "dvndgmdp", "source": "survey"}}, {"type": "node", "id": 2379896954, "lat": 50.4292527, "lon": -3.6427673, "tags": {"highway": "bus_stop", "naptan:AtcoCode": "1100DEA10327", "naptan:NaptanCode": "dvndgapg", "source": "Bing"}}, {"type": "node", "id": 2379896988, "lat": 50.4295523, "lon": -3.6415544, "tags": {"highway": "bus_stop", "lit": "no", "name": "Longcombe Cross", "naptan:AtcoCode": "1100DEA10326", "naptan:Bearing": "E", "naptan:CommonName": "Longcombe Cross", "naptan:Indicator": "E-bound", "naptan:NaptanCode": "dvndgata", "naptan:Street": "A385", "naptan:verified": "no", "shelter": "no", "source": "Bing"}}, {"type": "node", "id": 3823052506, "lat": 50.3911454, "lon": -3.6650926, "tags": {"highway": "bus_stop", "naptan:AtcoCode": "1100DEA10427", "naptan:NaptanCode": "dvndatdj"}}, {"type": "node", "id": 5183024724, "lat": 50.3930115, "lon": -3.712284, "tags": {"bench": "yes", "bin": "yes", "check_date:shelter": "2022-12-28", "highway": "bus_stop", "lit": "yes", "name": "Church Green", "naptan:AtcoCode": "1100DEA10273", "naptan:Bearing": "NW", "naptan:CommonName": "Church Green", "naptan:Indicator": "NW-bound", "naptan:NaptanCode": "dvndadwp", "naptan:Street": "A381", "naptan:verified": "no", "shelter": "yes", "tactile_paving": "yes"}}, {"type": "node", "id": 5183024725, "lat": 50.3924499, "lon": -3.7116006, "tags": {"bench": "no", "bus": "yes", "highway": "bus_stop", "name": "Maltsters Arms", "naptan:AtcoCode": "1100DEA10274", "naptan:Bearing": "S", "naptan:CommonName": "Maltsters Arms", "naptan:Indicator": "adj", "naptan:NaptanCode": "dvndagad", "naptan:Street": "A381", "naptan:verified": "no", "public_transport": "platform", "shelter": "no"}}, {"type": "node", "id": 6844666238, "lat": 50.4506171, "lon": -3.6673269, "tags": {"bus": "yes", "highway": "bus_stop", "name": "Littlehempston Cross", "naptan:AtcoCode": "1100DEA10357", "naptan:Bearing": "NE", "naptan:CommonName": "Littlehempston Cross", "naptan:Indicator": "NE-bound", "naptan:NaptanCode": "dvndatam", "naptan:PlusbusZoneRef": "TOTNES", "naptan:Street": "A381", "naptan:verified": "no", "public_transport": "platform"}}, {"type": "node", "id": 7800476750, "lat": 50.4345296, "lon": -3.711373, "tags": {"bench": "yes", "bus": "yes", "departures_board": "no", "highway": "bus_stop", "name": "Follaton Stores", "naptan:AtcoCode": "1100DEA56977", "naptan:Bearing": "NE", "naptan:CommonName": "Village Shop", "naptan:Indicator": "NE-bound", "naptan:NaptanCode": "dvngpamd", "naptan:PlusbusZoneRef": "TOTNES", "naptan:Street": "Whiteley Avenue", "naptan:verified": "no", "network": "Bob The Bus", "network:wikidata": "Q110421798", "operator": "Bob the Bus", "public_transport": "platform", "shelter": "yes", "tactile_paving": "no"}}, {"type": "node", "id": 7800476751, "lat": 50.4335449, "lon": -3.7094483, "tags": {"bus": "yes", "highway": "bus_stop", "name": "Bridge Road", "naptan:AtcoCode": "1100DEA10415", "naptan:NaptanCode": "dvndagdm", "network": "Bob The Bus", "network:wikidata": "Q110421798", "operator": "Bob the Bus", "public_transport": "platform"}}, {"type": "node", "id": 7800476752, "lat": 50.4316745, "lon": -3.7043765, "tags": {"bench": "no", "bin": "no", "bus": "yes", "highway": "bus_stop", "name": "Follaton House", "naptan:AtcoCode": "1100DEA10413", "naptan:Bearing": "E", "naptan:CommonName": "Follaton Bungalows", "naptan:Indicator": "E-bound", "naptan:NaptanCode": "dvndagpg", "naptan:PlusbusZoneRef": "TOTNES", "naptan:Street": "Plymouth Road", "naptan:verified": "no", "network": "Bob The Bus", "network:wikidata": "Q110421798", "operator": "Bob the Bus", "public_transport": "platform", "shelter": "no", "tactile_paving": "no"}}, {"type": "node", "id": 7800476753, "lat": 50.4317842, "lon": -3.6992684, "tags": {"bench": "no", "bus": "yes", "highway": "bus_stop", "name": "Smithfields", "network": "Bob The Bus", "network:wikidata": "Q110421798", "operator": "Bob the Bus", "public_transport": "platform", "shelter": "no", "tactile_paving": "no"}}, {"type": "node", "id": 7800476754, "lat": 50.4318497, "lon": -3.6990886, "tags": {"bench": "no", "bus": "yes", "highway": "bus_stop", "name": "Smithfields", "naptan:AtcoCode": "1100DEA56980", "naptan:Bearing": "SW", "naptan:CommonName": "Smithfields", "naptan:Indicator": "SW-bound", "naptan:NaptanCode": "dvngpamp", "naptan:PlusbusZoneRef": "TOTNES", "naptan:Street": "Smithfields", "naptan:verified": "no", "network": "Bob The Bus", "network:wikidata": "Q110421798", "operator": "Bob the Bus", "public_transport": "platform", "shelter": "no", "tactile_paving": "no"}}, {"type": "node", "id": 7800476755, "lat": 50.4292367, "lon": -3.6880481, "tags": {"bus": "yes", "highway": "bus_stop", "name": "St Katherine's Way", "network": "Bob The Bus", "network:wikidata": "Q110421798", "operator": "Bob the Bus", "public_transport": "platform"}}, {"type": "node", "id": 7800476759, "lat": 50.4276875, "lon": -3.6832823, "tags": {"bench": "no", "bus": "yes", "highway": "bus_stop", "name:signed": "no", "network": "Bob The Bus", "network:wikidata": "Q110421798", "operator": "Bob the Bus", "public_transport": "platform", "shelter": "no"}}, {"type": "node", "id": 7800476760, "lat": 50.4284103, "lon": -3.6841674, "tags": {"bus": "yes", "highway": "bus_stop", "network": "Bob The Bus", "network:wikidata": "Q110421798", "operator": "Bob the Bus", "public_transport": "platform"}}, {"type": "node", "id": 7800476761, "lat": 50.4303223, "lon": -3.6831804, "tags": {"bus": "yes", "highway": "bus_stop", "name": "The Plains", "naptan:AtcoCode": "1100DEA57078", "naptan:Bearing": "N", "naptan:CommonName": "The Plains", "naptan:Indicator": "N-bound", "naptan:NaptanCode": "dvngpgmp", "naptan:PlusbusZoneRef": "TOTNES", "naptan:Street": "The Plains", "naptan:verified": "no", "network": "Bob The Bus", "network:wikidata": "Q110421798", "operator": "Bob the Bus", "public_transport": "platform", "shelter": "no"}}, {"type": "node", "id": 7800476762, "lat": 50.4343515, "lon": -3.6836567, "tags": {"bus": "yes", "highway": "bus_stop", "name": "Leatside Surgery", "naptan:AtcoCode": "1100DEZ05097", "naptan:Bearing": "NE", "naptan:CommonName": "Leatside Surgery", "naptan:Indicator": "NE-bound", "naptan:NaptanCode": "dvndamdj", "naptan:PlusbusZoneRef": "TOTNES", "naptan:Street": "Babbage Road", "naptan:verified": "no", "network": "Bob The Bus", "network:wikidata": "Q110421798", "operator": "Bob the Bus", "public_transport": "platform"}}, {"type": "node", "id": 7800476763, "lat": 50.4315907, "lon": -3.6893306, "tags": {"bench": "yes", "bin": "yes", "bus": "yes", "highway": "bus_stop", "lit": "yes", "name": "Totnes Town Centre", "naptan:AtcoCode": "1100DEA56983", "naptan:NaptanCode": "dvngpapa", "network": "Bob The Bus", "network:wikidata": "Q110421798", "operator": "Bob the Bus", "public_transport": "platform", "shelter": "no", "tactile_paving": "no"}}, {"type": "node", "id": 7800476764, "lat": 50.4311738, "lon": -3.6993137, "tags": {"bus": "yes", "highway": "bus_stop", "network": "Bob The Bus", "network:wikidata": "Q110421798", "noname": "yes", "operator": "Bob the Bus", "public_transport": "platform"}}, {"type": "node", "id": 7800476767, "lat": 50.432075, "lon": -3.7107369, "tags": {"bus": "yes", "highway": "bus_stop", "name": "Follaton Oak", "network": "Bob The Bus", "network:wikidata": "Q110421798", "operator": "Bob the Bus", "public_transport": "platform"}}, {"type": "node", "id": 7800603475, "lat": 50.4304427, "lon": -3.6897423, "tags": {"bus": "yes", "highway": "bus_stop", "name": "Heath Way Car Park", "network": "Bob The Bus", "network:wikidata": "Q110421798", "operator": "Bob the Bus", "public_transport": "platform"}}, {"type": "node", "id": 9212191417, "lat": 50.4306687, "lon": -3.6915133, "tags": {"bench": "no", "bus": "yes", "highway": "bus_stop", "naptan:AtcoCode": "1100DEA56984", "naptan:NaptanCode": "dvngpapd", "network": "Bob The Bus", "network:wikidata": "Q110421798", "public_transport": "platform", "shelter": "no", "survey:date": "2021-10-30"}}, {"type": "node", "id": 9213832117, "lat": 50.4278467, "lon": -3.6688296, "tags": {"bench": "yes", "bus": "yes", "highway": "bus_stop", "naptan:AtcoCode": "1100DEA10316", "naptan:NaptanCode": "dvndaptm", "network": "Bob The Bus", "network:wikidata": "Q110421798", "passenger_information_display": "no", "public_transport": "platform", "shelter": "yes", "survey:date": "2021-10-31", "tactile_paving": "no"}}, {"type": "node", "id": 9214205417, "lat": 50.4298907, "lon": -3.6668256, "tags": {"bench": "no", "bus": "yes", "highway": "bus_stop", "name": "Parkfield Close", "naptan:AtcoCode": "1100DEA10315", "naptan:Bearing": "S", "naptan:CommonName": "Parkfield Close", "naptan:Indicator": "S-bound", "naptan:NaptanCode": "dvndatad", "naptan:PlusbusZoneRef": "TOTNES", "naptan:Street": "Dukes Road", "naptan:verified": "no", "network": "Bob The Bus", "network:wikidata": "Q110421798", "passenger_information_display": "no", "public_transport": "platform", "shelter": "no", "survey:date": "2021-10-31", "tactile_paving": "no"}}, {"type": "node", "id": 9366938517, "lat": 50.4252893, "lon": -3.6784343, "tags": {"bench": "no", "bin": "no", "bus": "yes", "highway": "bus_stop", "name:signed": "no", "network": "Bob The Bus", "network:wikidata": "Q110421798", "public_transport": "platform", "shelter": "no", "survey:date": "2021-12-26"}}, {"type": "node", "id": 9370054519, "lat": 50.4316352, "lon": -3.6694378, "tags": {"bench": "no", "bus": "yes", "highway": "bus_stop", "name": "Higher Westonfields", "naptan:AtcoCode": "1100DEA10308", "naptan:Bearing": "E", "naptan:CommonName": "Higher Westonfields", "naptan:Indicator": "E-bound", "naptan:NaptanCode": "dvndapmw", "naptan:PlusbusZoneRef": "TOTNES", "naptan:Street": "Higher Westonfield", "naptan:verified": "no", "network": "Bob the Bus;Stagecoach", "public_transport": "platform", "shelter": "no", "survey:date": "2021-12-27"}}, {"type": "node", "id": 9370055518, "lat": 50.4315462, "lon": -3.6690115, "tags": {"bench": "no", "bus": "yes", "highway": "bus_stop", "naptan:AtcoCode": "1100DEA10310", "naptan:NaptanCode": "dvndaptj", "network": "Stagecoach", "public_transport": "platform", "shelter": "no", "survey:date": "2021-12-27"}}, {"type": "node", "id": 9370074617, "lat": 50.431786, "lon": -3.6673416, "tags": {"bench": "no", "bus": "yes", "highway": "bus_stop", "public_transport": "platform", "shelter": "no", "survey:date": "2021-12-27"}}, {"type": "node", "id": 9370074717, "lat": 50.4316042, "lon": -3.6668159, "tags": {"bench": "no", "bus": "yes", "highway": "bus_stop", "naptan:AtcoCode": "1100DEA10313", "naptan:NaptanCode": "dvndatag", "network": "Bob The Bus", "network:wikidata": "Q110421798", "public_transport": "platform", "shelter": "no", "survey:date": "2021-12-27"}}, {"type": "node", "id": 9370088717, "lat": 50.4306543, "lon": -3.666471, "tags": {"bench": "no", "bus": "yes", "highway": "bus_stop", "network": "Bob The Bus", "network:wikidata": "Q110421798", "passenger_information_display": "no", "public_transport": "platform", "shelter": "no", "survey:date": "2021-12-27", "tactile_paving": "no"}}, {"type": "node", "id": 9379025766, "lat": 50.4525838, "lon": -3.6937341, "tags": {"bench": "no", "bin": "no", "bus": "yes", "highway": "bus_stop", "name": "Dartington Hall", "naptan:AtcoCode": "1100DEA10392", "naptan:Bearing": "W", "naptan:CommonName": "Dartington Hall", "naptan:Indicator": "W-bound", "naptan:NaptanCode": "dvndajgj", "naptan:verified": "no", "public_transport": "platform", "shelter": "no", "tactile_paving": "no"}}, {"type": "node", "id": 9381580352, "lat": 50.4304151, "lon": -3.6786887, "tags": {"bench": "no", "bus": "yes", "highway": "bus_stop", "name": "Seymour Place", "naptan:AtcoCode": "1100DEA10319", "naptan:Bearing": "SW", "naptan:CommonName": "Seymour Place", "naptan:Indicator": "SW-bound", "naptan:NaptanCode": "dvndampg", "naptan:PlusbusZoneRef": "TOTNES", "naptan:Street": "Bridgetown", "naptan:verified": "no", "passenger_information_display": "no", "public_transport": "platform", "shelter": "no", "tactile_paving": "no"}}, {"type": "node", "id": 11446360491, "lat": 50.4289746, "lon": -3.6789215, "tags": {"bench": "no", "bus": "yes", "highway": "bus_stop", "name": "Pathfields", "naptan:AtcoCode": "1100DEA10300", "naptan:Bearing": "SE", "naptan:CommonName": "Pathfields", "naptan:Indicator": "SE-bound", "naptan:NaptanCode": "dvndamjm", "naptan:PlusbusZoneRef": "TOTNES", "naptan:Street": "Pathfields", "naptan:verified": "no", "passenger_information_display": "no", "public_transport": "platform", "shelter": "no", "tactile_paving": "no"}}, {"type": "node", "id": 11659344356, "lat": 50.4342573, "lon": -3.6890632, "tags": {"bus": "yes", "highway": "bus_stop", "local_ref": "C", "name": "Station Road", "naptan:AtcoCode": "1100DEA10361", "naptan:Bearing": "W", "naptan:CommonName": "Rail Station", "naptan:Indicator": "Stop C", "naptan:NaptanCode": "dvndajpa", "naptan:PlusbusZoneRef": "TOTNES", "naptan:Street": "Station Road", "naptan:verified": "no", "public_transport": "platform", "route_ref": "gold;88;91;92;164;165;167", "shelter": "yes"}}, {"type": "node", "id": 11696856132, "lat": 50.4327739, "lon": -3.6698808, "tags": {"bus": "yes", "highway": "bus_stop", "name": "Highlands", "naptan:AtcoCode": "1100DEA10311", "naptan:Bearing": "E", "naptan:CommonName": "Highlands", "naptan:Indicator": "E-bound", "naptan:NaptanCode": "dvndapmt", "naptan:PlusbusZoneRef": "TOTNES", "naptan:Street": "Bridgetown Hill", "naptan:verified": "no", "public_transport": "platform"}}, {"type": "node", "id": 11696859826, "lat": 50.4327002, "lon": -3.6701802, "tags": {"bus": "yes", "highway": "bus_stop", "name": "Highlands", "naptan:AtcoCode": "1100DEA10312", "naptan:Bearing": "W", "naptan:CommonName": "Highlands", "naptan:Indicator": "W-bound", "naptan:NaptanCode": "dvndapmg", "naptan:PlusbusZoneRef": "TOTNES", "naptan:Street": "Bridgetown Hill", "naptan:verified": "no", "public_transport": "platform"}}, {"type": "node", "id": 11696864147, "lat": 50.4322097, "lon": -3.6760023, "tags": {"bus": "yes", "highway": "bus_stop", "name": "Cross Park", "naptan:AtcoCode": "1100DEA10322", "naptan:Bearing": "SW", "naptan:CommonName": "Cross Park", "naptan:Indicator": "opp", "naptan:NaptanCode": "dvndamwa", "naptan:PlusbusZoneRef": "TOTNES", "naptan:Street": "Bridgetown Hill", "naptan:verified": "no", "public_transport": "platform"}}, {"type": "node", "id": 11696864148, "lat": 50.4325366, "lon": -3.675346, "tags": {"bus": "yes", "highway": "bus_stop", "name": "Cross Park", "naptan:AtcoCode": "1100DEA10323", "naptan:Bearing": "NE", "naptan:CommonName": "Cross Park", "naptan:Indicator": "NE-bound", "naptan:NaptanCode": "dvndamwj", "naptan:PlusbusZoneRef": "TOTNES", "naptan:Street": "Bridgetown Hill", "naptan:verified": "no", "public_transport": "platform"}}, {"type": "node", "id": 11696864430, "lat": 50.4324241, "lon": -3.6691983, "tags": {"bus": "yes", "highway": "bus_stop", "name": "Blackpost Cross", "naptan:AtcoCode": "1100DEA09115", "naptan:Bearing": "NW", "naptan:CommonName": "Blackpost Cross", "naptan:Indicator": "NW-bound", "naptan:NaptanCode": "dvngdtpw", "naptan:PlusbusZoneRef": "TOTNES", "naptan:Street": "Blackpost Lane", "naptan:verified": "no", "public_transport": "platform"}}, {"type": "node", "id": 11717098370, "lat": 50.4298401, "lon": -3.6734497, "tags": {"bus": "yes", "highway": "bus_stop", "name": "Westonfields", "naptan:AtcoCode": "1100DEA10304", "naptan:Bearing": "E", "naptan:CommonName": "Westonfields", "naptan:Indicator": "E-bound", "naptan:NaptanCode": "dvndapda", "naptan:PlusbusZoneRef": "TOTNES", "naptan:Street": "Westonfields", "naptan:verified": "no", "public_transport": "platform"}}, {"type": "node", "id": 11717098371, "lat": 50.4298138, "lon": -3.6734367, "tags": {"bus": "yes", "highway": "bus_stop", "name": "Westonfields", "naptan:AtcoCode": "1100DEA10305", "naptan:Bearing": "W", "naptan:BusStopType": "CUS", "naptan:CommonName": "Westonfields", "naptan:Indicator": "W-bound", "naptan:NaptanCode": "dvndapdj", "naptan:PlusbusZoneRef": "TOTNES", "naptan:Street": "Westonfields", "naptan:verified": "no", "public_transport": "platform"}}, {"type": "node", "id": 11717123325, "lat": 50.4307513, "lon": -3.6732329, "tags": {"bus": "yes", "highway": "bus_stop", "name": "Stafford Court", "naptan:AtcoCode": "1100DEA10306", "naptan:Bearing": "NE", "naptan:CommonName": "Stafford Court", "naptan:Indicator": "NE-bound", "naptan:NaptanCode": "dvndapdw", "naptan:PlusbusZoneRef": "TOTNES", "naptan:Street": "Higher Westonfields", "naptan:verified": "no", "public_transport": "platform"}}, {"type": "node", "id": 11745925939, "lat": 50.4272414, "lon": -3.6714803, "tags": {"bus": "yes", "highway": "bus_stop", "public_transport": "platform"}}, {"type": "node", "id": 11753839026, "lat": 50.4271663, "lon": -3.6744009, "tags": {"bench": "no", "bus": "yes", "highway": "bus_stop", "name:signed": "no", "public_transport": "platform", "shelter": "no"}}, {"type": "node", "id": 11753972571, "lat": 50.4270967, "lon": -3.6729964, "tags": {"bench": "no", "bus": "yes", "highway": "bus_stop", "name:signed": "no", "public_transport": "platform", "shelter": "no"}}, {"type": "node", "id": 12276872411, "lat": 50.4455601, "lon": -3.7127481, "tags": {"bus": "yes", "highway": "bus_stop", "name": "Longstern Drive", "naptan:AtcoCode": "1100DEZ05452", "naptan:Bearing": "W", "naptan:CommonName": "Longstern Drive", "naptan:Indicator": "opp", "naptan:NaptanCode": "dvngwdaj", "naptan:verified": "no", "public_transport": "platform"}}, {"type": "node", "id": 13050071142, "lat": 50.4330618, "lon": -3.6635061, "tags": {"bus": "yes", "highway": "bus_stop", "name": "True Street", "naptan:AtcoCode": "1100DEA10324", "naptan:Bearing": "E", "naptan:CommonName": "True Street", "naptan:Indicator": "E-bound", "naptan:NaptanCode": "dvndatgw", "naptan:PlusbusZoneRef": "TOTNES", "naptan:Street": "A385", "naptan:verified": "no", "public_transport": "platform"}}, {"type": "node", "id": 13050074360, "lat": 50.4331045, "lon": -3.6627348, "tags": {"bus": "yes", "highway": "bus_stop", "name": "True Street", "naptan:AtcoCode": "1100DEA10325", "naptan:Bearing": "W", "naptan:CommonName": "True Street", "naptan:Indicator": "W-bound", "naptan:NaptanCode": "dvndatmp", "naptan:PlusbusZoneRef": "TOTNES", "naptan:Street": "A385", "naptan:verified": "no", "public_transport": "platform"}}, {"type": "node", "id": 13282698819, "lat": 50.4401666, "lon": -3.6966893, "tags": {"bus": "yes", "highway": "bus_stop", "name": "Puddavine NW-bound", "naptan:AtcoCode": "1100DEA10292", "naptan:Bearing": "NW", "naptan:BusStopType": "CUS", "naptan:CommonName": "Puddavine", "naptan:Indicator": "NW-bound", "naptan:NaptanCode": "dvndajda", "naptan:PlusbusZoneRef": "TOTNES", "naptan:Street": "Ashburton Road", "naptan:verified": "no", "public_transport": "platform"}}, {"type": "node", "id": 13282698820, "lat": 50.4402225, "lon": -3.6966429, "tags": {"bus": "yes", "highway": "bus_stop", "name": "Puddavine SE-bound", "naptan:AtcoCode": "1100DEA10293", "naptan:Bearing": "SE", "naptan:CommonName": "Puddavine", "naptan:Indicator": "SE-bound", "naptan:NaptanCode": "dvndajdg", "naptan:PlusbusZoneRef": "TOTNES", "naptan:Street": "Ashburton Road", "naptan:verified": "no", "public_transport": "platform", "shelter": "yes"}}, {"type": "node", "id": 13282698821, "lat": 50.4472002, "lon": -3.709733, "tags": {"bus": "yes", "highway": "bus_stop", "name": "River Dart Academy", "naptan:AtcoCode": "1100DEA10289", "naptan:Bearing": "N", "naptan:CommonName": "River Dart Academy", "naptan:Indicator": "N-bound", "naptan:NaptanCode": "dvndagdp", "naptan:PlusbusZoneRef": "TOTNES", "naptan:Street": "Shinner's Bridge", "naptan:verified": "no", "public_transport": "platform"}}, {"type": "node", "id": 13282698822, "lat": 50.4579712, "lon": -3.7299247, "tags": {"bus": "yes", "highway": "bus_stop", "name": "Steiner School", "naptan:AtcoCode": "1100DEZ05033", "naptan:Bearing": "SE", "naptan:CommonName": "South Devon Steiner School", "naptan:Indicator": "SE-bound", "naptan:NaptanCode": "dvndadad", "naptan:Street": "A384", "naptan:verified": "no", "public_transport": "platform"}}, {"type": "node", "id": 13282698823, "lat": 50.4579591, "lon": -3.7300393, "tags": {"bus": "yes", "highway": "bus_stop", "name": "Steiner School", "naptan:AtcoCode": "1100PLY38565", "naptan:Bearing": "NW", "naptan:CommonName": "South Devon Steiner School", "naptan:Indicator": "NW-bound", "naptan:NaptanCode": "dvndadag", "naptan:Street": "A384", "naptan:verified": "no", "public_transport": "platform"}}]}