{"version": 0.6, "generator": "Overpass API 0.7.62.10 2d4cfc48", "osm3s": {"timestamp_osm_base": "2026-02-26T11:07:45Z", "copyright": "The data included in this document is from www.openstreetmap.org. The data is made available under ODbL."}, "elements": [{"type": "node", "id": 251141283, "lat": 52.7121259, "lon": -2.7501822, "tags": {"bus": "yes", "highway": "bus_stop", "name": "Railway Station Castle Foregate", "naptan:AtcoCode": "3500B306300", "naptan:NaptanCode": "shrawmpt", "public_transport": "platform"}}, {"type": "node", "id": 256144651, "lat": 52.7091382, "lon": -2.737813, "tags": {"bench": "no", "bin": "no", "bus": "yes", "highway": "bus_stop", "name": "Canon Street Jct", "naptan:AtcoCode": "3500B071402", "naptan:Bearing": "NE", "naptan:CommonName": "Canon Street Jct", "naptan:Indicator": "opp", "naptan:NaptanCode": "shragpda", "naptan:PlusbusZoneRef": "SHRWBY", "naptan:Street": "Monkmoor Road", "naptan:verified": "no", "network": "Arriva", "network:wikidata": "Q680991", "network:wikipedia": "en:Arriva", "operator": "Arriva", "public_transport": "platform", "ref": "Outbound", "route_ref": "1;11", "shelter": "no"}}, {"type": "node", "id": 256312162, "lat": 52.7163446, "lon": -2.7273861, "tags": {"bench": "no", "bin": "yes", "bus": "yes", "covered": "yes", "departures_board": "yes", "highway": "bus_stop", "name": "Monkmoor Hotel", "naptan:AtcoCode": "3500B071410", "naptan:Bearing": "SW", "naptan:CommonName": "Monkmoor Hotel", "naptan:Indicator": "opp", "naptan:NaptanCode": "shragpgd", "naptan:PlusbusZoneRef": "SHRWBY", "naptan:Street": "Monkmoor Road", "naptan:verified": "no", "pole": "yes", "public_transport": "platform", "route": "1;11;23", "tactile_paving": "no"}}, {"type": "node", "id": 256627170, "lat": 52.7073828, "lon": -2.7445534, "tags": {"bench": "yes", "bin": "yes", "bus": "yes", "highway": "bus_stop", "name": "Abbey Church", "naptan:AtcoCode": "3500B268100", "naptan:Bearing": "E", "naptan:CommonName": "Abbey Church", "naptan:Indicator": "adj", "naptan:NaptanCode": "shrawdgj", "naptan:PlusbusZoneRef": "SHRWBY", "naptan:Street": "Abbey Foregate", "naptan:verified": "no", "network": "Arriva", "network:wikidata": "Q680991", "network:wikipedia": "en:Arriva", "operator": "Arriva", "public_transport": "platform", "ref": "Outbound", "shelter": "yes", "tactile_paving": "no"}}, {"type": "node", "id": 256768271, "lat": 52.690287, "lon": -2.7575382, "tags": {"bus": "yes", "highway": "bus_stop", "name": "Stapleton Road Jct", "naptan:AtcoCode": "3500B040800", "naptan:Bearing": "NE", "naptan:CommonName": "Stapleton Road Jct", "naptan:Indicator": "opp", "naptan:NaptanCode": "shradwpj", "naptan:PlusbusZoneRef": "SHRWBY", "naptan:Street": "Moneybrook Way", "naptan:verified": "no", "public_transport": "platform", "route": "25"}}, {"type": "node", "id": 259007577, "lat": 52.7030523, "lon": -2.7510655, "tags": {"bus": "yes", "highway": "bus_stop", "name": "Belle Vue Gardens Jct", "naptan:AtcoCode": "3500B085301", "naptan:Bearing": "SW", "naptan:CommonName": "Belle Vue Gardens Jct", "naptan:Indicator": "adj", "naptan:NaptanCode": "shrajapg", "naptan:PlusbusZoneRef": "SHRWBY", "naptan:Street": "Longden Road", "naptan:verified": "no", "note": "Routes 12,544, 545,546", "public_transport": "platform"}}, {"type": "node", "id": 259007616, "lat": 52.7016077, "lon": -2.7471188, "tags": {"bus": "yes", "highway": "bus_stop", "name": "The Limes", "naptan:AtcoCode": "3500B095402", "naptan:Bearing": "NE", "naptan:CommonName": "The Limes", "naptan:Indicator": "adj", "naptan:NaptanCode": "shrajgtp", "naptan:PlusbusZoneRef": "SHRWBY", "naptan:Street": "Belle Vue Road", "naptan:verified": "no", "network": "Arriva", "network:wikidata": "Q680991", "network:wikipedia": "en:Arriva", "operator": "Arriva", "public_transport": "platform", "ref": "inbound", "shelter": "yes"}}, {"type": "node", "id": 298547306, "lat": 52.7163355, "lon": -2.7544084, "tags": {"bus": "yes", "highway": "bus_stop", "name": "No. 11", "naptan:AtcoCode": "3500B125401", "naptan:Bearing": "E", "naptan:BusStopType": "CUS", "naptan:CommonName": "No. 11", "naptan:Indicator": "opp", "naptan:NaptanCode": "shramgag", "naptan:PlusbusZoneRef": "SHRWBY", "naptan:Street": "Berwick Road", "naptan:verified": "no", "public_transport": "platform", "route_ref": "576;7", "source": "knowledge"}}, {"type": "node", "id": 298547329, "lat": 52.7161742, "lon": -2.7544599, "tags": {"bus": "yes", "highway": "bus_stop", "name": "No. 11", "naptan:AtcoCode": "3500B125400", "naptan:Bearing": "SW", "naptan:CommonName": "No. 11", "naptan:Indicator": "adj", "naptan:NaptanCode": "shramgad", "naptan:PlusbusZoneRef": "SHRWBY", "naptan:Street": "Berwick Road", "naptan:verified": "no", "public_transport": "platform", "route_ref": "576;7", "source": "knowledge"}}, {"type": "node", "id": 308379836, "lat": 52.7097803, "lon": -2.7562699, "tags": {"bench": "no", "bin": "yes", "bus": "yes", "highway": "bus_stop", "name": "Mardol Jct", "naptan:AtcoCode": "3500B077801", "naptan:Bearing": "SW", "naptan:CommonName": "Mardol Jct", "naptan:Indicator": "adj", "naptan:NaptanCode": "shragtwp", "naptan:PlusbusZoneRef": "SHRWBY", "naptan:Street": "Smithfield Road", "naptan:verified": "no", "operator": "various", "public_transport": "platform", "route_ref": "70", "shelter": "no"}}, {"type": "node", "id": 447878285, "lat": 52.7192941, "lon": -2.7428756, "tags": {"bus": "yes", "departures_board": "no", "highway": "bus_stop", "public_transport": "platform", "shelter": "no"}}, {"type": "node", "id": 447878286, "lat": 52.7204382, "lon": -2.7416076, "tags": {"bench": "no", "bin": "no", "bus": "yes", "highway": "bus_stop", "mapillary": "772670136638461", "name": "Flax Mill", "naptan:AtcoCode": "3500B072100", "naptan:Bearing": "NE", "naptan:CommonName": "Flax Mill", "naptan:Indicator": "adj", "naptan:NaptanCode": "shragpjg", "naptan:PlusbusZoneRef": "SHRWBY", "naptan:Street": "Ditherington Road", "naptan:verified": "no", "public_transport": "platform", "shelter": "no", "survey:date": "2020-07-13"}}, {"type": "node", "id": 493637372, "lat": 52.7249487, "lon": -2.7379426, "tags": {"bus": "yes", "highway": "bus_stop", "name": "Six Bells PH", "naptan:AtcoCode": "3500B420400", "naptan:Bearing": "NE", "naptan:CommonName": "Six Bells PH", "naptan:Indicator": "adj", "naptan:NaptanCode": "shrdadtj", "naptan:PlusbusZoneRef": "SHRWBY", "naptan:Street": "Ditherington Road", "naptan:verified": "no", "public_transport": "platform", "shelter": "no"}}, {"type": "node", "id": 493637417, "lat": 52.7230926, "lon": -2.7390409, "tags": {"bin": "yes", "bus": "yes", "covered": "yes", "highway": "bus_stop", "name": "Comet Drive", "naptan:AtcoCode": "3500B072102", "naptan:Bearing": "SW", "naptan:CommonName": "The Coach PH", "naptan:Indicator": "opp", "naptan:NaptanCode": "shragpjp", "naptan:PlusbusZoneRef": "SHRWBY", "naptan:Street": "Spring Gardens", "naptan:verified": "no", "public_transport": "platform"}}, {"type": "node", "id": 493637438, "lat": 52.7225878, "lon": -2.7396006, "tags": {"bench": "no", "bin": "no", "bus": "yes", "highway": "bus_stop", "mapillary": "303322847956808", "name": "The Coach", "naptan:AtcoCode": "3500B072101", "naptan:Bearing": "NE", "naptan:CommonName": "The Coach PH", "naptan:Indicator": "adj", "naptan:NaptanCode": "shragpjm", "naptan:PlusbusZoneRef": "SHRWBY", "naptan:Street": "Spring Gardens", "public_transport": "platform", "shelter": "no", "survey:date": "2022-03-23"}}, {"type": "node", "id": 493637459, "lat": 52.7246336, "lon": -2.7379748, "tags": {"bench": "yes", "bin": "yes", "bus": "yes", "highway": "bus_stop", "naptan:AtcoCode": "3500B420401", "naptan:NaptanCode": "shrdadtm", "public_transport": "platform", "shelter": "yes", "tactile_paving": "no"}}, {"type": "node", "id": 665344319, "lat": 52.7164552, "lon": -2.727519, "tags": {"bench": "no", "bin": "no", "bus": "yes", "covered": "no", "departures_board": "no", "highway": "bus_stop", "name": "Monkmoor Hotel", "naptan:AtcoCode": "3500B071411", "naptan:Bearing": "NE", "naptan:CommonName": "Monkmoor Hotel", "naptan:Indicator": "adj", "naptan:NaptanCode": "shragpgj", "naptan:PlusbusZoneRef": "SHRWBY", "naptan:Street": "Monkmoor Road", "naptan:verified": "no", "pole": "yes", "public_transport": "platform"}}, {"type": "node", "id": 1708425943, "lat": 52.7075841, "lon": -2.7555894, "tags": {"bench": "yes", "bin": "yes", "bus": "yes", "highway": "bus_stop", "local_ref": "Q2", "name": "Shoplatch", "naptan:AtcoCode": "3500B057301", "naptan:Bearing": "SW", "naptan:CommonName": "Shoplatch P", "naptan:Indicator": "opp", "naptan:NaptanCode": "shragjmd", "naptan:Street": "Shoplatch", "public_transport": "platform", "shelter": "yes"}}, {"type": "node", "id": 3120420841, "lat": 52.7106444, "lon": -2.7524429, "tags": {"bench": "yes", "bus": "yes", "entrance": "yes", "highway": "bus_stop", "lit": "yes", "local_ref": "A", "name": "Shrewsbury Bus Station", "naptan:AtcoCode": "3500B004300", "naptan:CommonName": "Bus Station", "naptan:Indicator": "Stand A", "naptan:NaptanCode": "shradadt", "naptan:PlusbusZoneRef": "SHRWBY", "naptan:Street": "Bus Station", "naptan:verified": "no", "public_transport": "platform", "shelter": "yes", "tactile_paving": "no"}}, {"type": "node", "id": 3120420842, "lat": 52.7106817, "lon": -2.752488, "tags": {"bench": "yes", "bus": "yes", "entrance": "yes", "highway": "bus_stop", "local_ref": "B", "name": "Shrewsbury Bus Station", "naptan:AtcoCode": "3500B322800", "naptan:CommonName": "Bus Station", "naptan:Indicator": "Stand B", "naptan:NaptanCode": "shrawpgt", "naptan:PlusbusZoneRef": "SHRWBY", "naptan:Street": "Bus Station", "naptan:verified": "no", "public_transport": "platform", "shelter": "yes", "tactile_paving": "no"}}, {"type": "node", "id": 3120420843, "lat": 52.7107126, "lon": -2.7525124, "tags": {"bench": "yes", "bus": "yes", "entrance": "yes", "highway": "bus_stop", "local_ref": "C", "name": "Shrewsbury Bus Station", "naptan:AtcoCode": "3500B273700", "naptan:CommonName": "Bus Station", "naptan:Indicator": "Stand C", "naptan:NaptanCode": "shrawgaj", "naptan:PlusbusZoneRef": "SHRWBY", "naptan:Street": "Bus Station", "naptan:verified": "no", "public_transport": "platform", "tactile_paving": "no"}}, {"type": "node", "id": 3120420844, "lat": 52.7107537, "lon": -2.7525636, "tags": {"bench": "yes", "bus": "yes", "entrance": "yes", "highway": "bus_stop", "local_ref": "D", "name": "Shrewsbury Bus Station", "naptan:AtcoCode": "3500B255800", "naptan:CommonName": "Bus Station", "naptan:Indicator": "Stand D", "naptan:NaptanCode": "shrdgdpg", "naptan:PlusbusZoneRef": "SHRWBY", "naptan:Street": "Bus Station", "naptan:verified": "no", "public_transport": "platform", "shelter": "yes", "tactile_paving": "no"}}, {"type": "node", "id": 3120420845, "lat": 52.7107809, "lon": -2.7525915, "tags": {"bench": "yes", "bus": "yes", "entrance": "yes", "highway": "bus_stop", "local_ref": "E", "name": "Shrewsbury Bus Station", "naptan:AtcoCode": "3500B274500", "naptan:CommonName": "Bus Station", "naptan:Indicator": "Stand E", "naptan:NaptanCode": "shrawgam", "naptan:PlusbusZoneRef": "SHRWBY", "naptan:Street": "Bus Station", "naptan:verified": "no", "public_transport": "platform", "tactile_paving": "no"}}, {"type": "node", "id": 3120420846, "lat": 52.7108131, "lon": -2.7526336, "tags": {"bench": "yes", "bus": "yes", "entrance": "yes", "highway": "bus_stop", "local_ref": "F", "name": "Shrewsbury Bus Station", "naptan:AtcoCode": "3500B260800", "naptan:CommonName": "Bus Station", "naptan:Indicator": "Stand F", "naptan:NaptanCode": "shrawajw", "naptan:PlusbusZoneRef": "SHRWBY", "naptan:Street": "Bus Station", "naptan:verified": "no", "public_transport": "platform", "shelter": "yes", "tactile_paving": "no"}}, {"type": "node", "id": 3120420847, "lat": 52.7108495, "lon": -2.7526691, "tags": {"bench": "yes", "bus": "yes", "entrance": "yes", "highway": "bus_stop", "local_ref": "G", "name": "Shrewsbury Bus Station", "naptan:AtcoCode": "3500B320700", "naptan:CommonName": "Bus Station", "naptan:Indicator": "Stand G", "naptan:NaptanCode": "shrawpgj", "naptan:PlusbusZoneRef": "SHRWBY", "naptan:Street": "Bus Station", "naptan:verified": "no", "public_transport": "platform", "tactile_paving": "no"}}, {"type": "node", "id": 3120420848, "lat": 52.7108817, "lon": -2.7527066, "tags": {"bench": "yes", "bus": "yes", "entrance": "yes", "highway": "bus_stop", "local_ref": "H", "name": "Shrewsbury Bus Station", "naptan:AtcoCode": "3500B272400", "naptan:CommonName": "Bus Station", "naptan:Indicator": "Stand H", "naptan:NaptanCode": "shrawdtd", "naptan:PlusbusZoneRef": "SHRWBY", "naptan:Street": "Bus Station", "naptan:verified": "no", "public_transport": "platform", "shelter": "yes", "tactile_paving": "no"}}, {"type": "node", "id": 3120420849, "lat": 52.7109132, "lon": -2.7527401, "tags": {"bench": "yes", "bus": "yes", "entrance": "yes", "highway": "bus_stop", "local_ref": "J", "name": "Shrewsbury Bus Station", "naptan:AtcoCode": "3500B277200", "naptan:CommonName": "Bus Station", "naptan:Indicator": "Stand J", "naptan:NaptanCode": "shrawgdw", "naptan:PlusbusZoneRef": "SHRWBY", "naptan:Street": "Bus Station", "naptan:verified": "no", "public_transport": "platform", "tactile_paving": "no"}}, {"type": "node", "id": 3120420850, "lat": 52.7109487, "lon": -2.7527835, "tags": {"bench": "yes", "bus": "yes", "entrance": "yes", "highway": "bus_stop", "local_ref": "K", "name": "Shrewsbury Bus Station", "naptan:AtcoCode": "3500B320600", "naptan:CommonName": "Bus Station", "naptan:Indicator": "Stand K", "naptan:NaptanCode": "shrawpgd", "naptan:PlusbusZoneRef": "SHRWBY", "naptan:Street": "Bus Station", "naptan:verified": "no", "public_transport": "platform", "shelter": "yes", "tactile_paving": "no"}}, {"type": "node", "id": 3120420851, "lat": 52.7109843, "lon": -2.7528223, "tags": {"bench": "yes", "bus": "yes", "entrance": "yes", "highway": "bus_stop", "lit": "yes", "local_ref": "L", "name": "Shrewsbury Bus Station", "naptan:AtcoCode": "3500B270900", "naptan:CommonName": "Bus Station", "naptan:Indicator": "Stand L", "naptan:NaptanCode": "shrawdmw", "naptan:PlusbusZoneRef": "SHRWBY", "naptan:Street": "Bus Station", "naptan:verified": "no", "public_transport": "platform", "tactile_paving": "no"}}, {"type": "node", "id": 3120420852, "lat": 52.7110157, "lon": -2.7528607, "tags": {"bench": "yes", "bus": "yes", "entrance": "yes", "highway": "bus_stop", "local_ref": "M", "name": "Shrewsbury Bus Station", "naptan:AtcoCode": "3500B330100", "naptan:CommonName": "Bus Station", "naptan:Indicator": "Stand M", "naptan:NaptanCode": "shrawptg", "naptan:PlusbusZoneRef": "SHRWBY", "naptan:Street": "Bus Station", "naptan:verified": "no", "public_transport": "platform", "shelter": "yes", "tactile_paving": "no"}}, {"type": "node", "id": 3120433625, "lat": 52.7110816, "lon": -2.7523934, "tags": {"bench": "yes", "bin": "no", "bus": "yes", "highway": "bus_stop", "local_ref": "N", "mapillary": "1384413498599293", "name": "Shrewsbury Bus Station", "naptan:AtcoCode": "3500B276100", "naptan:CommonName": "Bus Station", "naptan:Indicator": "Stand N", "naptan:NaptanCode": "shrawgdg", "naptan:PlusbusZoneRef": "SHRWBY", "naptan:Street": "Bus Station", "public_transport": "platform", "shelter": "yes", "survey:date": "2020-07-13", "tactile_paving": "no"}}, {"type": "node", "id": 3120433626, "lat": 52.7109964, "lon": -2.7523019, "tags": {"bench": "yes", "bin": "yes", "bus": "yes", "highway": "bus_stop", "lit": "yes", "local_ref": "P", "name": "Shrewsbury Bus Station", "naptan:AtcoCode": "3500B254800", "naptan:CommonName": "Bus Station", "naptan:Indicator": "Stand P", "naptan:NaptanCode": "shratwgj", "naptan:PlusbusZoneRef": "SHRWBY", "naptan:Street": "Bus Station", "naptan:verified": "no", "public_transport": "platform", "shelter": "yes", "tactile_paving": "no"}}, {"type": "node", "id": 3120433627, "lat": 52.710899, "lon": -2.7522966, "tags": {"bench": "yes", "bin": "yes", "bus": "yes", "highway": "bus_stop", "local_ref": "R", "name": "Shrewsbury Bus Station", "naptan:AtcoCode": "3500B244700", "naptan:CommonName": "Bus Station", "naptan:Indicator": "Stand R", "naptan:NaptanCode": "shratmdw", "naptan:PlusbusZoneRef": "SHRWBY", "naptan:Street": "Bus Station", "naptan:verified": "no", "public_transport": "platform", "shelter": "yes", "tactile_paving": "no"}}, {"type": "node", "id": 3120433628, "lat": 52.7107757, "lon": -2.7522147, "tags": {"bench": "yes", "bin": "yes", "bus": "yes", "highway": "bus_stop", "lit": "yes", "local_ref": "S", "name": "Shrewsbury Bus Station", "naptan:AtcoCode": "3500B276200", "naptan:CommonName": "Bus Station", "naptan:Indicator": "Stand S", "naptan:NaptanCode": "shrawgdj", "naptan:PlusbusZoneRef": "SHRWBY", "naptan:Street": "Bus Station", "naptan:verified": "no", "public_transport": "platform", "shelter": "yes", "tactile_paving": "no"}}, {"type": "node", "id": 3560587075, "lat": 52.7025702, "lon": -2.7398901, "tags": {"bench": "yes", "bin": "no", "bus": "yes", "highway": "bus_stop", "mapillary": "3034004900215508", "name": "Cineworld", "naptan:AtcoCode": "3500B401902", "naptan:Bearing": "SE", "naptan:CommonName": "Cineworld", "naptan:Indicator": "adj", "naptan:NaptanCode": "shrawtmw", "naptan:PlusbusZoneRef": "SHRWBY", "naptan:Street": "Old Potts Way", "naptan:verified": "no", "public_transport": "platform", "ref": "shrawtm", "shelter": "yes", "source": "Bing", "survey:date": "2019-09-13"}}, {"type": "node", "id": 3566830602, "lat": 52.7070339, "lon": -2.7410585, "tags": {"bench": "yes", "bin": "yes", "bus": "yes", "highway": "bus_stop", "name": "Shrewsbury, Abbey Foregate, opp The Dun Cow", "naptan:AtcoCode": "3500B268102", "naptan:NaptanCode": "shrawdgp", "network": "Arriva", "network:wikidata": "Q680991", "network:wikipedia": "en:Arriva", "operator": "Arriva", "public_transport": "platform", "ref": "Outbound", "shelter": "yes", "source": "Bing;local knowledge", "tactile_paving": "no"}}, {"type": "node", "id": 3609622688, "lat": 52.7097078, "lon": -2.7372529, "tags": {"bench": "no", "bin": "yes", "bus": "yes", "departures_board": "no", "highway": "bus_stop", "naptan:AtcoCode": "3500B071405", "naptan:NaptanCode": "shragpdm", "network": "Arriva", "network:wikidata": "Q680991", "network:wikipedia": "en:Arriva", "operator": "Arriva", "public_transport": "platform", "ref": "Inbound", "shelter": "yes"}}, {"type": "node", "id": 3634335595, "lat": 52.7060418, "lon": -2.7374321, "tags": {"bus": "yes", "highway": "bus_stop", "public_transport": "platform"}}, {"type": "node", "id": 5275547731, "lat": 52.7238349, "lon": -2.7467774, "tags": {"bench": "yes", "bus": "yes", "highway": "bus_stop", "name": "Chelwood Drive Jct", "naptan:AtcoCode": "3500B128305", "naptan:Bearing": "NW", "naptan:CommonName": "Chelwood Drive Jct", "naptan:Indicator": "adj", "naptan:NaptanCode": "shramjmp", "naptan:PlusbusZoneRef": "SHRWBY", "naptan:Street": "Hubert Way", "naptan:verified": "no", "public_transport": "platform", "shelter": "yes"}}, {"type": "node", "id": 7822848941, "lat": 52.7125987, "lon": -2.73434, "tags": {"bus": "yes", "departures_board": "no", "highway": "bus_stop", "naptan:AtcoCode": "3500B071407", "naptan:NaptanCode": "shragpdt", "network": "Arriva", "network:wikidata": "Q680991", "network:wikipedia": "en:Arriva", "operator": "Arriva", "public_transport": "platform", "ref": "Inbound", "shelter": "no"}}, {"type": "node", "id": 7822856873, "lat": 52.7129334, "lon": -2.7340101, "tags": {"bench": "no", "bus": "yes", "departures_board": "yes", "highway": "bus_stop", "naptan:AtcoCode": "3500B071406", "naptan:NaptanCode": "shragpdp", "network": "Arriva", "network:wikidata": "Q680991", "network:wikipedia": "en:Arriva", "operator": "Arriva", "pole": "yes", "public_transport": "platform", "ref": "Outbound", "shelter": "no"}}, {"type": "node", "id": 7829990458, "lat": 52.7116377, "lon": -2.7507715, "tags": {"bench": "no", "bin": "no", "bus": "yes", "departures_board": "no", "highway": "bus_stop", "naptan:AtcoCode": "3500B077802", "network": "Arriva", "network:wikidata": "Q680991", "note": "Has a timetable which lists numerous services but none of the buses listed actually go past this stop except Oxon and Meole Brace Park and Ride", "operator": "Arriva", "public_transport": "platform", "shelter": "yes"}}, {"type": "node", "id": 7829990459, "lat": 52.7122285, "lon": -2.7511327, "tags": {"bus": "yes", "highway": "bus_stop", "name": "The Gateway Chester Street", "naptan:AtcoCode": "3500B125300", "naptan:Bearing": "N", "naptan:CommonName": "The Gateway", "naptan:Indicator": "adj", "naptan:NaptanCode": "shramdwm", "naptan:PlusbusZoneRef": "SHRWBY", "naptan:Street": "Chester Street", "naptan:verified": "no", "network": "Arriva", "network:wikidata": "Q680991", "network:wikipedia": "en:Arriva", "note": "Both country services and some town services pass this stop but because town services are in opposite lane they may not be willing to stop", "operator": "Arriva", "public_transport": "platform", "shelter": "no"}}, {"type": "node", "id": 7829990460, "lat": 52.7105461, "lon": -2.7543026, "tags": {"bench": "no", "bin": "no", "bus": "yes", "departures_board": "yes", "highway": "bus_stop", "name": "Lloyds Chemist", "naptan:AtcoCode": "3500B077800", "naptan:Bearing": "SW", "naptan:CommonName": "Lloyds Chemist", "naptan:Indicator": "adj", "naptan:NaptanCode": "shragtwm", "naptan:PlusbusZoneRef": "SHRWBY", "naptan:Street": "Smithfield Road", "naptan:verified": "no", "operator": "various", "pole": "yes", "public_transport": "platform", "ref": "Smithfield Road", "shelter": "no"}}, {"type": "node", "id": 7830045520, "lat": 52.7113389, "lon": -2.760695, "tags": {"bench": "no", "bin": "no", "bus": "yes", "highway": "bus_stop", "name": "Cycle Shop", "naptan:AtcoCode": "3500B245300", "naptan:Bearing": "SW", "naptan:CommonName": "Cycle Shop", "naptan:Indicator": "adj", "naptan:NaptanCode": "shratmgj", "naptan:PlusbusZoneRef": "SHRWBY", "naptan:Street": "Frankwell", "naptan:verified": "no", "operator": "various", "pole": "yes", "public_transport": "platform", "ref": "Outbound", "shelter": "no"}}, {"type": "node", "id": 7830045521, "lat": 52.7111076, "lon": -2.7616777, "tags": {"bus": "yes", "highway": "bus_stop", "naptan:AtcoCode": "3500B078500", "naptan:NaptanCode": "shragwdg", "operator": "various", "pole": "yes", "public_transport": "platform", "ref": "inbound", "shelter": "no"}}, {"type": "node", "id": 7830045522, "lat": 52.7115204, "lon": -2.7614083, "tags": {"bench": "yes", "bus": "yes", "highway": "bus_stop", "local_ref": "X", "name": "Frankwell Island", "naptan:AtcoCode": "3500B245301", "naptan:NaptanCode": "shratmgm", "operator": "various", "public_transport": "platform", "ref": "Outbound", "shelter": "yes"}}, {"type": "node", "id": 7830045523, "lat": 52.7117961, "lon": -2.7612691, "tags": {"bench": "yes", "bus": "yes", "highway": "bus_stop", "local_ref": "Y", "name": "Frankwell", "naptan:AtcoCode": "3500B245302", "naptan:NaptanCode": "shratmgp", "operator": "various", "public_transport": "platform", "ref": "Inbound", "shelter": "no"}}, {"type": "node", "id": 7833749216, "lat": 52.7038931, "lon": -2.7449293, "tags": {"bus": "yes", "description": "Stop sign attached to lamp post", "fixme": "check name as likely to be more descriptive", "highway": "bus_stop", "lit": "yes", "name": "Outbound", "naptan:AtcoCode": "3500B095400", "naptan:Bearing": "SW", "naptan:CommonName": "Betton Street Jct", "naptan:Indicator": "adj", "naptan:NaptanCode": "shrajgtj", "naptan:PlusbusZoneRef": "SHRWBY", "naptan:Street": "Belle Vue Road", "naptan:verified": "no", "network": "Arriva", "network:wikidata": "Q680991", "network:wikipedia": "en:Arriva", "operator": "Arriva", "pole": "yes", "public_transport": "platform", "ref": "shrajgtj", "shelter": "no"}}, {"type": "node", "id": 7833749217, "lat": 52.7030781, "lon": -2.745871, "tags": {"bus": "yes", "description": "Stop sign attached to lamp post", "fixme": "check name as likely to be more descriptive", "highway": "bus_stop", "lit": "yes", "name": "Inbound", "naptan:AtcoCode": "3500B095401", "naptan:Bearing": "NE", "naptan:CommonName": "Boars Head PH", "naptan:Indicator": "adj", "naptan:NaptanCode": "shrajgtm", "naptan:PlusbusZoneRef": "SHRWBY", "naptan:Street": "Belle Vue Road", "naptan:verified": "no", "network": "Arriva", "network:wikidata": "Q680991", "network:wikipedia": "en:Arriva", "operator": "Arriva", "pole": "yes", "public_transport": "platform", "ref": "shrajgtm", "shelter": "no"}}, {"type": "node", "id": 7833749218, "lat": 52.7012266, "lon": -2.7472479, "tags": {"bus": "yes", "highway": "bus_stop", "name": "The Limes", "naptan:AtcoCode": "3500B095403", "naptan:Bearing": "SW", "naptan:CommonName": "The Limes", "naptan:Indicator": "opp", "naptan:NaptanCode": "shrajgtw", "naptan:PlusbusZoneRef": "SHRWBY", "naptan:Street": "Belle Vue Road", "naptan:verified": "no", "network": "Arriva", "network:wikidata": "Q680991", "network:wikipedia": "en:Arriva", "operator": "Arriva", "public_transport": "platform", "ref": "Outbound", "shelter": "no"}}, {"type": "node", "id": 7833749220, "lat": 52.6985429, "lon": -2.7493922, "tags": {"bus": "yes", "highway": "bus_stop", "network": "Arriva", "network:wikidata": "Q680991", "network:wikipedia": "en:Arriva", "operator": "Arriva", "public_transport": "platform", "ref": "Outbound", "shelter": "no"}}, {"type": "node", "id": 7833749221, "lat": 52.6983291, "lon": -2.7497822, "tags": {"bus": "yes", "highway": "bus_stop", "name": "Oakley Manor", "naptan:AtcoCode": "3500B095404", "naptan:Bearing": "NE", "naptan:CommonName": "Oakley Manor", "naptan:Indicator": "adj", "naptan:NaptanCode": "shrajgwa", "naptan:PlusbusZoneRef": "SHRWBY", "naptan:Street": "Belle Vue Road", "naptan:verified": "no", "network": "Arriva", "network:wikidata": "Q680991", "network:wikipedia": "en:Arriva", "operator": "Arriva", "public_transport": "platform", "ref": "Inbound", "shelter": "yes"}}, {"type": "node", "id": 7833749222, "lat": 52.6965073, "lon": -2.7509663, "tags": {"bus": "yes", "description": "Outbound", "highway": "bus_stop", "name": "Belle Vue, adj Brook Street Junction", "naptan:AtcoCode": "3500B077600", "naptan:Bearing": "SW", "naptan:CommonName": "Brook Street Jct", "naptan:Indicator": "adj", "naptan:NaptanCode": "shragtmg", "naptan:PlusbusZoneRef": "SHRWBY", "naptan:Street": "Hereford Road", "naptan:verified": "no", "network": "Arriva", "network:wikidata": "Q680991", "network:wikipedia": "en:Arriva", "operator": "Arriva", "public_transport": "platform", "ref": "shragtmg", "shelter": "no"}}, {"type": "node", "id": 7833749223, "lat": 52.6960432, "lon": -2.7519537, "tags": {"bus": "yes", "description": "Inbound", "highway": "bus_stop", "name": "Belle Vue, opp The Rocks", "naptan:AtcoCode": "3500B077603", "naptan:Bearing": "NE", "naptan:CommonName": "The Rocks", "naptan:Indicator": "opp", "naptan:NaptanCode": "shragtmt", "naptan:PlusbusZoneRef": "SHRWBY", "naptan:Street": "Hereford Road", "naptan:verified": "no", "network": "Arriva", "network:wikidata": "Q680991", "network:wikipedia": "en:Arriva", "operator": "Arriva", "public_transport": "platform", "ref": "shragtmt", "shelter": "yes"}}, {"type": "node", "id": 7833749224, "lat": 52.695209, "lon": -2.7533365, "tags": {"bus": "yes", "description": "Inbound", "highway": "bus_stop", "name": "Belle Vue, adj Upper Road Junction", "naptan:AtcoCode": "3500B077605", "naptan:Bearing": "NE", "naptan:CommonName": "Upper Road Jct", "naptan:Indicator": "adj", "naptan:NaptanCode": "shragtpa", "naptan:PlusbusZoneRef": "SHRWBY", "naptan:Street": "Hereford Road", "naptan:verified": "no", "network": "Arriva", "network:wikidata": "Q680991", "network:wikipedia": "en:Arriva", "operator": "Arriva", "public_transport": "platform", "ref": "shragtpa", "shelter": "yes"}}, {"type": "node", "id": 7833749225, "lat": 52.6956563, "lon": -2.7523072, "tags": {"bus": "yes", "description": "Outbound. Stop sign on lamppost", "highway": "bus_stop", "name": "Belle Vue, adj The Rocks", "naptan:AtcoCode": "3500B077602", "naptan:Bearing": "SW", "naptan:CommonName": "The Rocks", "naptan:Indicator": "adj", "naptan:NaptanCode": "shragtmp", "naptan:PlusbusZoneRef": "SHRWBY", "naptan:Street": "Hereford Road", "naptan:verified": "no", "network": "Arriva", "network:wikidata": "Q680991", "network:wikipedia": "en:Arriva", "operator": "Arriva", "public_transport": "platform", "ref": "shragtmp", "shelter": "no"}}, {"type": "node", "id": 7833749226, "lat": 52.6927935, "lon": -2.7557166, "tags": {"bus": "yes", "highway": "bus_stop", "network": "Arriva", "network:wikidata": "Q680991", "network:wikipedia": "en:Arriva", "operator": "Arriva", "public_transport": "platform", "ref": "Inbound", "shelter": "yes"}}, {"type": "node", "id": 7833749227, "lat": 52.6921703, "lon": -2.755471, "tags": {"bus": "yes", "highway": "bus_stop", "name": "BP Garage", "naptan:AtcoCode": "3500B246300", "naptan:Bearing": "S", "naptan:CommonName": "BP Garage", "naptan:Indicator": "adj", "naptan:NaptanCode": "shratmpw", "naptan:PlusbusZoneRef": "SHRWBY", "naptan:Street": "Hereford Road", "naptan:verified": "no", "network": "Arriva", "network:wikidata": "Q680991", "network:wikipedia": "en:Arriva", "operator": "Arriva", "public_transport": "platform", "ref": "Outbound", "shelter": "yes"}}, {"type": "node", "id": 7833753407, "lat": 52.7060859, "lon": -2.7463624, "tags": {"bin": "no", "bus": "yes", "highway": "bus_stop", "naptan:AtcoCode": "3500B019201", "naptan:NaptanCode": "shradjmp", "network": "Arriva", "network:wikidata": "Q680991", "network:wikipedia": "en:Arriva", "operator": "Arriva", "pole": "yes", "public_transport": "platform", "ref": "Inbound", "shelter": "no"}}, {"type": "node", "id": 7833753408, "lat": 52.7064073, "lon": -2.7452982, "tags": {"bench": "yes", "bus": "yes", "highway": "bus_stop", "local_ref": "L", "name": "English Bridge", "naptan:AtcoCode": "3500B019200", "naptan:Bearing": "W", "naptan:CommonName": "Mansers", "naptan:Indicator": "adj", "naptan:NaptanCode": "shradjmj", "naptan:PlusbusZoneRef": "SHRWBY", "naptan:Street": "Coleham Head", "naptan:verified": "no", "network": "Arriva", "network:wikidata": "Q680991", "network:wikipedia": "en:Arriva", "operator": "Arriva", "public_transport": "platform", "shelter": "yes"}}, {"type": "node", "id": 7833753409, "lat": 52.7053231, "lon": -2.7435563, "tags": {"bench": "yes", "bus": "yes", "highway": "bus_stop", "name": "Old Potts Way (north bound)", "naptan:AtcoCode": "3500B401901", "naptan:Bearing": "NW", "naptan:CommonName": "Asda", "naptan:Indicator": "opp", "naptan:NaptanCode": "shrawtmt", "naptan:PlusbusZoneRef": "SHRWBY", "naptan:Street": "Old Potts Way", "naptan:verified": "no", "operator": "Various", "public_transport": "platform", "shelter": "yes"}}, {"type": "node", "id": 7833753410, "lat": 52.704892, "lon": -2.7429666, "tags": {"bench": "yes", "bin": "no", "bus": "yes", "highway": "bus_stop", "name": "Old Potts Way (south bound)", "naptan:AtcoCode": "3500B401900", "naptan:Bearing": "SE", "naptan:CommonName": "Asda", "naptan:Indicator": "adj", "naptan:NaptanCode": "shrawtmp", "naptan:PlusbusZoneRef": "SHRWBY", "naptan:Street": "Old Potts Way", "naptan:verified": "no", "operator": "Various", "public_transport": "platform", "shelter": "yes"}}, {"type": "node", "id": 7834789341, "lat": 52.7068301, "lon": -2.7408444, "tags": {"bench": "yes", "bin": "yes", "bus": "yes", "highway": "bus_stop", "name": "Shrewsbury, Abbey Foregate, Dun Cow", "naptan:AtcoCode": "3500B268103", "naptan:NaptanCode": "shrawdgt", "network": "Arriva", "network:wikidata": "Q680991", "network:wikipedia": "en:Arriva", "operator": "Arriva", "public_transport": "platform", "ref": "Inbound", "shelter": "yes", "tactile_paving": "no"}}, {"type": "node", "id": 7834789342, "lat": 52.7073115, "lon": -2.7440406, "tags": {"bus": "yes", "highway": "bus_stop", "name": "Abbey Church", "naptan:AtcoCode": "3500B268101", "naptan:Bearing": "W", "naptan:CommonName": "Abbey Church", "naptan:Indicator": "opp", "naptan:NaptanCode": "shrawdgm", "naptan:PlusbusZoneRef": "SHRWBY", "naptan:Street": "Abbey Foregate", "naptan:verified": "no", "network": "Arriva", "network:wikidata": "Q680991", "network:wikipedia": "en:Arriva", "operator": "Arriva", "public_transport": "platform", "ref": "Inbound", "shelter": "yes"}}, {"type": "node", "id": 7834789343, "lat": 52.7064876, "lon": -2.7481199, "tags": {"bench": "no", "bin": "no", "bus": "yes", "description": "Outbound", "highway": "bus_stop", "layer": "1", "name": "Bridge", "naptan:AtcoCode": "3500B191800", "naptan:Bearing": "NE", "naptan:CommonName": "Bridge", "naptan:Indicator": "adj", "naptan:NaptanCode": "shraptgd", "naptan:PlusbusZoneRef": "SHRWBY", "naptan:Street": "English Bridge", "naptan:verified": "no", "operator": "Various", "pole": "yes", "public_transport": "platform", "shelter": "no"}}, {"type": "node", "id": 7834789344, "lat": 52.7060913, "lon": -2.7494095, "tags": {"bus": "yes", "highway": "bus_stop", "naptan:AtcoCode": "3500B180200", "naptan:NaptanCode": "shrdagtm", "operator": "Various", "public_transport": "platform", "ref": "Inbound", "shelter": "no"}}, {"type": "node", "id": 7847644045, "lat": 52.6929764, "lon": -2.758067, "tags": {"bench": "yes", "bin": "yes", "bus": "yes", "fixme": "Check stop name", "highway": "bus_stop", "name": "Inboud", "naptan:AtcoCode": "3500B098801", "naptan:Bearing": "NE", "naptan:BusStopType": "CUS", "naptan:CommonName": "Meole Crescent", "naptan:Indicator": "opp", "naptan:NaptanCode": "shrajmgw", "naptan:PlusbusZoneRef": "SHRWBY", "naptan:Street": "Upper Road", "naptan:verified": "no", "network": "Arriva", "network:wikidata": "Q680991", "network:wikipedia": "en:Arriva", "operator": "Arriva", "public_transport": "platform", "ref": "shrajmgw", "shelter": "yes"}}, {"type": "node", "id": 7847644046, "lat": 52.6928869, "lon": -2.7588888, "tags": {"bench": "no", "bin": "yes", "bus": "yes", "departures_board": "no", "fixme": "Check stop name", "highway": "bus_stop", "lit": "no", "name": "Outbound", "name:signed": "no", "naptan:AtcoCode": "3500B098800", "naptan:NaptanCode": "shrajmgt", "network": "Arriva", "network:wikidata": "Q680991", "network:wikipedia": "en:Arriva", "operator": "Arriva", "pole": "yes", "public_transport": "platform", "ref": "shrajmgt", "shelter": "no", "tactile_paving": "no"}}, {"type": "node", "id": 7864482105, "lat": 52.7108076, "lon": -2.7367276, "tags": {"bench": "no", "bus": "yes", "departures_board": "yes", "highway": "bus_stop", "name": "Cleveland Street Jct", "naptan:AtcoCode": "3500B071404", "naptan:Bearing": "NE", "naptan:CommonName": "Cleveland Street Jct", "naptan:Indicator": "adj", "naptan:NaptanCode": "shragpdj", "naptan:PlusbusZoneRef": "SHRWBY", "naptan:Street": "Monkmoor Road", "naptan:verified": "no", "network": "Arriva", "network:wikidata": "Q680991", "network:wikipedia": "en:Arriva", "operator": "Arriva", "pole": "yes", "public_transport": "platform", "ref": "Outbound", "shelter": "no"}}, {"type": "node", "id": 7872565437, "lat": 52.7126016, "lon": -2.7662902, "tags": {"bus": "yes", "highway": "bus_stop", "name": "Hafren Road", "naptan:AtcoCode": "3500B014411", "naptan:Bearing": "E", "naptan:CommonName": "Hafren Road", "naptan:Indicator": "opp", "naptan:NaptanCode": "shradgad", "naptan:PlusbusZoneRef": "SHRWBY", "naptan:Street": "The Mount", "naptan:verified": "no", "operator": "Various", "public_transport": "platform", "ref": "Inbound", "shelter": "no"}}, {"type": "node", "id": 7872565438, "lat": 52.7125075, "lon": -2.7665317, "tags": {"bus": "yes", "highway": "bus_stop", "name": "Hafren Road", "naptan:AtcoCode": "3500B014410", "naptan:Bearing": "W", "naptan:CommonName": "Hafren Road", "naptan:Indicator": "adj", "naptan:NaptanCode": "shradawt", "naptan:PlusbusZoneRef": "SHRWBY", "naptan:Street": "The Mount", "naptan:verified": "no", "operator": "Various", "public_transport": "platform", "ref": "Outbound", "shelter": "no"}}, {"type": "node", "id": 7880849070, "lat": 52.7076216, "lon": -2.7387582, "tags": {"bench": "no", "bin": "no", "bus": "yes", "highway": "bus_stop", "naptan:AtcoCode": "3500B071401", "naptan:NaptanCode": "shragpaw", "network": "Arriva", "network:wikidata": "Q680991", "network:wikipedia": "en:Arriva", "operator": "Arriva", "pole": "yes", "public_transport": "platform", "ref": "Inbound", "shelter": "no"}}, {"type": "node", "id": 8899532871, "lat": 52.7072341, "lon": -2.7509627, "tags": {"bench": "yes", "bin": "yes", "bus": "yes", "covered": "yes", "departures_board": "no", "flag": "yes", "highway": "bus_stop", "kerb": "raised", "local_ref": "F", "name": "Dogpole", "naptan:AtcoCode": "3500B017800", "naptan:NaptanCode": "shradjap", "public_transport": "platform", "shelter": "yes", "tactile_paving": "no"}}, {"type": "node", "id": 8901168625, "lat": 52.7093726, "lon": -2.7516447, "tags": {"bench": "yes", "bin": "yes", "bus": "yes", "highway": "bus_stop", "local_ref": "D2", "mapillary": "1003308950201280", "name": "Castle Street", "naptan:AtcoCode": "3500B266901", "naptan:Bearing": "SW", "naptan:CommonName": "Castle Street", "naptan:Indicator": "Stand D2", "naptan:NaptanCode": "shrawdat", "naptan:PlusbusZoneRef": "SHRWBY", "naptan:Street": "Castle Street", "public_transport": "platform", "shelter": "yes", "survey:date": "2019-06-13", "tactile_paving": "yes"}}, {"type": "node", "id": 8942511988, "lat": 52.7095802, "lon": -2.7769137, "tags": {"bench": "yes", "bin": "no", "bus": "yes", "highway": "bus_stop", "lit": "yes", "name": "Richmond Drive jct, Copthorne", "naptan:AtcoCode": "3500B078510", "naptan:Bearing": "NE", "naptan:CommonName": "Richmond Drive Jct", "naptan:Indicator": "adj", "naptan:NaptanCode": "shragwgp", "naptan:PlusbusZoneRef": "SHRWBY", "naptan:Street": "Copthorne Road", "naptan:verified": "no", "public_transport": "platform", "shelter": "yes", "tactile_paving": "no"}}, {"type": "node", "id": 8942567161, "lat": 52.7083452, "lon": -2.7790873, "tags": {"bench": "no", "bin": "no", "bus": "yes", "highway": "bus_stop", "lit": "yes", "name": "Shelton Road Jct, Copthorne", "naptan:AtcoCode": "3500B078511", "naptan:Bearing": "SW", "naptan:CommonName": "Shelton Road Jct", "naptan:Indicator": "adj", "naptan:NaptanCode": "shragwgt", "naptan:PlusbusZoneRef": "SHRWBY", "naptan:Street": "Copthorne Road", "naptan:verified": "no", "pole": "yes", "public_transport": "platform", "shelter": "no", "tactile_paving": "no"}}, {"type": "node", "id": 8942570997, "lat": 52.7085619, "lon": -2.7788876, "tags": {"bench": "no", "bin": "no", "bus": "yes", "highway": "bus_stop", "name": "Shelton Road Jct", "naptan:AtcoCode": "3500B078512", "naptan:Bearing": "NE", "naptan:CommonName": "Shelton Road Jct", "naptan:Indicator": "opp", "naptan:NaptanCode": "shragwgw", "naptan:PlusbusZoneRef": "SHRWBY", "naptan:Street": "Copthorne Road", "naptan:verified": "no", "pole": "yes", "public_transport": "platform", "shelter": "no"}}, {"type": "node", "id": 8942571935, "lat": 52.7094984, "lon": -2.7767199, "tags": {"bench": "no", "bin": "no", "bus": "yes", "departures_board": "yes", "highway": "bus_stop", "name": "Richmond Drive Jct", "naptan:AtcoCode": "3500B078509", "naptan:Bearing": "SW", "naptan:CommonName": "Richmond Drive Jct", "naptan:Indicator": "opp", "naptan:NaptanCode": "shragwgm", "naptan:PlusbusZoneRef": "SHRWBY", "naptan:Street": "Copthorne Road", "naptan:verified": "no", "pole": "yes", "public_transport": "platform", "shelter": "no"}}, {"type": "node", "id": 8979846638, "lat": 52.7095047, "lon": -2.7514166, "tags": {"bench": "yes", "bin": "no", "bus": "yes", "highway": "bus_stop", "local_ref": "D1", "mapillary": "577430419866932", "name": "Castle Street", "naptan:AtcoCode": "3500B266900", "naptan:Bearing": "SW", "naptan:CommonName": "Castle Street", "naptan:Indicator": "Stand D1", "naptan:NaptanCode": "shrawdap", "naptan:PlusbusZoneRef": "SHRWBY", "naptan:Street": "Castle Street", "public_transport": "platform", "shelter": "yes", "survey:date": "2019-06-13", "tactile_paving": "no"}}, {"type": "node", "id": 9078998811, "lat": 52.6897485, "lon": -2.7677965, "tags": {"bus": "yes", "highway": "bus_stop", "name": "Meole Village Stores", "naptan:AtcoCode": "3500B099501", "naptan:Bearing": "NE", "naptan:CommonName": "Meole Village Stores", "naptan:Indicator": "adj", "naptan:NaptanCode": "shrajmpm", "naptan:PlusbusZoneRef": "SHRWBY", "naptan:Street": "Alexandra Avenue", "naptan:verified": "no", "public_transport": "platform", "shelter": "yes"}}, {"type": "node", "id": 9135896925, "lat": 52.7028198, "lon": -2.7406677, "tags": {"bench": "yes", "bin": "no", "bus": "yes", "highway": "bus_stop", "name": "Cineworld", "naptan:AtcoCode": "3500B401903", "naptan:Bearing": "NW", "naptan:CommonName": "Cineworld", "naptan:Indicator": "opp", "naptan:NaptanCode": "shrawtpa", "naptan:PlusbusZoneRef": "SHRWBY", "naptan:Street": "Old Potts Way", "naptan:verified": "no", "public_transport": "platform", "ref": "shrawtp", "shelter": "yes"}}, {"type": "node", "id": 9169256246, "lat": 52.6955775, "lon": -2.7666808, "tags": {"bench": "no", "bin": "yes", "bus": "yes", "highway": "bus_stop", "lit": "yes", "name": "Shrewsbury, Longden Road, Opp Priory School", "naptan:AtcoCode": "3500B085309", "naptan:Bearing": "SW", "naptan:CommonName": "Priory School", "naptan:Indicator": "opp", "naptan:NaptanCode": "shrajatj", "naptan:PlusbusZoneRef": "SHRWBY", "naptan:Street": "Longden Road", "naptan:verified": "no", "public_transport": "platform", "shelter": "no", "tactile_paving": "no"}}, {"type": "node", "id": 9169256247, "lat": 52.6951679, "lon": -2.7674845, "tags": {"bench": "no", "bin": "yes", "bus": "yes", "highway": "bus_stop", "lit": "yes", "name": "Shrewsbury, Longden Road, Priory School", "naptan:AtcoCode": "3500B085308", "naptan:NaptanCode": "shrajatg", "public_transport": "platform", "shelter": "no", "tactile_paving": "no"}}, {"type": "node", "id": 9204353888, "lat": 52.7044522, "lon": -2.7325697, "tags": {"bench": "yes", "bin": "yes", "bus": "yes", "highway": "bus_stop", "naptan:AtcoCode": "3500B051200", "naptan:NaptanCode": "shragatg", "public_transport": "platform", "shelter": "yes"}}, {"type": "node", "id": 9204353892, "lat": 52.7040564, "lon": -2.732604, "tags": {"bench": "yes", "bus": "yes", "highway": "bus_stop", "naptan:AtcoCode": "3500B051201", "naptan:NaptanCode": "shragatj", "public_transport": "platform", "shelter": "yes"}}, {"type": "node", "id": 9433311867, "lat": 52.7001125, "lon": -2.7832741, "tags": {"bench": "no", "bin": "no", "bus": "yes", "highway": "bus_stop", "lit": "no", "name": "Crowmeole Lane Jct", "name:signed": "no", "naptan:AtcoCode": "3500B435704", "naptan:Bearing": "SW", "naptan:CommonName": "Crowmeole Lane Jct", "naptan:Indicator": "opp", "naptan:NaptanCode": "shrdgjaw", "naptan:PlusbusZoneRef": "SHRWBY", "naptan:Street": "Hanwood Road", "naptan:verified": "no", "public_transport": "platform", "shelter": "no", "tactile_paving": "no"}}, {"type": "node", "id": 9460075753, "lat": 52.7104626, "lon": -2.7660487, "tags": {"bus": "yes", "highway": "bus_stop", "naptan:AtcoCode": "3500B078503", "naptan:NaptanCode": "shragwdp", "public_transport": "platform"}}, {"type": "node", "id": 9460075754, "lat": 52.7105031, "lon": -2.77237, "tags": {"bench": "no", "bin": "no", "bus": "yes", "highway": "bus_stop", "lit": "yes", "name": "Barracks", "naptan:AtcoCode": "3500B078507", "naptan:Bearing": "W", "naptan:CommonName": "Barracks", "naptan:Indicator": "opp", "naptan:NaptanCode": "shragwgd", "naptan:PlusbusZoneRef": "SHRWBY", "naptan:Street": "Copthorne Road", "naptan:verified": "no", "public_transport": "platform", "shelter": "no", "tactile_paving": "no"}}, {"type": "node", "id": 9547001594, "lat": 52.7144146, "lon": -2.7451331, "tags": {"bus": "yes", "highway": "bus_stop", "name": "Canal Tavern", "naptan:AtcoCode": "3500B070502", "naptan:Bearing": "SW", "naptan:CommonName": "Canal Tavern", "naptan:Indicator": "opp", "naptan:NaptanCode": "shragmwg", "naptan:PlusbusZoneRef": "SHRWBY", "naptan:Street": "New Park Road", "naptan:verified": "no", "public_transport": "platform"}}, {"type": "node", "id": 9560368654, "lat": 52.7075357, "lon": -2.7827967, "tags": {"bus": "yes", "highway": "bus_stop", "naptan:AtcoCode": "3500B086901", "naptan:NaptanCode": "shrajdam", "public_transport": "platform", "shelter": "yes"}}, {"type": "node", "id": 9568588124, "lat": 52.7165881, "lon": -2.752641, "tags": {"bus": "yes", "highway": "bus_stop", "layer": "1", "name": "Berwick Road Jct", "naptan:AtcoCode": "3500B126512", "naptan:Bearing": "NE", "naptan:CommonName": "Berwick Road Jct", "naptan:Indicator": "adj", "naptan:PlusbusZoneRef": "SHRWBY", "naptan:Street": "Ellesmere Road", "naptan:verified": "no", "public_transport": "platform", "shelter": "no"}}, {"type": "node", "id": 9568588125, "lat": 52.7167645, "lon": -2.7523745, "tags": {"bus": "yes", "highway": "bus_stop", "layer": "1", "name": "Berwick Road Jct", "naptan:AtcoCode": "3500B126505", "naptan:Bearing": "SW", "naptan:CommonName": "Berwick Road Jct", "naptan:Indicator": "opp", "naptan:NaptanCode": "shramdpw", "naptan:PlusbusZoneRef": "SHRWBY", "naptan:Street": "Ellesmere Road", "naptan:verified": "no", "public_transport": "platform", "shelter": "no"}}, {"type": "node", "id": 9613456205, "lat": 52.6926843, "lon": -2.7569974, "tags": {"bench": "no", "bin": "no", "bus": "yes", "departures_board": "no", "highway": "bus_stop", "name": "Brooklands", "naptan:AtcoCode": "3500B458400", "naptan:Bearing": "NW", "naptan:CommonName": "Brooklands", "naptan:Indicator": "adj", "naptan:NaptanCode": "shrdgawt", "naptan:PlusbusZoneRef": "SHRWBY", "naptan:Street": "Roman Road", "naptan:verified": "no", "public_transport": "platform", "shelter": "no", "tactile_paving": "no"}}, {"type": "node", "id": 9646527110, "lat": 52.7131637, "lon": -2.7499871, "tags": {"bus": "yes", "highway": "bus_stop", "naptan:AtcoCode": "3500B070000", "naptan:NaptanCode": "shragmpw", "public_transport": "platform", "shelter": "yes"}}, {"type": "node", "id": 10864977439, "lat": 52.7151865, "lon": -2.730126, "tags": {"bus": "yes", "highway": "bus_stop", "layer": "1", "name": "St Peters Church", "naptan:AtcoCode": "3500B071408", "naptan:Bearing": "SW", "naptan:CommonName": "St Peters Church", "naptan:Indicator": "adj", "naptan:NaptanCode": "shragpdw", "naptan:PlusbusZoneRef": "SHRWBY", "naptan:Street": "Monkmoor Road", "naptan:verified": "no", "public_transport": "platform"}}, {"type": "node", "id": 11028131570, "lat": 52.7076858, "lon": -2.7537233, "tags": {"bus": "yes", "highway": "bus_stop", "local_ref": "P3", "name": "The Square High Street", "naptan:AtcoCode": "3500B281401", "naptan:NaptanCode": "shrawgpm", "public_transport": "platform", "shelter": "yes"}}, {"type": "node", "id": 11028157916, "lat": 52.7084056, "lon": -2.7573955, "tags": {"bench": "yes", "bus": "yes", "highway": "bus_stop", "local_ref": "S2", "name": "Barker Street", "naptan:AtcoCode": "3500B007101", "naptan:NaptanCode": "shradagm", "public_transport": "platform", "shelter": "yes"}}, {"type": "node", "id": 11028157917, "lat": 52.7083294, "lon": -2.7572967, "tags": {"bench": "yes", "bus": "yes", "highway": "bus_stop", "local_ref": "S1", "name": "Barker Street", "naptan:AtcoCode": "3500B007100", "naptan:Bearing": "NW", "naptan:CommonName": "Rowleys House", "naptan:Indicator": "opp", "naptan:NaptanCode": "shradamj", "naptan:PlusbusZoneRef": "SHRWBY", "naptan:Street": "Barker Street", "naptan:verified": "no", "public_transport": "platform", "shelter": "yes"}}, {"type": "node", "id": 11037705735, "lat": 52.7076333, "lon": -2.7554322, "tags": {"bench": "yes", "bin": "yes", "bus": "yes", "highway": "bus_stop", "local_ref": "Q1", "name": "Shoplatch", "naptan:AtcoCode": "3500B057300", "naptan:NaptanCode": "shragjma", "public_transport": "platform", "shelter": "yes"}}, {"type": "node", "id": 11040300483, "lat": 52.7076364, "lon": -2.7536555, "tags": {"bench": "yes", "bus": "yes", "highway": "bus_stop", "local_ref": "P2", "name": "The Square High Street", "public_transport": "platform", "shelter": "yes"}}, {"type": "node", "id": 11040300484, "lat": 52.7075535, "lon": -2.7535375, "tags": {"bench": "yes", "bus": "yes", "highway": "bus_stop", "local_ref": "P1", "name": "The Square High Street", "naptan:AtcoCode": "3500B281400", "naptan:NaptanCode": "shrawgpj", "public_transport": "platform", "shelter": "no"}}, {"type": "node", "id": 11379383546, "lat": 52.7068363, "lon": -2.7589167, "tags": {"bus": "yes", "description": "Pole marked as coach stop only", "highway": "bus_stop", "public_transport": "platform", "tourist_bus": "designated"}}, {"type": "node", "id": 11379383547, "lat": 52.7070379, "lon": -2.7591693, "tags": {"bus": "yes", "coach": "yes", "highway": "bus_stop", "name": "St Chad's Church", "naptan:AtcoCode": "3500B325700", "naptan:CommonName": "St Chad's Church", "naptan:Indicator": "opp", "naptan:NaptanCode": "shrawpjm", "naptan:PlusbusZoneRef": "SHRWBY", "naptan:Street": "St Chad's Terrace", "naptan:verified": "no", "public_transport": "platform"}}, {"type": "node", "id": 11527733150, "lat": 52.7105695, "lon": -2.7697205, "tags": {"bus": "yes", "highway": "bus_stop", "name": "Lindale Court Jct", "naptan:AtcoCode": "3500B078505", "naptan:Bearing": "W", "naptan:CommonName": "Lindale Court Jct", "naptan:Indicator": "opp", "naptan:NaptanCode": "shragwdw", "naptan:PlusbusZoneRef": "SHRWBY", "naptan:Street": "Copthorne Road", "naptan:verified": "no", "public_transport": "platform", "shelter": "no"}}, {"type": "node", "id": 11527733151, "lat": 52.7106385, "lon": -2.7696372, "tags": {"bus": "yes", "highway": "bus_stop", "name": "Granville Street Jct", "naptan:AtcoCode": "3500B078506", "naptan:Bearing": "W", "naptan:CommonName": "Granville Street Jct", "naptan:Indicator": "adj", "naptan:NaptanCode": "shragwga", "naptan:PlusbusZoneRef": "SHRWBY", "naptan:Street": "Copthorne Road", "naptan:verified": "no", "public_transport": "platform", "shelter": "yes"}}, {"type": "node", "id": 11553710538, "lat": 52.7083973, "lon": -2.7519111, "tags": {"bus": "yes", "highway": "bus_stop", "name": "St Marys Street", "naptan:AtcoCode": "3500B013401", "naptan:Bearing": "SE", "naptan:CommonName": "St Mary's Church County Services", "naptan:Indicator": "adj", "naptan:NaptanCode": "shradgpa", "naptan:PlusbusZoneRef": "SHRWBY", "naptan:Street": "St Mary's Street", "naptan:verified": "no", "public_transport": "platform", "shelter": "yes"}}, {"type": "node", "id": 11553710539, "lat": 52.7084916, "lon": -2.7519822, "tags": {"bus": "yes", "highway": "bus_stop", "name": "St Marys Street", "naptan:AtcoCode": "3500B013400", "naptan:Bearing": "SE", "naptan:CommonName": "St Mary's Church Town Services", "naptan:Indicator": "adj", "naptan:NaptanCode": "shradgmw", "naptan:PlusbusZoneRef": "SHRWBY", "naptan:Street": "St Mary's Street", "naptan:verified": "no", "public_transport": "platform", "shelter": "yes"}}, {"type": "node", "id": 11672707163, "lat": 52.7079866, "lon": -2.7724069, "tags": {"bus": "yes", "highway": "bus_stop", "name": "Kelsalls Lane Jct", "naptan:AtcoCode": "3500B057503", "naptan:Bearing": "NE", "naptan:CommonName": "Kelsalls Lane Jct", "naptan:Indicator": "adj", "naptan:NaptanCode": "shragjpa", "naptan:PlusbusZoneRef": "SHRWBY", "naptan:Street": "Woodfield Road", "naptan:verified": "no", "public_transport": "platform", "shelter": "yes"}}, {"type": "node", "id": 12073921965, "lat": 52.6947111, "lon": -2.731873, "tags": {"bus": "yes", "highway": "bus_stop", "name": "Sutton Road Jct", "naptan:AtcoCode": "3500B423502", "naptan:Bearing": "E", "naptan:CommonName": "Sutton Road Jct", "naptan:Indicator": "opp", "naptan:NaptanCode": "shrdadwp", "naptan:PlusbusZoneRef": "SHRWBY", "naptan:Street": "Sutton Way", "naptan:verified": "no", "public_transport": "platform", "shelter": "yes"}}, {"type": "node", "id": 12416047814, "lat": 52.6944068, "lon": -2.72849, "tags": {"bus": "yes", "highway": "bus_stop", "name": "Springfield Green Jct", "naptan:AtcoCode": "3500B123201", "naptan:Bearing": "SE", "naptan:BusStopType": "CUS", "naptan:CommonName": "Springfield Green Jct", "naptan:Indicator": "adj", "naptan:NaptanCode": "shramdgm", "naptan:PlusbusZoneRef": "SHRWBY", "naptan:Street": "Springfield Way", "naptan:verified": "no", "public_transport": "platform", "shelter": "yes"}}, {"type": "node", "id": 12471514306, "lat": 52.6976386, "lon": -2.7806254, "tags": {"bus": "yes", "highway": "bus_stop", "public_transport": "platform", "shelter": "no"}}, {"type": "node", "id": 12471514307, "lat": 52.6976971, "lon": -2.7798792, "tags": {"bus": "yes", "highway": "bus_stop", "public_transport": "platform", "shelter": "yes"}}, {"type": "node", "id": 13065394751, "lat": 52.7105345, "lon": -2.7667985, "tags": {"bus": "yes", "highway": "bus_stop", "public_transport": "platform"}}, {"type": "node", "id": 13577081459, "lat": 52.694291, "lon": -2.7705853, "tags": {"bus": "yes", "highway": "bus_stop", "public_transport": "platform"}}]}