{"version": 0.6, "generator": "Overpass API 0.7.62.10 2d4cfc48", "osm3s": {"timestamp_osm_base": "2026-02-24T20:00:00Z", "copyright": "The data included in this document is from www.openstreetmap.org. The data is made available under ODbL."}, "elements": [{"type": "node", "id": 1354577277, "lat": 51.0300661, "lon": -3.0801657}, {"type": "node", "id": 1354577279, "lat": 51.0301134, "lon": -3.0799498}, {"type": "node", "id": 1354577280, "lat": 51.0301245, "lon": -3.079956}, {"type": "node", "id": 1354577284, "lat": 51.0302027, "lon": -3.0802414}, {"type": "node", "id": 1354581806, "lat": 51.0328402, "lon": -3.0944032}, {"type": "node", "id": 1354581808, "lat": 51.0328597, "lon": -3.0944736}, {"type": "node", "id": 1354581811, "lat": 51.032874, "lon": -3.0944347}, {"type": "node", "id": 1354581812, "lat": 51.0328914, "lon": -3.0945031}, {"type": "node", "id": 1366143192, "lat": 51.0144046, "lon": -3.0799187}, {"type": "node", "id": 1366143201, "lat": 51.0144795, "lon": -3.0801019}, {"type": "node", "id": 1366143203, "lat": 51.0144902, "lon": -3.0798302}, {"type": "node", "id": 1366143208, "lat": 51.0145439, "lon": -3.0799614}, {"type": "node", "id": 1366143210, "lat": 51.0145652, "lon": -3.0800134}, {"type": "node", "id": 1385721609, "lat": 51.025757, "lon": -3.1280693}, {"type": "node", "id": 1385721610, "lat": 51.0257604, "lon": -3.1281457}, {"type": "node", "id": 1385721613, "lat": 51.0257919, "lon": -3.1278651}, {"type": "node", "id": 1385721614, "lat": 51.0258007, "lon": -3.1280645}, {"type": "node", "id": 1385721620, "lat": 51.025843, "lon": -3.1281365}, {"type": "node", "id": 1385721623, "lat": 51.0259053, "lon": -3.1279066}, {"type": "node", "id": 1385721624, "lat": 51.0259129, "lon": -3.1280806}, {"type": "node", "id": 1393551368, "lat": 51.0139462, "lon": -3.1035419}, {"type": "node", "id": 1560540073, "lat": 51.03007, "lon": -3.0801478}, {"type": "node", "id": 1560540114, "lat": 51.0302053, "lon": -3.0802296}, {"type": "node", "id": 2342703433, "lat": 51.0074784, "lon": -3.078832}, {"type": "node", "id": 2342703434, "lat": 51.0076159, "lon": -3.0788668}, {"type": "node", "id": 2342703437, "lat": 51.0075305, "lon": -3.0787419}, {"type": "node", "id": 2342703446, "lat": 51.0075605, "lon": -3.0789589}, {"type": "node", "id": 2789994867, "lat": 51.0138692, "lon": -3.1043241}, {"type": "node", "id": 2789994871, "lat": 51.0139316, "lon": -3.1038507}, {"type": "node", "id": 2789994880, "lat": 51.014025, "lon": -3.1043837}, {"type": "node", "id": 2789994887, "lat": 51.0140473, "lon": -3.104233}, {"type": "node", "id": 2789994896, "lat": 51.0141227, "lon": -3.1042473}, {"type": "node", "id": 2789994897, "lat": 51.0141291, "lon": -3.1041924}, {"type": "node", "id": 2789994900, "lat": 51.0141745, "lon": -3.1038354}, {"type": "node", "id": 2789994901, "lat": 51.0141772, "lon": -3.1038515}, {"type": "node", "id": 2789994902, "lat": 51.01411, "lon": -3.1038296}, {"type": "node", "id": 3876362008, "lat": 51.0141792, "lon": -3.1012337}, {"type": "node", "id": 3876362009, "lat": 51.0139047, "lon": -3.1010541}, {"type": "node", "id": 3876363304, "lat": 51.0141364, "lon": -3.1014134}, {"type": "node", "id": 3876363305, "lat": 51.0138006, "lon": -3.1012136}, {"type": "node", "id": 3876363306, "lat": 51.0138453, "lon": -3.1010204}, {"type": "node", "id": 4218992391, "lat": 51.0327383, "lon": -3.0946799}, {"type": "node", "id": 4218992394, "lat": 51.0328039, "lon": -3.0947409}, {"type": "node", "id": 4223637542, "lat": 51.018755, "lon": -3.1035751, "tags": {"amenity": "pharmacy", "dispensing": "yes", "drive_through": "no", "healthcare": "pharmacy", "is_in": "Morrisons", "name": "Morrisons Pharmacy", "operator": "Morrisons"}}, {"type": "node", "id": 4526091826, "lat": 51.0302359, "lon": -3.0800902, "tags": {"access": "yes", "entrance": "main", "wheelchair": "yes"}}, {"type": "node", "id": 4526091831, "lat": 51.0302501, "lon": -3.0800255}, {"type": "node", "id": 5179519461, "lat": 51.0258409, "lon": -3.1280886}, {"type": "node", "id": 5179519462, "lat": 51.0259029, "lon": -3.1278528}, {"type": "node", "id": 6593075873, "lat": 51.022995, "lon": -3.0825767, "tags": {"addr:city": "Taunton", "addr:country": "GB", "addr:county": "Somerset", "addr:postcode": "TA1 2AN", "addr:street": "Creechbarrow Road", "amenity": "pharmacy", "brand": "Asda", "brand:wikidata": "Q297410", "check_date": "2024-08-18", "check_date:opening_hours": "2024-08-18", "contact:phone": "+44 1823 448010", "contact:website": "https://storelocator.asda.com/south-west/taunton/creechbarrow-road/pharmacy", "dispensing": "yes", "drive_through": "no", "healthcare": "pharmacy", "is_in": "Asda", "name": "Asda", "opening_hours": "Mo-Sa 09:00-20:00; Su 10:00-16:00", "operator": "Asda Stores Ltd"}}, {"type": "node", "id": 6594886048, "lat": 51.0139254, "lon": -3.103896}, {"type": "node", "id": 6594886050, "lat": 51.0141243, "lon": -3.103553}, {"type": "node", "id": 6594886052, "lat": 51.0141418, "lon": -3.1038324}, {"type": "way", "id": 124493045, "nodes": [1385721624, 5179519461, 1385721620, 1385721610, 1385721609, 1385721614, 1385721613, 5179519462, 1385721623, 1385721624], "tags": {"addr:city": "Taunton", "addr:country": "GB", "addr:county": "Somerset", "addr:housenumber": "1-2", "addr:postcode": "TA2 6BD", "addr:street": "Livingstone Way", "amenity": "pharmacy", "building": "yes", "dispensing": "yes", "drive_through": "no", "healthcare": "pharmacy", "name": "Staplegrove Pharmacy", "opening_hours": "Mo-Fr 08:00-18:00, Sa 09:00-13:00", "operator": "NHS", "ref:GB:uprn": "10091741360;10002703331", "ref:gphc": "1118432", "website": "https://www.nhs.uk/Services/pharmacies/Overview/DefaultView.aspx?id=93673"}}, {"type": "way", "id": 225498490, "nodes": [2342703437, 2342703434, 2342703446, 2342703433, 2342703437], "tags": {"addr:city": "Taunton", "addr:postcode": "TA1 2QA", "addr:street": "Upper Holway Road", "amenity": "pharmacy", "brand": "Boots", "brand:wikidata": "Q6123139", "building": "yes", "dispensing": "yes", "healthcare": "pharmacy", "name": "Boots", "ref:GB:uprn": "100041071232", "website": "https://www.boots.com/stores/5416-taunton-holway-health-centre-ta1-2qa"}}, {"type": "way", "id": 274233944, "nodes": [2789994902, 6594886050, 1393551368, 2789994871, 6594886048, 2789994867, 2789994880, 2789994887, 2789994896, 2789994897, 2789994901, 2789994900, 6594886052, 2789994902], "tags": {"addr:city": "Taunton", "addr:country": "GB", "addr:county": "Somerset", "addr:housenumber": "64-65", "addr:postcode": "TA1 3PT", "addr:street": "High Street", "amenity": "pharmacy", "brand": "Boots", "brand:wikidata": "Q6123139", "building": "retail", "building:levels": "2", "dispensing": "yes", "drive_through": "no", "fhrs:id": "906692", "healthcare": "pharmacy", "name": "Boots", "opening_hours": "Mo-Sa 08:00-18:00; Su 10:30-16:30", "operator": "Boots", "ref:GB:uprn": "100041070518", "source:addr": "FHRS Open Data", "website": "https://www.boots.com/stores/301-taunton-high-street-ta1-3pt"}}, {"type": "way", "id": 384334880, "nodes": [3876362008, 3876363304, 3876363305, 3876363306, 3876362009, 3876362008], "tags": {"addr:city": "Taunton", "addr:country": "GB", "addr:county": "Somerset", "addr:housenumber": "1-10", "addr:postcode": "TA1 3PF", "addr:street": "Paul Street", "amenity": "pharmacy", "brand": "Superdrug", "brand:wikidata": "Q7643261", "building": "yes", "contact:website": "https://www.superdrug.com/store/taunton", "dispensing": "yes", "drive_through": "no", "healthcare": "pharmacy", "name": "Superdrug", "opening_hours": "Mo-Sa 08:30-18:00; Su 10:30-16:30", "pharmacy": "yes"}}, {"type": "way", "id": 387486330, "nodes": [1366143208, 1366143210, 1366143201, 1366143192, 1366143203, 1366143208], "tags": {"addr:city": "Taunton", "addr:country": "GB", "addr:housename": "Blackbrook Medical Centre", "addr:postcode": "TA1 2LB", "addr:street": "Lisieux Way", "amenity": "pharmacy", "brand": "Jhoots Pharmacy", "brand:wikidata": "Q91440588", "building": "yes", "dispensing": "yes", "drive_through": "no", "fixme": "Taken over by Allied Pharmacies - might be rebranded soon.", "healthcare": "pharmacy", "name": "Jhoots Pharmacy", "opening_hours": "Mo-Fr 09:00-12:00,14:00-18:00", "phone": "+44 1823 324280", "ref:GB:uprn": "10002701663", "website": "https://www.jhootspharmacy.co.uk/taunton_branch.htm"}}, {"type": "way", "id": 422180530, "nodes": [4218992391, 1354581806, 1354581811, 1354581808, 1354581812, 4218992394, 4218992391], "tags": {"addr:city": "Taunton", "addr:country": "GB", "addr:housenumber": "5", "addr:postcode": "TA2 7JW", "addr:street": "Priorswood Place", "amenity": "pharmacy", "brand": "Well Pharmacy", "brand:wikidata": "Q7726524", "building": "retail", "dispensing": "yes", "drive_through": "no", "healthcare": "pharmacy", "name": "Well Pharmacy", "opening_hours": "Mo-Fr 09:00-18:00", "operator": "Well Pharmacy", "website": "https://finder.well.co.uk/store/taunton-priorswood-place"}}, {"type": "way", "id": 456347502, "nodes": [1354577280, 4526091831, 4526091826, 1560540114, 1354577284, 1354577277, 1560540073, 1354577279, 1354577280], "tags": {"addr:city": "Taunton", "addr:country": "GB", "addr:postcode": "TA2 8QY", "addr:street": "Venture Way", "amenity": "pharmacy", "brand": "Boots", "brand:wikidata": "Q6123139", "building": "retail", "building:levels": "1", "building:material": "brick", "check_date": "2022-08-21", "dispensing": "yes", "drive_through": "no", "healthcare": "pharmacy", "internet_access": "no", "name": "Boots", "payment:mastercard": "yes", "payment:visa": "yes", "roof:shape": "pyramidal", "wheelchair": "yes"}}]}