{"version": 0.6, "generator": "Overpass API 0.7.62.10 2d4cfc48", "osm3s": {"timestamp_osm_base": "2026-03-01T06:24:14Z", "copyright": "The data included in this document is from www.openstreetmap.org. The data is made available under ODbL."}, "elements": [{"type": "node", "id": 312552742, "lat": 52.1937847, "lon": -1.7138111, "tags": {"amenity": "pharmacy", "brand": "Rowlands Pharmacy", "brand:wikidata": "Q62663235", "fixme": "Is the still a Rowlands Pharmacy? (Not listed on their website.)", "healthcare": "pharmacy", "name": "Rowlands Pharmacy", "operator": "Rowlands"}}, {"type": "node", "id": 470557258, "lat": 52.2028222, "lon": -1.7146455, "tags": {"amenity": "pharmacy", "healthcare": "pharmacy", "name": "Tesco"}}, {"type": "node", "id": 990498629, "lat": 52.2018079, "lon": -1.7117296}, {"type": "node", "id": 990498641, "lat": 52.2013379, "lon": -1.7120207}, {"type": "node", "id": 990498644, "lat": 52.2014196, "lon": -1.7123711}, {"type": "node", "id": 990498676, "lat": 52.2018884, "lon": -1.7120819}, {"type": "node", "id": 2712501574, "lat": 52.1796591, "lon": -1.6986444, "tags": {"amenity": "pharmacy", "healthcare": "pharmacy", "name": "Rosebird Pharmacy", "wheelchair": "yes"}}, {"type": "node", "id": 6203263236, "lat": 52.2013782, "lon": -1.7121934, "tags": {"entrance": "main"}}, {"type": "node", "id": 9620189484, "lat": 52.192572, "lon": -1.7053498, "tags": {"addr:city": "Stratford-upon-Avon", "addr:housenumber": "11", "addr:postcode": "CV37 6AB", "addr:street": "Bridge Street", "amenity": "pharmacy", "brand": "Boots", "brand:wikidata": "Q6123139", "brand:wikipedia": "en:Boots (company)", "dispensing": "yes", "fhrs:id": "503767", "healthcare": "pharmacy", "name": "Boots", "opening_hours": "Mo-Sa 08:30-18:00; Su 10:30-16:30", "source": "bing", "source:addr": "FHRS Open Data", "website": "https://www.boots.com/stores/239-stratford-u-avon-bridge-cv37-6ab", "wheelchair": "yes"}}, {"type": "node", "id": 10599402332, "lat": 52.1948473, "lon": -1.7126493, "tags": {"amenity": "pharmacy", "dispensing": "yes", "drive_through": "no", "healthcare": "pharmacy", "name": "Avon Pharmacy", "note": "inside Health Centre, ground floor", "ref": "1091159"}}, {"type": "way", "id": 85447065, "nodes": [990498676, 990498629, 990498641, 6203263236, 990498644, 990498676], "tags": {"addr:city": "Stratford-upon-Avon", "addr:housenumber": "Unit D1", "addr:parentstreet": "Birmingham Road", "addr:place": "Maybird Retail Park", "addr:postcode": "CV37 0HZ", "amenity": "pharmacy", "brand": "Boots", "brand:wikidata": "Q6123139", "brand:wikipedia": "en:Boots (company)", "building": "yes", "dog": "no", "fhrs:id": "503014", "healthcare": "pharmacy", "name": "Boots", "opening_hours": "Mo-Fr 09:00-20:15; Sa 09:00-19:00; Su 10:30-16:30", "source:addr": "FHRS Open Data"}}]}