{"version": 0.6, "generator": "Overpass API 0.7.62.10 2d4cfc48", "osm3s": {"timestamp_osm_base": "2026-02-26T10:37:06Z", "copyright": "The data included in this document is from www.openstreetmap.org. The data is made available under ODbL."}, "elements": [{"type": "node", "id": 321802349, "lat": 52.206355, "lon": 0.148617}, {"type": "node", "id": 321802350, "lat": 52.2060606, "lon": 0.1484091}, {"type": "node", "id": 321802351, "lat": 52.2063309, "lon": 0.1473895}, {"type": "node", "id": 321802352, "lat": 52.2066253, "lon": 0.1475974}, {"type": "node", "id": 369503681, "lat": 52.2042516, "lon": 0.1428537}, {"type": "node", "id": 369503683, "lat": 52.2046237, "lon": 0.143206}, {"type": "node", "id": 615034172, "lat": 52.2045013, "lon": 0.1425821}, {"type": "node", "id": 1474951386, "lat": 52.1970529, "lon": 0.1486682, "tags": {"addr:city": "Cambridge", "addr:postcode": "CB1 3NL", "addr:street": "Mill Road", "check_date:opening_hours": "2022-09-14", "leisure": "fitness_centre", "name": "Tube Boxing", "opening_hours:signed": "no"}}, {"type": "node", "id": 2051206929, "lat": 52.2044145, "lon": 0.1433283}, {"type": "node", "id": 3883297254, "lat": 52.1904185, "lon": 0.1371333, "tags": {"brand": "PureGym", "brand:wikidata": "Q18345898", "brand:wikipedia": "en:PureGym", "contact:website": "https://www.puregym.com/gyms/cambridge-leisure-park/", "leisure": "fitness_centre", "level": "2", "name": "PureGym"}}, {"type": "node", "id": 5506563127, "lat": 52.2162064, "lon": 0.1329709, "tags": {"addr:city": "Cambridge", "addr:housenumber": "2-4", "addr:postcode": "CB4 1AX", "addr:street": "Hawthorn Way", "fhrs:id": "1473926", "leisure": "fitness_centre", "name": "Satyam Yoga Wellbeing Centre", "sport": "yoga", "website": "https://www.satyamyogacentre.co.uk/"}}, {"type": "node", "id": 6388036976, "lat": 52.1941345, "lon": 0.1357839, "tags": {"addr:city": "Cambridge", "addr:housename": "Unit 2", "addr:housenumber": "60", "addr:postcode": "CB1 2JH", "addr:street": "Station Road", "brand": "F45 Training", "brand:wikidata": "Q64390973", "check_date:opening_hours": "2025-08-08", "email": "cambridgestation@f45training.co.uk", "leisure": "fitness_centre", "name": "F45 Training", "opening_hours:signed": "no", "phone": "+44 1223 455179", "short_name": "F45", "sport": "exercise;fitness", "website": "https://f45training.co.uk/cambridgestation"}}, {"type": "node", "id": 6822401861, "lat": 52.2148776, "lon": 0.1481551, "tags": {"addr:city": "Cambridge", "addr:full": "20 Mercers Row", "addr:housenumber": "Unit A", "addr:postcode": "CB5 8HY", "addr:street": "Mercers Row", "leisure": "fitness_centre", "name": "Bridge Fitness and Wellbeing"}}, {"type": "node", "id": 7027129336, "lat": 52.20683, "lon": 0.1353434, "tags": {"brand": "PureGym", "brand:wikidata": "Q18345898", "brand:wikipedia": "en:PureGym", "leisure": "fitness_centre", "level": "2", "name": "PureGym", "website": "https://www.puregym.com/gyms/cambridge-grafton-centre/"}}, {"type": "node", "id": 7435723769, "lat": 52.2082287, "lon": 0.1457377, "tags": {"addr:city": "Cambridge", "addr:parentstreet": "Henley Road", "addr:postcode": "CB5 8JL", "addr:street": "Cambridge Retail Park", "branch": "Cambridge", "brand": "The Gym", "brand:wikidata": "Q48815022", "brand:wikipedia": "en:The Gym Group", "leisure": "fitness_centre", "name": "The Gym", "opening_hours": "24/7", "website": "https://www.thegymgroup.com/find-a-gym/cambridge-gyms/cambridge/"}}, {"type": "node", "id": 9119281853, "lat": 52.2043467, "lon": 0.143287}, {"type": "node", "id": 9119281855, "lat": 52.2044052, "lon": 0.1432859}, {"type": "node", "id": 9558775542, "lat": 52.2046366, "lon": 0.1431984}, {"type": "node", "id": 9558775543, "lat": 52.2042774, "lon": 0.1427129}, {"type": "node", "id": 9558775544, "lat": 52.2043019, "lon": 0.1428244}, {"type": "node", "id": 9558775545, "lat": 52.2043987, "lon": 0.1432566}, {"type": "node", "id": 10741559382, "lat": 52.2046266, "lon": 0.1431526, "tags": {"entrance": "yes"}}, {"type": "node", "id": 11198393217, "lat": 52.1938817, "lon": 0.0970964, "tags": {"addr:city": "Cambridge", "addr:housename": "Cambridge Rugby Club", "addr:postcode": "CB3 9ED", "addr:street": "Grantchester Road", "leisure": "fitness_centre", "name": "OUTTRAIN", "phone": "+44 1954 716160", "sport": "fitness", "website": "https://www.outtrain.co.uk"}}, {"type": "node", "id": 13138169562, "lat": 52.1938344, "lon": 0.0969393}, {"type": "node", "id": 13138169563, "lat": 52.1938041, "lon": 0.0971405}, {"type": "node", "id": 13138169564, "lat": 52.193919, "lon": 0.0971866}, {"type": "node", "id": 13138169565, "lat": 52.1939298, "lon": 0.0971147}, {"type": "node", "id": 13138169566, "lat": 52.193942, "lon": 0.0971196}, {"type": "node", "id": 13138169567, "lat": 52.1939475, "lon": 0.0970837}, {"type": "node", "id": 13138169568, "lat": 52.1939351, "lon": 0.0970787}, {"type": "node", "id": 13138169569, "lat": 52.1939491, "lon": 0.0969853}, {"type": "way", "id": 29262824, "nodes": [321802349, 321802350, 321802351, 321802352, 321802349], "tags": {"addr:city": "Cambridge", "addr:country": "GB", "addr:housenumber": "213", "addr:postcode": "CB1 3BA", "addr:street": "Cromwell Road", "brand": "Nuffield Health Fitness & Wellbeing", "brand:wikidata": "Q7068711", "building": "yes", "check_date": "2024-07-24", "leisure": "fitness_centre", "name": "Nuffield Health Fitness & Wellbeing", "website": "https://www.nuffieldhealth.com/gyms/cambridge", "wheelchair": "yes"}}, {"type": "way", "id": 48470738, "nodes": [369503683, 2051206929, 9119281855, 9558775545, 9119281853, 369503681, 9558775544, 9558775543, 615034172, 10741559382, 9558775542, 369503683], "tags": {"addr:city": "Cambridge", "addr:country": "GB", "addr:housenumber": "2a", "addr:parentstreet": "Coldhams Lane", "addr:place": "Beehive Centre", "addr:postcode": "CB1 3ER", "alt_name": "Everlast Fitness Club", "brand": "Everlast Gyms", "brand:wikidata": "Q112947134", "building": "retail", "leisure": "fitness_centre", "name": "Everlast Gyms", "opening_hours": "Mo-Th 06:00-22:00; Fr 06:00-21:00; Sa,Su 08:00-18:00", "sport": "multi"}}, {"type": "way", "id": 1429233323, "nodes": [13138169569, 13138169562, 13138169563, 13138169564, 13138169565, 13138169566, 13138169567, 13138169568, 13138169569], "tags": {"building": "yes", "leisure": "fitness_centre"}}]}