{"version": 0.6, "generator": "Overpass API 0.7.62.10 2d4cfc48", "osm3s": {"timestamp_osm_base": "2026-02-24T20:00:00Z", "copyright": "The data included in this document is from www.openstreetmap.org. The data is made available under ODbL."}, "elements": [{"type": "node", "id": 27316351, "lat": 51.7519835, "lon": -0.3381789, "tags": {"addr:city": "St Albans", "addr:housenumber": "6", "addr:postcode": "AL1 3JB", "addr:street": "Victoria Street", "amenity": "pharmacy", "check_date:opening_hours": "2023-03-04", "dispensing": "yes", "drive_through": "no", "healthcare": "pharmacy", "name": "Maltings Pharmacy", "opening_hours": "Mo-Fr 09:00-18:30; Sa 09:00-17:00", "opening_hours:signed": "no", "phone": "+44 1727 839335"}}, {"type": "node", "id": 807301934, "lat": 51.7668894, "lon": -0.3230341, "tags": {"addr:city": "St Albans", "addr:housenumber": "4", "addr:postcode": "AL3 5AS", "addr:street": "Beech Road", "amenity": "pharmacy", "dispensing": "yes", "drive_through": "no", "healthcare": "pharmacy", "level": "0", "name": "Meera Pharmacy", "opening_hours": "Mo-Fr 09:00-17:30; Sa-Su off", "phone": "+44 1727 851132"}}, {"type": "node", "id": 1761207070, "lat": 51.7560569, "lon": -0.33552, "tags": {"addr:city": "St Albans", "addr:street": "St Peter's Street", "amenity": "pharmacy", "check_date": "2025-12-11", "check_date:opening_hours": "2025-12-11", "healthcare": "pharmacy", "name": "Jade Pharmacy", "opening_hours": "Mo-Fr 09:00-19:00; Sa 09:00-16:00"}}, {"type": "node", "id": 1789925908, "lat": 51.7602063, "lon": -0.3407191, "tags": {"addr:city": "St Albans", "addr:housenumber": "52", "addr:postcode": "AL3 5PE", "addr:street": "Waverley Road", "amenity": "pharmacy", "dispensing": "yes", "drive_through": "no", "healthcare": "pharmacy", "name": "Normandy Pharmacy", "opening_hours": "Mo-Fr 09:00-18:30; Sa 09:00-13:00", "phone": "+44 1727 851 448"}}, {"type": "node", "id": 2134390736, "lat": 51.7462892, "lon": -0.3605496, "tags": {"addr:city": "St Albans", "addr:housename": "Verulam Pharmacy", "addr:housenumber": "1", "addr:postcode": "AL3 4JZ", "addr:street": "Ermine Close", "amenity": "pharmacy", "dispensing": "yes", "drive_through": "no", "healthcare": "pharmacy", "name": "Verulam Pharmacy", "opening_hours": "Mo-Fr 09:00-18:00; Sa 09:00-17:30", "phone": "+44 1727 834443"}}, {"type": "node", "id": 2305499191, "lat": 51.756731, "lon": -0.334223, "tags": {"addr:city": "St Albans", "addr:housename": "Parkbury House Surgery", "addr:postcode": "AL1 3HD", "addr:street": "St Peter's Street", "amenity": "pharmacy", "healthcare": "pharmacy", "name": "Jade Pharmacy", "phone": "+44 1727 862857", "website": "https://jadepharmacy.co.uk/jade-pharmacy-parkbury-house"}}, {"type": "node", "id": 5343935137, "lat": 51.7436526, "lon": -0.3125757}, {"type": "node", "id": 5343935138, "lat": 51.7436913, "lon": -0.3124813}, {"type": "node", "id": 5343935147, "lat": 51.7437006, "lon": -0.312627}, {"type": "node", "id": 5343935148, "lat": 51.7437393, "lon": -0.3125326}, {"type": "node", "id": 8442500587, "lat": 51.7517467, "lon": -0.3113782, "tags": {"amenity": "pharmacy", "brand": "Morrisons", "brand:wikidata": "Q922344", "dispensing": "yes", "healthcare": "pharmacy", "name": "Morrisons Pharmacy"}}, {"type": "node", "id": 8606461048, "lat": 51.748173, "lon": -0.326928, "tags": {"amenity": "pharmacy", "dispensing": "yes", "drive_through": "no", "healthcare": "pharmacy", "name": "iMED Pharmacy St Albans"}}, {"type": "way", "id": 553648438, "nodes": [5343935147, 5343935137, 5343935138, 5343935148, 5343935147], "tags": {"addr:city": "St Albans", "addr:housenumber": "197", "addr:postcode": "AL1 5PX", "addr:street": "Cell Barnes Lane", "amenity": "pharmacy", "building": "yes", "fhrs:authority": "St Albans City", "fhrs:id": "305436", "healthcare": "pharmacy", "name": "St Albans Pharmacy"}}]}