{"version": 0.6, "generator": "Overpass API 0.7.62.10 2d4cfc48", "osm3s": {"timestamp_osm_base": "2026-03-01T06:24:14Z", "copyright": "The data included in this document is from www.openstreetmap.org. The data is made available under ODbL."}, "elements": [{"type": "node", "id": 502478800, "lat": 51.9290347, "lon": -1.7122125, "tags": {"bus": "yes", "highway": "bus_stop", "name": "King George's Field", "naptan:AtcoCode": "1600GL2735", "naptan:Bearing": "S", "naptan:CommonName": "King George's Field", "naptan:NaptanCode": "glogjgda", "naptan:Street": "Off Oddington Rd", "naptan:verified": "no", "public_transport": "platform", "source": "naptan_import"}}, {"type": "node", "id": 502479423, "lat": 51.9280761, "lon": -1.7488888, "tags": {"bus": "yes", "highway": "bus_stop", "name": "War Memorial", "naptan:AtcoCode": "1600GL3095", "naptan:Bearing": "NE", "naptan:CommonName": "War Memorial", "naptan:NaptanCode": "glogjajp", "naptan:Street": "B4068", "public_transport": "platform", "shelter": "yes", "source": "naptan_import;survey"}}, {"type": "node", "id": 502479432, "lat": 51.9280026, "lon": -1.7483445, "tags": {"bus": "yes", "highway": "bus_stop", "name": "War Memorial", "naptan:AtcoCode": "1600GL3096", "naptan:Bearing": "SW", "naptan:CommonName": "War Memorial", "naptan:Indicator": "Opp", "naptan:NaptanCode": "glogjamd", "naptan:Street": "B4068", "naptan:verified": "no", "public_transport": "platform", "source": "naptan_import"}}, {"type": "node", "id": 502479625, "lat": 51.9252192, "lon": -1.7108845, "tags": {"bus": "yes", "highway": "bus_stop", "name": "Phone Box", "naptan:AtcoCode": "1600GL3199", "naptan:Bearing": "S", "naptan:CommonName": "Phone Box", "naptan:NaptanCode": "glogjgdp", "naptan:Street": "Maugersbury Road", "naptan:verified": "no", "public_transport": "platform", "source": "naptan_import"}}, {"type": "node", "id": 502479635, "lat": 51.9251836, "lon": -1.711001, "tags": {"bus": "yes", "highway": "bus_stop", "name": "Phone Box", "naptan:AtcoCode": "1600GL3200", "naptan:Bearing": "NW", "naptan:CommonName": "Phone Box", "naptan:Indicator": "Opp", "naptan:NaptanCode": "glogjgdj", "naptan:Street": "Maugersbury Road", "naptan:verified": "no", "public_transport": "platform", "source": "naptan_import"}}, {"type": "node", "id": 502483531, "lat": 51.9263322, "lon": -1.7211895, "tags": {"bus": "yes", "highway": "bus_stop", "name": "Chamberlayne House", "naptan:AtcoCode": "1600GL4502", "naptan:Bearing": "S", "naptan:CommonName": "Chamberlayne House", "naptan:Indicator": "Opp", "naptan:NaptanCode": "glogjdtm", "naptan:Street": "Chamberlayne Close", "naptan:verified": "no", "public_transport": "platform", "source": "naptan_import"}}, {"type": "node", "id": 502483539, "lat": 51.9291535, "lon": -1.720458, "tags": {"bus": "yes", "highway": "bus_stop", "name": "Royalist Hotel", "naptan:AtcoCode": "1600GL4505", "naptan:Bearing": "E", "naptan:CommonName": "Royalist Hotel", "naptan:NaptanCode": "glogjdtw", "naptan:Street": "Park St", "naptan:verified": "no", "public_transport": "platform", "source": "naptan_import"}}, {"type": "node", "id": 502483546, "lat": 51.9290012, "lon": -1.7207061, "tags": {"bus": "yes", "highway": "bus_stop", "name": "Royalist Hotel", "naptan:AtcoCode": "1600GL4506", "naptan:Bearing": "W", "naptan:CommonName": "Royalist Hotel", "naptan:Indicator": "Opp", "naptan:NaptanCode": "glogjdtp", "naptan:Street": "Park St", "naptan:verified": "no", "public_transport": "platform", "source": "naptan_import"}}, {"type": "node", "id": 502483552, "lat": 51.930576, "lon": -1.7233724, "tags": {"bus": "yes", "highway": "bus_stop", "name": "Coach Stop", "naptan:AtcoCode": "1600GL4508", "naptan:Bearing": "N", "naptan:CommonName": "Coach Stop", "naptan:NaptanCode": "glogjdmw", "naptan:Street": "Market Sq", "naptan:verified": "no", "public_transport": "platform", "source": "naptan_import"}}, {"type": "node", "id": 502483569, "lat": 51.9287523, "lon": -1.7181044, "tags": {"bus": "yes", "highway": "bus_stop", "name": "The Bell Inn", "naptan:AtcoCode": "1600GL4509", "naptan:Bearing": "E", "naptan:CommonName": "The Bell Inn", "naptan:Indicator": "Opp", "naptan:NaptanCode": "glogjdwa", "naptan:Street": "Park St", "naptan:verified": "no", "public_transport": "platform", "shelter": "no", "source": "naptan_import"}}, {"type": "node", "id": 502483575, "lat": 51.9286548, "lon": -1.7181479, "tags": {"bus": "yes", "highway": "bus_stop", "name": "The Bell Inn", "naptan:AtcoCode": "1600GL4510", "naptan:Bearing": "W", "naptan:CommonName": "The Bell Inn", "naptan:NaptanCode": "glogjdwd", "naptan:Street": "Park St", "naptan:verified": "no", "public_transport": "platform", "source": "naptan_import"}}, {"type": "node", "id": 502483581, "lat": 51.9304405, "lon": -1.7230532, "tags": {"bench": "no", "bin": "no", "bus": "yes", "check_date:shelter": "2025-05-06", "highway": "bus_stop", "name": "Library", "naptan:AtcoCode": "1600GL4512", "naptan:Bearing": "W", "naptan:CommonName": "Library", "naptan:NaptanCode": "glogjdpg", "naptan:Street": "Market Square", "naptan:verified": "no", "public_transport": "platform", "shelter": "no", "source": "naptan_import", "tactile_paving": "no"}}, {"type": "node", "id": 502483589, "lat": 51.9312621, "lon": -1.7235937, "tags": {"bus": "yes", "highway": "bus_stop", "name": "Police Station", "naptan:AtcoCode": "1600GL4516", "naptan:Bearing": "N", "naptan:CommonName": "Police Station", "naptan:NaptanCode": "glogjdmt", "naptan:Street": "High St", "naptan:verified": "no", "public_transport": "platform", "shelter": "no", "source": "naptan_import"}}, {"type": "node", "id": 502483595, "lat": 51.9292341, "lon": -1.7241515, "tags": {"bench": "no", "bin": "no", "bus": "yes", "highway": "bus_stop", "lit": "yes", "name": "Post Office", "naptan:AtcoCode": "1600GL4517", "naptan:Bearing": "E", "naptan:CommonName": "Post Office", "naptan:NaptanCode": "glogjdmp", "naptan:Street": "Sheep St", "naptan:verified": "no", "public_transport": "platform", "shelter": "no", "source": "naptan_import", "tactile_paving": "no"}}, {"type": "node", "id": 502483601, "lat": 51.933583, "lon": -1.7232974, "tags": {"bus": "yes", "highway": "bus_stop", "name": "Tesco Car Park", "naptan:AtcoCode": "1600GL4520", "naptan:Bearing": "SW", "naptan:CommonName": "Tesco Car Park", "naptan:NaptanCode": "glogjdpd", "naptan:Street": "Off Fosse Way", "public_transport": "platform", "shelter": "yes", "source": "naptan_import;survey"}}, {"type": "node", "id": 502484539, "lat": 51.9393772, "lon": -1.7445714, "tags": {"bus": "yes", "highway": "bus_stop", "name": "St Mary's Church", "naptan:AtcoCode": "1600GL4993", "naptan:Bearing": "W", "naptan:CommonName": "St Mary's Church", "naptan:Indicator": "Opp", "naptan:NaptanCode": "glogjapm", "naptan:Street": "Stow Rd", "naptan:verified": "no", "public_transport": "platform", "source": "naptan_import"}}, {"type": "node", "id": 502484544, "lat": 51.9394712, "lon": -1.744479, "tags": {"bus": "yes", "highway": "bus_stop", "name": "St Mary's Church", "naptan:AtcoCode": "1600GL4994", "naptan:Bearing": "E", "naptan:CommonName": "St Mary's Church", "naptan:NaptanCode": "glogjata", "naptan:Street": "Stow Rd", "naptan:verified": "no", "public_transport": "platform", "source": "naptan_import"}}, {"type": "node", "id": 502484549, "lat": 51.940254, "lon": -1.7467194, "tags": {"bus": "yes", "highway": "bus_stop", "name": "Lower Swell Turn", "naptan:AtcoCode": "1600GL4995", "naptan:Bearing": "NE", "naptan:CommonName": "Lower Swell Turn", "naptan:NaptanCode": "glogjamw", "naptan:Street": "Lower Swell Ln", "naptan:verified": "no", "public_transport": "platform", "source": "naptan_import"}}, {"type": "node", "id": 502484562, "lat": 51.9401733, "lon": -1.7468508, "tags": {"bus": "yes", "highway": "bus_stop", "name": "Lower Swell Turn", "naptan:AtcoCode": "1600GL4996", "naptan:Bearing": "SW", "naptan:CommonName": "Lower Swell Turn", "naptan:NaptanCode": "glogjamt", "naptan:Street": "Lower Swell Ln", "naptan:verified": "no", "public_transport": "platform", "source": "naptan_import"}}, {"type": "node", "id": 502486632, "lat": 51.945045, "lon": -1.7038318, "tags": {"bus": "yes", "highway": "bus_stop", "name": "The Green", "naptan:AtcoCode": "1600GL755", "naptan:Bearing": "NE", "naptan:CommonName": "The Green", "naptan:NaptanCode": "glogjgtw", "naptan:Street": "Oddington Road", "naptan:verified": "no", "public_transport": "platform", "source": "naptan_import"}}, {"type": "node", "id": 502486635, "lat": 51.9449552, "lon": -1.7038615, "tags": {"bus": "yes", "highway": "bus_stop", "name": "The Green", "naptan:AtcoCode": "1600GL756", "naptan:Bearing": "SW", "naptan:CommonName": "The Green", "naptan:Indicator": "Opp", "naptan:NaptanCode": "glogjgtp", "naptan:Street": "Oddington Road", "naptan:verified": "no", "public_transport": "platform", "source": "naptan_import"}}, {"type": "node", "id": 502486638, "lat": 51.9450013, "lon": -1.7007478, "tags": {"bus": "yes", "highway": "bus_stop", "name": "Chapel Street", "naptan:AtcoCode": "1600GL759", "naptan:Bearing": "SE", "naptan:CommonName": "Chapel Street", "naptan:NaptanCode": "glogjmdm", "naptan:Street": "Donnington Road", "naptan:verified": "no", "public_transport": "platform", "source": "naptan_import"}}, {"type": "node", "id": 502486643, "lat": 51.9451467, "lon": -1.7013578, "tags": {"bus": "yes", "highway": "bus_stop", "name": "Chapel Street", "naptan:AtcoCode": "1600GL760", "naptan:Bearing": "NW", "naptan:CommonName": "Chapel Street", "naptan:Indicator": "Opp", "naptan:NaptanCode": "glogjmda", "naptan:Street": "Donnington Road", "naptan:verified": "no", "public_transport": "platform", "source": "naptan_import"}}, {"type": "node", "id": 502489593, "lat": 51.9306905, "lon": -1.7127837, "tags": {"bus": "yes", "highway": "bus_stop", "name": "Griffin Closeturn", "naptan:AtcoCode": "1600GLA36677", "naptan:Bearing": "S", "naptan:CommonName": "Griffin Closeturn", "naptan:NaptanCode": "glogmjda", "naptan:Street": "King George's Field", "naptan:verified": "no", "public_transport": "platform", "source": "naptan_import"}}, {"type": "node", "id": 502489596, "lat": 51.9468709, "lon": -1.7077044, "tags": {"bus": "yes", "highway": "bus_stop", "name": "Aston House", "naptan:AtcoCode": "1600GLA36681", "naptan:Bearing": "N", "naptan:CommonName": "Aston House", "naptan:Indicator": "Opp", "naptan:NaptanCode": "glogmjdg", "naptan:Street": "Red Hill Farm Rd", "naptan:verified": "no", "public_transport": "platform", "source": "naptan_import"}}, {"type": "node", "id": 502489599, "lat": 51.9468707, "lon": -1.7076172, "tags": {"bus": "yes", "highway": "bus_stop", "name": "Aston House", "naptan:AtcoCode": "1600GLA36682", "naptan:Bearing": "S", "naptan:CommonName": "Aston House", "naptan:NaptanCode": "glogmjdj", "naptan:Street": "Red Hill Farm Rd", "naptan:verified": "no", "public_transport": "platform", "source": "naptan_import"}}, {"type": "node", "id": 502489664, "lat": 51.9448674, "lon": -1.704706, "tags": {"bus": "yes", "highway": "bus_stop", "name": "The Green", "naptan:AtcoCode": "1600GLA36717", "naptan:Bearing": "NW", "naptan:CommonName": "The Green", "naptan:NaptanCode": "glogmjmt", "naptan:Street": "Red Hill Farm Rd", "naptan:verified": "no", "public_transport": "platform", "source": "naptan_import"}}, {"type": "node", "id": 502489667, "lat": 51.9449121, "lon": -1.7045892, "tags": {"bus": "yes", "highway": "bus_stop", "name": "The Green", "naptan:AtcoCode": "1600GLA36718", "naptan:Bearing": "SE", "naptan:CommonName": "The Green", "naptan:NaptanCode": "glogmjmw", "naptan:Street": "Red Hill Farm Rd", "naptan:verified": "no", "public_transport": "platform", "source": "naptan_import"}}, {"type": "node", "id": 502490889, "lat": 51.9263807, "lon": -1.7214197, "tags": {"bus": "yes", "highway": "bus_stop", "name": "Chamberlayne House", "naptan:AtcoCode": "1600GLA56986", "naptan:Bearing": "N", "naptan:CommonName": "Chamberlayne House", "naptan:NaptanCode": "glogmtat", "naptan:Street": "Chamberlayne Close", "naptan:verified": "no", "public_transport": "platform", "source": "naptan_import"}}, {"type": "node", "id": 502490891, "lat": 51.9303584, "lon": -1.7204941, "tags": {"bus": "yes", "highway": "bus_stop", "name": "Chapel St", "naptan:AtcoCode": "1600GLA56987", "naptan:Bearing": "N", "naptan:CommonName": "Chapel St", "naptan:Indicator": "Opp", "naptan:NaptanCode": "glogmtaw", "naptan:Street": "Well Ln", "naptan:verified": "no", "public_transport": "platform", "source": "naptan_import"}}, {"type": "node", "id": 502490893, "lat": 51.9303401, "lon": -1.7203633, "tags": {"bus": "yes", "highway": "bus_stop", "name": "Chapel St", "naptan:AtcoCode": "1600GLA56988", "naptan:Bearing": "S", "naptan:CommonName": "Chapel St", "naptan:NaptanCode": "glogmtda", "naptan:Street": "Well Ln", "naptan:verified": "no", "public_transport": "platform", "source": "naptan_import"}}, {"type": "node", "id": 502490896, "lat": 51.9258884, "lon": -1.7199111, "tags": {"bus": "yes", "highway": "bus_stop", "name": "Fisher House", "naptan:AtcoCode": "1600GLA56989", "naptan:Bearing": "SW", "naptan:CommonName": "Fisher House", "naptan:NaptanCode": "glogmtdg", "naptan:Street": "Bartletts Park", "naptan:verified": "no", "public_transport": "platform", "source": "naptan_import"}}, {"type": "node", "id": 502494553, "lat": 51.9312916, "lon": -1.723499, "tags": {"bus": "yes", "highway": "bus_stop", "name": "Police Station", "naptan:AtcoCode": "1600GLC230", "naptan:Bearing": "S", "naptan:CommonName": "Police Station", "naptan:Indicator": "Opp", "naptan:NaptanCode": "glogjdpa", "naptan:Street": "High St", "naptan:verified": "no", "public_transport": "platform", "source": "naptan_import"}}, {"type": "node", "id": 502495423, "lat": 51.9171427, "lon": -1.7248218, "tags": {"bench": "no", "bin": "no", "bus": "yes", "highway": "bus_stop", "lit": "yes", "name": "St Edward's Well", "naptan:AtcoCode": "1600GLC527", "naptan:Bearing": "N", "naptan:CommonName": "St Edward's Well", "naptan:Indicator": "Opp", "naptan:NaptanCode": "glogjdma", "naptan:Street": "Burford Rd A424", "naptan:verified": "no", "public_transport": "platform", "shelter": "no", "source": "naptan_import"}}, {"type": "node", "id": 502495426, "lat": 51.9172413, "lon": -1.7247194, "tags": {"bench": "no", "bus": "yes", "highway": "bus_stop", "lit": "yes", "name": "Farmers Arms", "naptan:AtcoCode": "1600GLC528", "naptan:Bearing": "SE", "naptan:CommonName": "Farmers Arms", "naptan:NaptanCode": "glogjdmd", "naptan:Street": "N/A", "naptan:verified": "no", "public_transport": "platform", "shelter": "no", "source": "naptan_import"}}, {"type": "node", "id": 502495752, "lat": 51.9269893, "lon": -1.7487013, "tags": {"bus": "yes", "highway": "bus_stop", "name": "Lower Swell School", "naptan:AtcoCode": "1600GLC661", "naptan:Bearing": "NW", "naptan:CommonName": "Lower Swell School", "naptan:NaptanCode": "glogjajw", "naptan:Street": "Stonehouse", "naptan:verified": "no", "public_transport": "platform", "source": "naptan_import"}}, {"type": "node", "id": 502495754, "lat": 51.9270431, "lon": -1.748631, "tags": {"bus": "yes", "highway": "bus_stop", "name": "Lower Swell School", "naptan:AtcoCode": "1600GLC662", "naptan:Bearing": "SE", "naptan:CommonName": "Lower Swell School", "naptan:Indicator": "Opp", "naptan:NaptanCode": "glogjama", "naptan:Street": "Stonehouse", "naptan:verified": "no", "public_transport": "platform", "source": "naptan_import"}}, {"type": "node", "id": 13295341280, "lat": 51.9174401, "lon": -1.725424, "tags": {"bus": "yes", "highway": "bus_stop", "name": "Number Four Hotel", "public_transport": "platform"}}, {"type": "node", "id": 13295341281, "lat": 51.9157861, "lon": -1.7267891, "tags": {"bus": "yes", "highway": "bus_stop", "name": "Fosse Manor Hotel", "public_transport": "platform"}}, {"type": "node", "id": 13295383606, "lat": 51.917668, "lon": -1.7255209, "tags": {"bus": "yes", "highway": "bus_stop", "name": "Number Four Hotel", "public_transport": "platform"}}, {"type": "node", "id": 13295409601, "lat": 51.9156992, "lon": -1.7270007, "tags": {"bus": "yes", "highway": "bus_stop", "name": "Fosse Manor Hotel", "public_transport": "platform"}}]}