{"version": 0.6, "generator": "Overpass API 0.7.62.10 2d4cfc48", "osm3s": {"timestamp_osm_base": "2026-03-01T06:11:54Z", "copyright": "The data included in this document is from www.openstreetmap.org. The data is made available under ODbL."}, "elements": [{"type": "node", "id": 2127953753, "lat": 54.6007163, "lon": -3.1355661}, {"type": "node", "id": 2127953763, "lat": 54.6006904, "lon": -3.1355299}, {"type": "node", "id": 2127953782, "lat": 54.6006487, "lon": -3.1354383}, {"type": "node", "id": 2127958422, "lat": 54.6007143, "lon": -3.1356653}, {"type": "node", "id": 2127958424, "lat": 54.6007068, "lon": -3.1355854}, {"type": "node", "id": 2127958425, "lat": 54.6006788, "lon": -3.1356703}, {"type": "node", "id": 2127958426, "lat": 54.6007332, "lon": -3.1356274}, {"type": "node", "id": 3428480289, "lat": 54.6006949, "lon": -3.1356358}, {"type": "node", "id": 3928323603, "lat": 54.6009882, "lon": -3.1381069}, {"type": "node", "id": 3928715160, "lat": 54.6009196, "lon": -3.1380028}, {"type": "node", "id": 4270589088, "lat": 54.600989, "lon": -3.1378725}, {"type": "node", "id": 4277399735, "lat": 54.6010548, "lon": -3.1379773}, {"type": "node", "id": 4279005455, "lat": 54.6006038, "lon": -3.1355691}, {"type": "node", "id": 12966214217, "lat": 54.6007123, "lon": -3.1355942, "tags": {"addr:city": "Keswick", "addr:housenumber": "11A;11B", "addr:postcode": "CA12 5HH", "addr:street": "Station Street", "entrance": "yes"}}, {"type": "node", "id": 12967254302, "lat": 54.6009635, "lon": -3.1380695}, {"type": "node", "id": 12967254304, "lat": 54.6010395, "lon": -3.138007}, {"type": "node", "id": 13045840259, "lat": 54.6006782, "lon": -3.1355098}, {"type": "way", "id": 202854513, "nodes": [4279005455, 2127958425, 3428480289, 2127958422, 2127958426, 12966214217, 2127958424, 2127953753, 2127953763, 13045840259, 2127953782, 4279005455], "tags": {"addr:city": "Keswick", "addr:housenumber": "11-13", "addr:postcode": "CA12 5HH", "addr:street": "Station Street", "amenity": "pharmacy", "brand": "Cohens Chemist", "brand:wikidata": "Q107998495", "building": "retail", "check_date": "2025-08-05", "healthcare": "pharmacy", "name": "Cohens Chemist", "old_name": "Murrays", "opening_hours": "Mo-Fr 09:00-17:00; Sa-Su off", "phone": "+44 17687 72049", "website": "https://www.cohenschemist.co.uk/mycohens/directory/?branch=517", "wheelchair": "yes"}}, {"type": "way", "id": 428652562, "nodes": [3928323603, 12967254302, 3928715160, 4270589088, 4277399735, 12967254304, 3928323603], "tags": {"addr:city": "Keswick", "addr:housenumber": "31", "addr:postcode": "CA12 5BL", "addr:street": "Main Street", "amenity": "pharmacy", "brand": "Boots", "brand:wikidata": "Q6123139", "brand:wikipedia": "en:Boots (company)", "building": "retail", "check_date": "2025-08-05", "fhrs:id": "1549668", "healthcare": "pharmacy", "name": "Boots", "opening_hours": "Mo-Fr 09:00-18:00; Sa 09:00-17:00; Su 10:00-17:00", "payment:cash": "yes", "payment:credit_cards": "yes", "payment:debit_cards": "yes", "phone": "+44 17687 72383", "ref:GB:uprn": "100110730051", "website": "https://www.boots.com/stores/1167-keswick-main-street-ca12-5bl", "wheelchair": "yes"}}]}