{"version": 0.6, "generator": "Overpass API 0.7.62.10 2d4cfc48", "osm3s": {"timestamp_osm_base": "2026-03-01T06:11:54Z", "copyright": "The data included in this document is from www.openstreetmap.org. The data is made available under ODbL."}, "elements": [{"type": "node", "id": 562728062, "lat": 52.9060728, "lon": 1.0902941, "tags": {"bus": "yes", "highway": "bus_stop", "name": "Feeney's Newsagents, adj", "naptan:AtcoCode": "2900H3913", "naptan:Bearing": "E", "naptan:BusStopType": "CUS", "naptan:CommonName": "Santander", "naptan:Indicator": "os", "naptan:Locality": "Holt", "naptan:NaptanCode": "nfoawpdw", "naptan:Street": "Market Place", "naptan:verified": "no", "public_transport": "platform", "source": "naptan_import"}}, {"type": "node", "id": 562728067, "lat": 52.908282, "lon": 1.0973769, "tags": {"bench": "no", "bin": "no", "highway": "bus_stop", "lit": "no", "name": "Kelling Road, adj", "naptan:AtcoCode": "2900H3919", "naptan:Bearing": "E", "naptan:CommonName": "Kelling Road", "naptan:Indicator": "adj", "naptan:Landmark": "Kelling Road", "naptan:Locality": "Holt", "naptan:NaptanCode": "nfoawpgm", "naptan:Street": "Cromer Road", "naptan:verified": "no", "shelter": "no", "source": "naptan_import", "tactile_paving": "yes"}}, {"type": "node", "id": 562728069, "lat": 52.9079932, "lon": 1.0970737, "tags": {"bench": "no", "bin": "no", "highway": "bus_stop", "lit": "no", "name": "Kelling Road, opp", "naptan:AtcoCode": "2900H3920", "naptan:Bearing": "W", "naptan:CommonName": "Kelling Road", "naptan:Indicator": "opp", "naptan:Locality": "Holt", "naptan:NaptanCode": "nfoawpgp", "naptan:Street": "Cromer Road", "naptan:verified": "no", "shelter": "no", "source": "naptan_import", "tactile_paving": "yes"}}, {"type": "node", "id": 562728070, "lat": 52.905844, "lon": 1.0904177, "tags": {"bus": "yes", "highway": "bus_stop", "name": "Railway Tavern, adj", "naptan:AtcoCode": "2900H393", "naptan:Bearing": "W", "naptan:CommonName": "Railway Tavern", "naptan:Indicator": "adj", "naptan:Landmark": "Railway Tavern", "naptan:Locality": "Holt", "naptan:NaptanCode": "nfoawpgt", "naptan:Street": "Market Place", "naptan:verified": "no", "public_transport": "platform", "source": "naptan_import"}}, {"type": "node", "id": 562728071, "lat": 52.9059381, "lon": 1.0907265, "tags": {"bus": "yes", "highway": "bus_stop", "name": "Bus Shelter, adj", "naptan:AtcoCode": "2900H394", "naptan:Bearing": "SW", "naptan:CommonName": "Bus Shelter", "naptan:Indicator": "adj", "naptan:Landmark": "Bus Shelter", "naptan:Locality": "Holt", "naptan:NaptanCode": "nfoawpgw", "naptan:Street": "White Lion Street", "naptan:verified": "no", "public_transport": "platform", "source": "naptan_import"}}, {"type": "node", "id": 562728072, "lat": 52.901002, "lon": 1.0941058, "tags": {"highway": "bus_stop", "name": "Coronation Road, S-bound", "naptan:AtcoCode": "2900H395", "naptan:Bearing": "S", "naptan:CommonName": "Coronation Road", "naptan:Indicator": "S-bound", "naptan:Locality": "Holt", "naptan:NaptanCode": "nfoawpja", "naptan:Street": "Coronation Road", "naptan:verified": "no", "source": "naptan_import"}}, {"type": "node", "id": 562728073, "lat": 52.911782, "lon": 1.1131281, "tags": {"bench": "yes", "bin": "no", "highway": "bus_stop", "kerb": "raised", "lit": "no", "name": "Holt Rail Station", "naptan:AtcoCode": "2900H396", "naptan:Bearing": "SW", "naptan:CommonName": "Holt Rail Station", "naptan:Indicator": "opp", "naptan:Landmark": "Holt Rail Station", "naptan:Locality": "High Kelling", "naptan:NaptanCode": "nfoawpjd", "naptan:Street": "Cromer Road", "shelter": "yes", "source": "naptan_import;survey", "tactile_paving": "yes"}}, {"type": "node", "id": 562728075, "lat": 52.9120173, "lon": 1.1134128, "tags": {"bench": "no", "bin": "no", "highway": "bus_stop", "lit": "no", "name": "Holt Rail Station", "naptan:AtcoCode": "2900H397", "naptan:Bearing": "NE", "naptan:CommonName": "Holt Rail Station", "naptan:Indicator": "adj", "naptan:Landmark": "Holt Rail Station", "naptan:Locality": "High Kelling", "naptan:NaptanCode": "nfoawpjg", "naptan:Street": "Cromer Road", "shelter": "no", "source": "naptan_import;survey", "tactile_paving": "yes"}}, {"type": "node", "id": 562728077, "lat": 52.9097596, "lon": 1.1037729, "tags": {"bench": "no", "bin": "no", "highway": "bus_stop", "lit": "no", "name": "Gresham school, adj", "naptan:AtcoCode": "2900H398", "naptan:Bearing": "E", "naptan:CommonName": "Gresham school", "naptan:Indicator": "adj", "naptan:Locality": "Holt", "naptan:NaptanCode": "nfoawpjm", "naptan:Street": "Cromer Road", "naptan:verified": "no", "shelter": "no", "source": "naptan_import", "tactile_paving": "yes"}}, {"type": "node", "id": 562728078, "lat": 52.909632, "lon": 1.1036035, "tags": {"bench": "no", "bin": "no", "highway": "bus_stop", "lit": "yes", "name": "Gresham school, opp", "naptan:AtcoCode": "2900H399", "naptan:Bearing": "SW", "naptan:CommonName": "Gresham school", "naptan:Indicator": "opp", "naptan:Locality": "Holt", "naptan:NaptanCode": "nfoawpjp", "naptan:Street": "Cromer Road", "naptan:verified": "no", "shelter": "no", "source": "naptan_import", "tactile_paving": "yes"}}, {"type": "node", "id": 562728524, "lat": 52.9129502, "lon": 1.1172734, "tags": {"highway": "bus_stop", "name": "Hospital, adj", "naptan:AtcoCode": "2900K193", "naptan:Bearing": "NE", "naptan:CommonName": "Hospital", "naptan:Indicator": "adj", "naptan:Landmark": "Hospital", "naptan:Locality": "High Kelling", "naptan:NaptanCode": "nfodatjt", "naptan:Street": "Cromer Road", "naptan:verified": "no", "source": "naptan_import"}}, {"type": "node", "id": 562728555, "lat": 52.9073004, "lon": 1.0648648, "tags": {"highway": "bus_stop", "kerb": "raised", "name": "Holt Road, opp", "naptan:AtcoCode": "2900L042", "naptan:Bearing": "W", "naptan:BusStopType": "CUS", "naptan:CommonName": "Holt Road", "naptan:Indicator": "opp", "naptan:Landmark": "No. 5 Holt Road", "naptan:Locality": "Letheringsett", "naptan:NaptanCode": "nfodawam", "naptan:ShortCommonName": "Holt Road", "naptan:Street": "Holt Road", "naptan:verified": "no", "source": "naptan_import", "tactile_paving": "yes", "timetable": "yes"}}, {"type": "node", "id": 562728557, "lat": 52.9065809, "lon": 1.0675303, "tags": {"highway": "bus_stop", "name": "Holt Road, adj", "naptan:AtcoCode": "2900L044", "naptan:Bearing": "E", "naptan:BusStopType": "CUS", "naptan:CommonName": "Holt Road", "naptan:Indicator": "adj", "naptan:Landmark": "Village Hall", "naptan:Locality": "Letheringsett", "naptan:NaptanCode": "nfodawat", "naptan:ShortCommonName": "Holt Road", "naptan:Street": "Holt Road", "source": "naptan_import;bing_streetside"}}, {"type": "node", "id": 1460412392, "lat": 52.9008232, "lon": 1.0890301, "tags": {"highway": "bus_stop", "name": "Police Station, adj", "naptan:AtcoCode": "2900H3921", "naptan:Bearing": "S", "naptan:CommonName": "Police Station", "naptan:Indicator": "adj", "naptan:Locality": "Holt", "naptan:NaptanCode": "nfogtapg", "naptan:Street": "Norwich Road", "naptan:verified": "no", "shelter": "no", "source": "naptan_import"}}, {"type": "node", "id": 2441607022, "lat": 52.9008245, "lon": 1.0943609, "tags": {"highway": "bus_stop", "name": "Coronation Road, adj", "naptan:AtcoCode": "2900H3917", "naptan:Bearing": "E", "naptan:CommonName": "Coronation Road", "naptan:Indicator": "adj", "naptan:Landmark": "Coronation Road", "naptan:Locality": "Holt", "naptan:NaptanCode": "nfogtjwt", "naptan:Street": "Charles Road", "naptan:verified": "no", "source": "naptan_import"}}, {"type": "node", "id": 2441607030, "lat": 52.9007902, "lon": 1.0949831, "tags": {"highway": "bus_stop", "name": "Coronation Road, opp", "naptan:AtcoCode": "2900H3918", "naptan:Bearing": "W", "naptan:CommonName": "Coronation Road", "naptan:Indicator": "opp", "naptan:Landmark": "Coronation Road", "naptan:Locality": "Holt", "naptan:NaptanCode": "nfogtmad", "naptan:Street": "Charles Road", "naptan:verified": "no", "source": "naptan_import"}}, {"type": "node", "id": 2441607102, "lat": 52.9002785, "lon": 1.089771, "tags": {"highway": "bus_stop", "name": "Lodge Close, opp", "naptan:AtcoCode": "2900H1001", "naptan:Bearing": "E", "naptan:CommonName": "Lodge Close", "naptan:Indicator": "opp", "naptan:Locality": "Holt", "naptan:NaptanCode": "nfogtjgt", "naptan:Street": "Edinburgh Road", "naptan:verified": "no", "source": "naptan_import"}}, {"type": "node", "id": 2441607140, "lat": 52.9010861, "lon": 1.0888327, "tags": {"highway": "bus_stop", "name": "Police Station, opp", "naptan:AtcoCode": "2900H3922", "naptan:Bearing": "N", "naptan:CommonName": "Police Station", "naptan:Indicator": "opp", "naptan:Locality": "Holt", "naptan:NaptanCode": "nfogtapj", "naptan:Street": "Norwich Road", "naptan:verified": "no", "source": "naptan_import"}}, {"type": "node", "id": 2441607149, "lat": 52.9002061, "lon": 1.0904797, "tags": {"highway": "bus_stop", "name": "Regents Close, opp", "naptan:AtcoCode": "2900H1002", "naptan:Bearing": "W", "naptan:CommonName": "Regents Close", "naptan:Indicator": "opp", "naptan:Locality": "Holt", "naptan:NaptanCode": "nfogtjgw", "naptan:Street": "Edinburgh Road", "naptan:verified": "no", "source": "naptan_import"}}]}