{"version": 0.6, "generator": "Overpass API 0.7.62.10 2d4cfc48", "osm3s": {"timestamp_osm_base": "2026-02-26T10:51:24Z", "copyright": "The data included in this document is from www.openstreetmap.org. The data is made available under ODbL."}, "elements": [{"type": "node", "id": 4684459690, "lat": 54.0630807, "lon": -2.7899324, "tags": {"addr:unit": "8-9", "alt_name": "Crossfit Central Lancaster", "leisure": "fitness_centre", "name": "The Hive", "sport": "crossfit"}}, {"type": "node", "id": 5018426976, "lat": 54.0469412, "lon": -2.801137, "tags": {"brand": "Snap Fitness", "brand:wikidata": "Q7547254", "leisure": "fitness_centre", "level": "0", "name": "Snap Fitness", "opening_hours": "Mo-Su 00:00-24:00", "sport": "gymnastics", "wheelchair": "yes"}}, {"type": "node", "id": 6331282114, "lat": 54.0505629, "lon": -2.7982286, "tags": {"addr:city": "Lancaster", "addr:housenumber": "34", "addr:postcode": "LA1 1NY", "addr:street": "North Road", "leisure": "fitness_centre", "name": "Fitness Formation", "website": "https://www.fitnessformation.co.uk/"}}, {"type": "node", "id": 6902942558, "lat": 54.0400677, "lon": -2.782396}, {"type": "node", "id": 6902942559, "lat": 54.040011, "lon": -2.7820343}, {"type": "node", "id": 6902942560, "lat": 54.0399143, "lon": -2.7820782}, {"type": "node", "id": 6902942561, "lat": 54.0399028, "lon": -2.7820053}, {"type": "node", "id": 6902942562, "lat": 54.0398148, "lon": -2.7820453}, {"type": "node", "id": 6902942563, "lat": 54.0399185, "lon": -2.7824638}, {"type": "node", "id": 7028836079, "lat": 54.0398643, "lon": -2.7822903}, {"type": "node", "id": 7028836080, "lat": 54.0398895, "lon": -2.7822788}, {"type": "node", "id": 7028836081, "lat": 54.0398513, "lon": -2.7822072}, {"type": "node", "id": 7028836082, "lat": 54.0398409, "lon": -2.7822119}, {"type": "node", "id": 12806832087, "lat": 54.0488984, "lon": -2.8269451, "tags": {"addr:housenumber": "A2", "addr:place": "Lune Industrial Estate", "addr:postcode": "LA1 5XW", "addr:street": "Brockbank Avenue", "check_date": "2025-05-03", "email": "gym@tnt-elite.co.uk", "leisure": "fitness_centre", "name": "TNT Elite Gym", "opening_hours": "05:00-22:00", "phone": "+44 7550 046949", "website": "https://www.tnt-elite.co.uk/"}}, {"type": "node", "id": 12990466148, "lat": 54.0477929, "lon": -2.826215, "tags": {"addr:city": "Lancaster", "addr:place": "Lune Industrial Estate", "addr:unit": "C7", "leisure": "fitness_centre", "name": "Hot Box", "sport": "crossfit"}}, {"type": "way", "id": 737315265, "nodes": [6902942558, 6902942559, 6902942560, 6902942561, 6902942562, 7028836082, 7028836081, 7028836079, 7028836080, 6902942563, 6902942558], "tags": {"access": "members", "addr:city": "Lancaster", "addr:postcode": "LA1 3LA", "addr:street": "Wyresdale Road", "building": "yes", "check_date:opening_hours": "2023-12-17", "club": "sport", "leisure": "fitness_centre", "name": "City of Lancaster Gymnastics Club", "opening_hours:signed": "no", "ref:GB:uprn": "10094207094", "sport": "gymnastics"}}]}