{"version": 0.6, "generator": "Overpass API 0.7.62.10 2d4cfc48", "osm3s": {"timestamp_osm_base": "2026-03-01T06:29:23Z", "copyright": "The data included in this document is from www.openstreetmap.org. The data is made available under ODbL."}, "elements": [{"type": "node", "id": 412723107, "lat": 54.4726804, "lon": -0.6049357, "tags": {"addr:city": "Whitby", "addr:housenumber": "1", "addr:postcode": "YO22 4HJ", "addr:street": "Mount Farm Close", "amenity": "pharmacy", "brand": "Day Lewis Pharmacy", "brand:wikidata": "Q62563772", "healthcare": "pharmacy", "name": "Day Lewis Pharmacy", "note": "was a Premier convenience store before being pharmacy", "old_name": "Premier Xtra"}}, {"type": "node", "id": 449342878, "lat": 54.4908741, "lon": -0.631648, "tags": {"addr:city": "Whitby", "addr:postcode": "YO21 3JP", "addr:street": "The Parade", "amenity": "pharmacy", "brand": "Day Lewis Pharmacy", "brand:wikidata": "Q62563772", "dispensing": "yes", "healthcare": "pharmacy", "name": "Day Lewis Pharmacy", "opening_hours": "Mo-Fr 09:00-17:30; Sa 09:00-13:00"}}, {"type": "node", "id": 688268227, "lat": 54.4864411, "lon": -0.6149265}, {"type": "node", "id": 688268774, "lat": 54.4863369, "lon": -0.6146832}, {"type": "node", "id": 2261936101, "lat": 54.4857747, "lon": -0.6230644}, {"type": "node", "id": 4294515639, "lat": 54.4857096, "lon": -0.6229314}, {"type": "node", "id": 4294515640, "lat": 54.4856259, "lon": -0.623036}, {"type": "node", "id": 4294515641, "lat": 54.4856917, "lon": -0.6231688}, {"type": "node", "id": 7995474636, "lat": 54.4864112, "lon": -0.6150329}, {"type": "node", "id": 7995474638, "lat": 54.4862072, "lon": -0.6145551}, {"type": "node", "id": 7995474641, "lat": 54.4861164, "lon": -0.614784}, {"type": "node", "id": 7995474644, "lat": 54.4862997, "lon": -0.6149504}, {"type": "node", "id": 11694587998, "lat": 54.4863479, "lon": -0.6148409}, {"type": "node", "id": 11694587999, "lat": 54.4863837, "lon": -0.614726}, {"type": "node", "id": 11694588000, "lat": 54.4861565, "lon": -0.6146631}, {"type": "way", "id": 430178640, "nodes": [2261936101, 4294515639, 4294515640, 4294515641, 2261936101], "tags": {"addr:city": "Whitby", "addr:postcode": "YO21 1SD", "addr:street": "Rievaulx Road", "amenity": "pharmacy", "brand": "Rowlands Pharmacy", "brand:wikidata": "Q62663235", "building": "yes", "drive_through": "no", "healthcare": "pharmacy", "name": "Rowlands Pharmacy", "website": "https://rowlandspharmacy.co.uk/find-local-pharmacy#!/l/whitby/rievaulx-road/1610"}}, {"type": "way", "id": 857581371, "nodes": [7995474641, 7995474644, 7995474636, 688268227, 11694587998, 11694587999, 688268774, 7995474638, 11694588000, 7995474641], "tags": {"addr:city": "Whitby", "addr:housenumber": "64-66", "addr:postcode": "YO21 1BL", "addr:street": "Baxtergate", "amenity": "pharmacy", "brand": "Boots", "brand:wikidata": "Q6123139", "building": "yes", "dispensing": "yes", "healthcare": "pharmacy", "name": "Boots", "shop": "chemist", "website": "https://www.boots.com/stores/553-whitby-baxtergate-yo21-1bl"}}]}