{"version": 0.6, "generator": "Overpass API 0.7.62.10 2d4cfc48", "osm3s": {"timestamp_osm_base": "2026-03-01T06:12:58Z", "copyright": "The data included in this document is from www.openstreetmap.org. The data is made available under ODbL."}, "elements": [{"type": "node", "id": 1829711229, "lat": 51.5784241, "lon": -2.0948826, "tags": {"bench": "no", "bin": "no", "bus": "yes", "check_date": "2025-09-29", "highway": "bus_stop", "lit": "yes", "name": "Police Station", "naptan:AtcoCode": "4600WIA11212", "naptan:Bearing": "N", "naptan:CommonName": "Police Station", "naptan:Indicator": "opp", "naptan:NaptanCode": "wilapapa", "naptan:Street": "Burton Hill", "naptan:verified": "yes", "public_transport": "platform", "shelter": "no", "source": "mapilary;naptan;bing;naptan_compare_tool", "tactile_paving": "no"}}, {"type": "node", "id": 1829711230, "lat": 51.5781099, "lon": -2.0948608, "tags": {"bench": "yes", "bin": "yes", "bus": "yes", "check_date": "2025-09-29", "highway": "bus_stop", "lit": "yes", "name": "Police Station", "naptan:AtcoCode": "4600WIA11211", "naptan:CommonName": "Police Station", "naptan:NaptanCode": "wilapapd", "naptan:verified": "yes", "public_transport": "platform", "shelter": "yes", "tactile_paving": "no"}}, {"type": "node", "id": 1829711231, "lat": 51.5784386, "lon": -2.0919872, "tags": {"bus": "yes", "check_date": "2025-09-29", "highway": "bus_stop", "name": "Manor Cottages", "naptan:AtcoCode": "4600WIA11249", "naptan:Bearing": "SE", "naptan:CommonName": "Manor Cottages", "naptan:Indicator": "SE-bound", "naptan:NaptanCode": "wilapatj", "naptan:Street": "B4042", "naptan:verified": "yes", "public_transport": "platform"}}, {"type": "node", "id": 1829768152, "lat": 51.5831089, "lon": -2.096614, "tags": {"bus": "yes", "check_date": "2025-09-29", "highway": "bus_stop", "name": "Library", "naptan:AtcoCode": "4600WIA11216", "naptan:Bearing": "S", "naptan:CommonName": "Library", "naptan:Indicator": "S-bound", "naptan:NaptanCode": "wilapajw", "naptan:Street": "Cross Hayes Lane", "naptan:verified": "yes", "public_transport": "platform"}}, {"type": "node", "id": 1829768153, "lat": 51.5826806, "lon": -2.0969466, "tags": {"bus": "yes", "check_date": "2025-09-29", "highway": "bus_stop", "name": "Cross Hayes", "naptan:AtcoCode": "4600WIA11218", "naptan:Bearing": "W", "naptan:CommonName": "Cross Hayes", "naptan:Indicator": "W-bound", "naptan:NaptanCode": "wilapajm", "naptan:Street": "St Dennis Lane", "naptan:verified": "yes", "public_transport": "platform"}}, {"type": "node", "id": 1829768161, "lat": 51.5801764, "lon": -2.0944388, "tags": {"bus": "yes", "check_date": "2025-09-29", "highway": "bus_stop", "name": "Burton Hill", "naptan:AtcoCode": "4600WIA11213", "naptan:Bearing": "N", "naptan:CommonName": "Burton Hill", "naptan:Indicator": "N-bound", "naptan:NaptanCode": "wilapapj", "naptan:Street": "High Street", "naptan:verified": "yes", "public_transport": "platform"}}, {"type": "node", "id": 2984509987, "lat": 51.5802107, "lon": -2.0942504, "tags": {"bus": "yes", "check_date": "2025-09-29", "highway": "bus_stop", "name": "Burton Hill", "naptan:AtcoCode": "4600WIA11215", "naptan:Bearing": "S", "naptan:CommonName": "Burton Hill", "naptan:Indicator": "S-bound", "naptan:NaptanCode": "wilapapt", "naptan:Street": "High Street", "naptan:verified": "yes", "public_transport": "platform"}}, {"type": "node", "id": 10007462386, "lat": 51.5697626, "lon": -2.0713264, "tags": {"bus": "yes", "check_date": "2025-09-29", "highway": "bus_stop", "name": "Lea Crescent", "naptan:AtcoCode": "4600WIA11256", "naptan:Bearing": "NW", "naptan:CommonName": "Lea Crescent", "naptan:Indicator": "NW-bound", "naptan:NaptanCode": "wilapgdj", "naptan:Street": "B4042", "naptan:verified": "yes", "public_transport": "platform", "shelter": "yes"}}, {"type": "node", "id": 10007462387, "lat": 51.5757499, "lon": -2.0838186, "tags": {"bus": "yes", "check_date": "2025-09-29", "highway": "bus_stop", "name": "Cowbridge Mill", "naptan:AtcoCode": "4600WIA11254", "naptan:Bearing": "NW", "naptan:CommonName": "Cowbridge Mill", "naptan:Indicator": "NW-bound", "naptan:NaptanCode": "wilapdgd", "naptan:Street": "Malmesbury Road", "naptan:verified": "yes", "public_transport": "platform"}}, {"type": "node", "id": 10007462388, "lat": 51.5769565, "lon": -2.087369, "tags": {"bus": "yes", "check_date": "2025-09-29", "highway": "bus_stop", "name": "Cowbridge Crescent", "naptan:AtcoCode": "4600WIA11252", "naptan:Bearing": "NW", "naptan:CommonName": "Cowbridge Crescent", "naptan:Indicator": "NW-bound", "naptan:NaptanCode": "wilapdag", "naptan:Street": "B4042 Swindon Road", "naptan:verified": "yes", "public_transport": "platform", "source": "naptan;bing;naptan_compare_tool"}}, {"type": "node", "id": 10007462389, "lat": 51.5783703, "lon": -2.0921049, "tags": {"bus": "yes", "check_date": "2025-09-29", "highway": "bus_stop", "name": "Manor Cottages", "naptan:AtcoCode": "4600WIA11250", "naptan:Bearing": "NW", "naptan:CommonName": "Manor Cottages", "naptan:Indicator": "NW-bound", "naptan:NaptanCode": "wilapatg", "naptan:Street": "B4042", "naptan:verified": "yes", "public_transport": "platform"}}, {"type": "node", "id": 10007462390, "lat": 51.5938435, "lon": -2.0890103, "tags": {"bench": "yes", "bin": "no", "bus": "yes", "check_date": "2025-09-29", "highway": "bus_stop", "lit": "yes", "name": "Aldi Roundabout", "naptan:AtcoCode": "460000047", "naptan:Bearing": "N", "naptan:BusStopType": "CUS", "naptan:CommonName": "Aldi Roundabout", "naptan:Indicator": "Car Park", "naptan:NaptanCode": "wildwdpa", "naptan:Street": "Crudwell Road", "naptan:verified": "yes", "public_transport": "platform", "shelter": "yes", "source": "naptan;bing;naptan_compare_tool", "tactile_paving": "no"}}, {"type": "node", "id": 10007462391, "lat": 51.5969421, "lon": -2.0975316, "tags": {"bus": "yes", "check_date": "2025-09-29", "highway": "bus_stop", "name": "Filands", "naptan:AtcoCode": "460000313", "naptan:Bearing": "W", "naptan:CommonName": "Filands", "naptan:Indicator": "W-bound", "naptan:NaptanCode": "wildwtmg", "naptan:verified": "yes", "public_transport": "platform"}}, {"type": "node", "id": 10007462392, "lat": 51.5958686, "lon": -2.1035567, "tags": {"bus": "yes", "check_date": "2025-09-29", "highway": "bus_stop", "name": "Tetbury Hill", "naptan:AtcoCode": "460000084", "naptan:Bearing": "NW", "naptan:CommonName": "Tetbury Hill", "naptan:Indicator": "NW-bound", "naptan:NaptanCode": "wildwgjt", "naptan:Street": "Tetbury Hill", "naptan:verified": "yes", "public_transport": "platform"}}, {"type": "node", "id": 10007462393, "lat": 51.5928693, "lon": -2.1011151, "tags": {"bus": "yes", "check_date": "2025-09-29", "highway": "bus_stop", "name": "William Stumpes Close", "naptan:AtcoCode": "4600WIA04389", "naptan:Bearing": "S", "naptan:CommonName": "William Stumpes Close", "naptan:Indicator": "S-bound", "naptan:NaptanCode": "wildtwgj", "naptan:Street": "Tetbury Hill", "naptan:verified": "yes", "public_transport": "platform"}}, {"type": "node", "id": 10007462394, "lat": 51.5889107, "lon": -2.1008129, "tags": {"bus": "yes", "check_date": "2025-09-29", "highway": "bus_stop", "name": "Co-Op Supermarket", "naptan:AtcoCode": "4600WIA11239", "naptan:Bearing": "SW", "naptan:CommonName": "Co-Op Supermarket", "naptan:Indicator": "opp", "naptan:NaptanCode": "wilamwpj", "naptan:Street": "Gloucester Road", "naptan:verified": "yes", "public_transport": "platform", "shelter": "yes", "source": "mapilary;naptan;bing;naptan_compare_tool"}}, {"type": "node", "id": 10007462395, "lat": 51.5886957, "lon": -2.1038497, "tags": {"bus": "yes", "check_date": "2025-09-29", "highway": "bus_stop", "name": "Willow View Close", "naptan:AtcoCode": "4600WIA11237", "naptan:Bearing": "W", "naptan:CommonName": "Willow View Close", "naptan:Indicator": "W-bound", "naptan:NaptanCode": "wilamwgw", "naptan:Street": "Park Road", "naptan:verified": "yes", "public_transport": "platform", "source": "naptan;bing;naptan_compare_tool"}}, {"type": "node", "id": 10007462396, "lat": 51.5888633, "lon": -2.1066376, "tags": {"bus": "yes", "check_date": "2025-09-29", "highway": "bus_stop", "name": "Alexander Mews", "naptan:AtcoCode": "4600WIA11235", "naptan:Bearing": "W", "naptan:BusStopType": "CUS", "naptan:CommonName": "Alexander Mews", "naptan:Indicator": "W-bound", "naptan:NaptanCode": "wilamwdg", "naptan:Street": "Park Road", "naptan:verified": "yes", "public_transport": "platform"}}, {"type": "node", "id": 10007462397, "lat": 51.5871343, "lon": -2.11033, "tags": {"bus": "yes", "check_date": "2025-09-29", "highway": "bus_stop", "name": "Corn Gastons", "naptan:AtcoCode": "4600WIA11246", "naptan:Bearing": "SW", "naptan:CommonName": "Corn Gastons", "naptan:Indicator": "SW-bound", "naptan:NaptanCode": "wilamtgw", "naptan:Street": "Corn Gastons", "naptan:verified": "yes", "public_transport": "platform"}}, {"type": "node", "id": 10007462398, "lat": 51.5859423, "lon": -2.1117951, "tags": {"bus": "yes", "check_date": "2025-09-29", "highway": "bus_stop", "name": "School", "naptan:AtcoCode": "4600WIY38457", "naptan:Bearing": "NW", "naptan:CommonName": "School", "naptan:Indicator": "NW-bound", "naptan:NaptanCode": "wilamtpg", "naptan:Street": "Bus Park", "naptan:verified": "yes", "public_transport": "platform"}}, {"type": "node", "id": 10007462401, "lat": 51.5846374, "lon": -2.1077678, "tags": {"bus": "yes", "check_date": "2025-09-29", "highway": "bus_stop", "name": "Dark Lane", "naptan:AtcoCode": "4600WIA11219", "naptan:Bearing": "E", "naptan:CommonName": "Dark Lane", "naptan:Indicator": "E-bound", "naptan:NaptanCode": "wilamtpt", "naptan:Street": "Sherston Road", "naptan:verified": "yes", "public_transport": "platform"}}, {"type": "node", "id": 10007462402, "lat": 51.5853567, "lon": -2.1026187, "tags": {"bus": "yes", "check_date": "2025-09-29", "highway": "bus_stop", "name": "West Street", "naptan:AtcoCode": "4600WIA90886", "naptan:Bearing": "E", "naptan:CommonName": "West Street", "naptan:Indicator": "E-bound", "naptan:NaptanCode": "wildtwdp", "naptan:Street": "Bristol Street", "naptan:verified": "yes", "public_transport": "platform"}}, {"type": "node", "id": 10007462403, "lat": 51.5708106, "lon": -2.0979264, "tags": {"bench": "no", "bin": "no", "bus": "yes", "check_date": "2025-09-29", "check_date:tactile_paving": "2023-05-29", "highway": "bus_stop", "lit": "no", "name": "Home Farm", "naptan:AtcoCode": "4600WIA11210", "naptan:Bearing": "S", "naptan:BusStopType": "CUS", "naptan:CommonName": "Home Farm", "naptan:Indicator": "opp", "naptan:NaptanCode": "wilapadt", "naptan:Street": "Malmesbury Road", "naptan:verified": "yes", "public_transport": "platform", "shelter": "no", "tactile_paving": "no"}}, {"type": "node", "id": 11210902952, "lat": 51.5938961, "lon": -2.0887975, "tags": {"bench": "yes", "bin": "no", "bus": "yes", "check_date": "2025-09-29", "highway": "bus_stop", "lit": "yes", "name": "Aldi Roundabout", "naptan:AtcoCode": "460000471", "naptan:Bearing": "S", "naptan:CommonName": "Aldi Roundabout", "naptan:Indicator": "S-bound", "naptan:NaptanCode": "wilgamgt", "naptan:verified": "yes", "public_transport": "platform", "shelter": "yes", "source": "naptan;bing;naptan_compare_tool", "tactile_paving": "no"}}, {"type": "node", "id": 11210902953, "lat": 51.5970209, "lon": -2.0987031, "tags": {"bus": "yes", "check_date": "2025-09-29", "highway": "bus_stop", "name": "Filands", "naptan:AtcoCode": "460000312", "naptan:Bearing": "E", "naptan:CommonName": "Filands", "naptan:Indicator": "E-bound", "naptan:NaptanCode": "wiltwtmd", "naptan:verified": "yes", "public_transport": "platform"}}, {"type": "node", "id": 11210902955, "lat": 51.595851, "lon": -2.1038413, "tags": {"bus": "yes", "check_date": "2025-09-29", "highway": "bus_stop", "name": "Tetbury Hill", "naptan:AtcoCode": "4600WIY38425", "naptan:Bearing": "SE", "naptan:CommonName": "Tetbury Hill", "naptan:Indicator": "SE-bound", "naptan:NaptanCode": "wilamwgt", "naptan:Street": "Tetbury Hill", "naptan:verified": "yes", "public_transport": "platform"}}, {"type": "node", "id": 11210902956, "lat": 51.5888992, "lon": -2.101084, "tags": {"bus": "yes", "check_date": "2025-09-29", "highway": "bus_stop", "name": "Co-Op Supermarket", "naptan:AtcoCode": "4600WIA11238", "naptan:Bearing": "NE", "naptan:CommonName": "Co-Op Supermarket", "naptan:Indicator": "o/s", "naptan:NaptanCode": "wilamwpd", "naptan:Street": "Gloucester Road", "naptan:verified": "yes", "public_transport": "platform", "shelter": "no", "source": "mapilary;naptan;bing;naptan_compare_tool"}}, {"type": "node", "id": 11210902957, "lat": 51.5887646, "lon": -2.1033604, "tags": {"bus": "yes", "check_date": "2025-09-29", "highway": "bus_stop", "name": "Willow View Close", "naptan:AtcoCode": "4600WIA11236", "naptan:Bearing": "E", "naptan:CommonName": "Willow View Close", "naptan:Indicator": "opp", "naptan:NaptanCode": "wilamwjg", "naptan:Street": "Park Road", "naptan:verified": "yes", "public_transport": "platform", "shelter": "no", "source": "mapilary;naptan;bing;naptan_compare_tool"}}, {"type": "node", "id": 11210902958, "lat": 51.5889145, "lon": -2.1068129, "tags": {"bus": "yes", "check_date": "2025-09-29", "highway": "bus_stop", "name": "Alexander Mews", "naptan:AtcoCode": "4600WIA11234", "naptan:Bearing": "E", "naptan:CommonName": "Alexander Mews", "naptan:Indicator": "E-bound", "naptan:NaptanCode": "wilamwaw", "naptan:Street": "Park Road", "naptan:verified": "yes", "public_transport": "platform"}}, {"type": "node", "id": 11210902959, "lat": 51.5871685, "lon": -2.1105732, "tags": {"bus": "yes", "check_date": "2025-09-29", "highway": "bus_stop", "name": "Corn Gastons", "naptan:AtcoCode": "4600WIA11245", "naptan:Bearing": "NE", "naptan:CommonName": "Corn Gastons", "naptan:Indicator": "NE-bound", "naptan:NaptanCode": "wilamtgj", "naptan:Street": "Corn Gastons", "naptan:verified": "yes", "public_transport": "platform"}}, {"type": "node", "id": 11210902965, "lat": 51.5846299, "lon": -2.1074965, "tags": {"bus": "yes", "check_date": "2025-09-29", "highway": "bus_stop", "name": "Dark Lane", "naptan:AtcoCode": "4600WIA11220", "naptan:Bearing": "W", "naptan:BusStopType": "CUS", "naptan:CommonName": "Dark Lane", "naptan:Indicator": "W-bound", "naptan:NaptanCode": "wilamtwd", "naptan:Street": "Sherston Road", "naptan:verified": "yes", "public_transport": "platform"}}, {"type": "node", "id": 11210902967, "lat": 51.5852952, "lon": -2.1026266, "tags": {"bus": "yes", "check_date": "2025-09-29", "highway": "bus_stop", "name": "West Street", "naptan:AtcoCode": "4600WIA90887", "naptan:Bearing": "W", "naptan:BusStopType": "CUS", "naptan:CommonName": "West Street", "naptan:Indicator": "W-bound", "naptan:NaptanCode": "wildtwdt", "naptan:Street": "Bristol Street", "naptan:verified": "yes", "public_transport": "platform"}}, {"type": "node", "id": 11210902968, "lat": 51.57092, "lon": -2.0981068, "tags": {"bench": "no", "bin": "no", "bus": "yes", "check_date": "2025-09-29", "check_date:tactile_paving": "2023-05-29", "highway": "bus_stop", "lit": "no", "name": "Home Farm", "naptan:AtcoCode": "4600WIA11209", "naptan:Bearing": "N", "naptan:CommonName": "Home Farm", "naptan:Indicator": "o/s", "naptan:NaptanCode": "wilapadp", "naptan:Street": "Malmesbury Road", "naptan:verified": "yes", "public_transport": "platform", "shelter": "no", "tactile_paving": "no"}}, {"type": "node", "id": 11210903038, "lat": 51.5768845, "lon": -2.0868445, "tags": {"bus": "yes", "check_date": "2025-09-29", "highway": "bus_stop", "name": "Cowbridge Crescent", "naptan:AtcoCode": "4600WIA11251", "naptan:Bearing": "SE", "naptan:CommonName": "Cowbridge Crescent", "naptan:Indicator": "SE-bound", "naptan:NaptanCode": "wilapawt", "naptan:Street": "B4042", "naptan:verified": "yes", "public_transport": "platform", "source": "naptan;bing;naptan_compare_tool"}}, {"type": "node", "id": 11210903039, "lat": 51.5757399, "lon": -2.0835656, "tags": {"bus": "yes", "check_date": "2025-09-29", "highway": "bus_stop", "name": "Cowbridge Mill", "naptan:AtcoCode": "4600WIA11255", "naptan:Bearing": "SE", "naptan:CommonName": "Cowbridge Mill", "naptan:Indicator": "SE-bound", "naptan:NaptanCode": "wilapdga", "naptan:Street": "Malmesbury Road", "naptan:verified": "yes", "public_transport": "platform"}}, {"type": "node", "id": 11210903093, "lat": 51.5697817, "lon": -2.071148, "tags": {"bus": "yes", "check_date": "2025-09-29", "highway": "bus_stop", "name": "Lea Crescent", "naptan:AtcoCode": "4600WIA11257", "naptan:Bearing": "SE", "naptan:CommonName": "Lea Crescent", "naptan:Indicator": "SE-bound", "naptan:NaptanCode": "wilapgdm", "naptan:Street": "Malmesbury Road", "naptan:verified": "yes", "public_transport": "platform"}}, {"type": "node", "id": 11939613492, "lat": 51.5911392, "lon": -2.0879696, "tags": {"bus": "yes", "check_date": "2025-09-29", "departures_board": "no", "highway": "bus_stop", "name": "Milbourne Lane", "naptan:AtcoCode": "4600WIA12880", "naptan:Bearing": "W", "naptan:CommonName": "Milbourne Lane", "naptan:Indicator": "W-bound", "naptan:NaptanCode": "wilapawd", "naptan:Street": "Cricklade Road", "naptan:verified": "yes", "public_transport": "platform", "shelter": "yes"}}, {"type": "node", "id": 11939613493, "lat": 51.5912159, "lon": -2.0881058, "tags": {"bus": "yes", "check_date": "2025-09-29", "departures_board": "no", "highway": "bus_stop", "name": "Milbourne Lane", "naptan:AtcoCode": "4600WIA12881", "naptan:Bearing": "E", "naptan:CommonName": "Milbourne Lane", "naptan:Indicator": "E-bound", "naptan:NaptanCode": "wilapawa", "naptan:Street": "Cricklade Road", "naptan:verified": "yes", "public_transport": "platform", "shelter": "yes"}}, {"type": "node", "id": 12085897727, "lat": 51.5861287, "lon": -2.1133787, "tags": {"bus": "yes", "check_date": "2025-09-29", "highway": "bus_stop", "name": "Sherston Road", "naptan:AtcoCode": "4600WIA11221", "naptan:Bearing": "NW", "naptan:CommonName": "Sherston Road", "naptan:Indicator": "NW-bound", "naptan:NaptanCode": "wilamtda", "naptan:Street": "Sherston Road", "naptan:verified": "yes", "public_transport": "platform"}}, {"type": "node", "id": 12085897728, "lat": 51.5861418, "lon": -2.1131949, "tags": {"bus": "yes", "check_date": "2025-09-29", "highway": "bus_stop", "name": "Sherston Road", "naptan:AtcoCode": "460000178", "naptan:Bearing": "NW", "naptan:CommonName": "Sherston Road", "naptan:Indicator": "NW-bound", "naptan:NaptanCode": "wilamtdg", "naptan:Street": "Sherston Road", "naptan:verified": "yes", "public_transport": "platform", "shelter": "yes"}}, {"type": "node", "id": 12569724138, "lat": 51.588486, "lon": -2.0829982, "tags": {"bus": "yes", "check_date": "2025-09-29", "highway": "bus_stop", "name": "Milbourne Park", "naptan:AtcoCode": "4600WIA12884", "naptan:Bearing": "NW", "naptan:BusStopType": "CUS", "naptan:CommonName": "Milbourne Park", "naptan:Indicator": "NW-bound", "naptan:NaptanCode": "wilapdgt", "naptan:Street": "Milbourne Lane", "naptan:verified": "yes", "public_transport": "platform"}}, {"type": "node", "id": 12569724139, "lat": 51.588458, "lon": -2.0828075, "tags": {"bus": "yes", "check_date": "2025-09-29", "highway": "bus_stop", "name": "Milbourne Park", "naptan:AtcoCode": "4600WIA12885", "naptan:Bearing": "SE", "naptan:CommonName": "Milbourne Park", "naptan:Indicator": "SE-bound", "naptan:NaptanCode": "wilapdgw", "naptan:Street": "Milbourne Lane", "naptan:verified": "yes", "public_transport": "platform"}}, {"type": "node", "id": 12698463954, "lat": 51.5876886, "lon": -2.1057415, "tags": {"bus": "yes", "check_date": "2025-09-29", "highway": "bus_stop", "name": "Burnham House", "naptan:AtcoCode": "4600WIA11233", "naptan:Bearing": "W", "naptan:CommonName": "Burnham House", "naptan:Indicator": "W-bound", "naptan:NaptanCode": "wilamwdj", "naptan:Street": "Hodge Lane", "naptan:verified": "yes", "public_transport": "platform"}}, {"type": "node", "id": 13179908095, "lat": 51.5888696, "lon": -2.0777681, "tags": {"bus": "yes", "check_date": "2025-09-29", "highway": "bus_stop", "name": "Monks Park", "naptan:AtcoCode": "4600WIA12886", "naptan:Bearing": "W", "naptan:BusStopType": "MKD", "naptan:CommonName": "Monks Park", "naptan:Indicator": "W-bound", "naptan:NaptanCode": "wilapdwa", "naptan:Street": "Milbourne Lane", "naptan:verified": "yes", "public_transport": "platform"}}, {"type": "node", "id": 13179908096, "lat": 51.5889659, "lon": -2.0775563, "tags": {"bus": "yes", "check_date": "2025-09-29", "highway": "bus_stop", "name": "Monks Park", "naptan:AtcoCode": "4600WIA12887", "naptan:Bearing": "E", "naptan:BusStopType": "CUS", "naptan:CommonName": "Monks Park", "naptan:Indicator": "E-bound", "naptan:NaptanCode": "wilapdwg", "naptan:Street": "Milbourne Lane", "naptan:verified": "yes", "public_transport": "platform"}}, {"type": "node", "id": 13179908097, "lat": 51.5897857, "lon": -2.0696859, "tags": {"bus": "yes", "check_date": "2025-09-29", "highway": "bus_stop", "name": "Milbourne Lane", "naptan:AtcoCode": "460000526", "naptan:Bearing": "E", "naptan:BusStopType": "MKD", "naptan:CommonName": "Milbourne Lane", "naptan:Indicator": "E-bound", "naptan:NaptanCode": "wilgapjp", "naptan:verified": "yes", "public_transport": "platform"}}, {"type": "node", "id": 13179908098, "lat": 51.5897111, "lon": -2.0698537, "tags": {"bus": "yes", "check_date": "2025-09-29", "highway": "bus_stop", "name": "Milbourne Lane", "naptan:AtcoCode": "460000525", "naptan:Bearing": "W", "naptan:BusStopType": "MKD", "naptan:CommonName": "Milbourne Lane", "naptan:Indicator": "W-bound", "naptan:NaptanCode": "wilgapjm", "naptan:verified": "yes", "public_transport": "platform"}}, {"type": "node", "id": 13179911701, "lat": 51.5929036, "lon": -2.1012264, "tags": {"bus": "yes", "check_date": "2025-09-29", "highway": "bus_stop", "name": "William Stumpes Close", "naptan:AtcoCode": "4600WIA04442", "naptan:Bearing": "N", "naptan:CommonName": "William Stumpes Close", "naptan:Indicator": "N-bound", "naptan:NaptanCode": "wildwata", "naptan:Street": "Tetbury Hill", "naptan:verified": "yes", "public_transport": "platform"}}, {"type": "node", "id": 13179911702, "lat": 51.5829565, "lon": -2.0965566, "tags": {"bus": "yes", "check_date": "2025-09-29", "highway": "bus_stop", "name": "Cross Hayes", "naptan:AtcoCode": "4600WIA11217", "naptan:Bearing": "S", "naptan:CommonName": "Cross Hayes", "naptan:Indicator": "S-bound", "naptan:NaptanCode": "wilapama", "naptan:Street": "Cross Hayes Lane", "naptan:verified": "yes", "public_transport": "platform"}}, {"type": "node", "id": 13179911703, "lat": 51.5828587, "lon": -2.0978303, "tags": {"bus": "yes", "check_date": "2025-09-29", "highway": "bus_stop", "name": "High Street", "naptan:AtcoCode": "460000344", "naptan:Bearing": "N", "naptan:CommonName": "High Street", "naptan:Indicator": "N-bound", "naptan:NaptanCode": "wilgadpg", "naptan:verified": "yes", "public_transport": "platform"}}, {"type": "node", "id": 13179911704, "lat": 51.5857183, "lon": -2.1013022, "tags": {"bus": "yes", "check_date": "2025-09-29", "highway": "bus_stop", "name": "The Triangle", "naptan:AtcoCode": "4600WOZ03950", "naptan:Bearing": "NE", "naptan:CommonName": "The Triangle", "naptan:Indicator": "NE-bound", "naptan:NaptanCode": "wilamwmw", "naptan:Street": "Gloucester Road", "naptan:verified": "yes", "public_transport": "platform"}}, {"type": "node", "id": 13179911705, "lat": 51.5856316, "lon": -2.1012593, "tags": {"bus": "yes", "check_date": "2025-09-29", "highway": "bus_stop", "name": "The Triangle", "naptan:AtcoCode": "4600WOZ03951", "naptan:Bearing": "SW", "naptan:CommonName": "The Triangle", "naptan:Indicator": "SW-bound", "naptan:NaptanCode": "wilamwpa", "naptan:Street": "Gloucester Road", "naptan:verified": "yes", "public_transport": "platform"}}, {"type": "node", "id": 13179911706, "lat": 51.5882832, "lon": -2.109119, "tags": {"bus": "yes", "check_date": "2025-09-29", "highway": "bus_stop", "name": "Basevi Close", "naptan:AtcoCode": "4600WIA11229", "naptan:Bearing": "E", "naptan:CommonName": "Basevi Close", "naptan:Indicator": "E-bound", "naptan:NaptanCode": "wilamtpa", "naptan:Street": "Old Alexander Road", "naptan:verified": "yes", "public_transport": "platform"}}, {"type": "node", "id": 13179911707, "lat": 51.5883061, "lon": -2.1104608, "tags": {"bus": "yes", "check_date": "2025-09-29", "highway": "bus_stop", "name": "Newnton Grove", "naptan:AtcoCode": "4600WIA11228", "naptan:Bearing": "SW", "naptan:CommonName": "Newnton Grove", "naptan:Indicator": "SW-bound", "naptan:NaptanCode": "wilamtgp", "naptan:Street": "Parklands", "naptan:verified": "yes", "public_transport": "platform"}}, {"type": "node", "id": 13179911708, "lat": 51.5885687, "lon": -2.1131641, "tags": {"bus": "yes", "check_date": "2025-09-29", "highway": "bus_stop", "name": "Parklands", "naptan:AtcoCode": "4600WIA11227", "naptan:Bearing": "E", "naptan:CommonName": "Parklands", "naptan:Indicator": "E-bound", "naptan:NaptanCode": "wilamtdj", "naptan:Street": "Old Alexander Road", "naptan:verified": "yes", "public_transport": "platform"}}, {"type": "node", "id": 13179911709, "lat": 51.5882223, "lon": -2.1145193, "tags": {"bus": "yes", "check_date": "2025-09-29", "highway": "bus_stop", "name": "Parklands", "naptan:AtcoCode": "4600WIA11225", "naptan:Bearing": "N", "naptan:CommonName": "Parklands", "naptan:Indicator": "N-bound", "naptan:NaptanCode": "wilampwj", "naptan:Street": "Sherston Road", "naptan:verified": "yes", "public_transport": "platform"}}, {"type": "node", "id": 13179911710, "lat": 51.5875142, "lon": -2.1158387, "tags": {"bus": "yes", "check_date": "2025-09-29", "highway": "bus_stop", "name": "Parklands", "naptan:AtcoCode": "4600WIA11223", "naptan:Bearing": "SE", "naptan:CommonName": "Parklands", "naptan:Indicator": "SE-bound", "naptan:NaptanCode": "wilampwa", "naptan:Street": "B4060", "naptan:verified": "yes", "public_transport": "platform"}}, {"type": "node", "id": 13179911711, "lat": 51.5875192, "lon": -2.1159898, "tags": {"bus": "yes", "check_date": "2025-09-29", "highway": "bus_stop", "name": "Parklands", "naptan:AtcoCode": "4600WIA11224", "naptan:Bearing": "NW", "naptan:CommonName": "Parklands", "naptan:Indicator": "NW-bound", "naptan:NaptanCode": "wilamptw", "naptan:Street": "B4060", "naptan:verified": "yes", "public_transport": "platform"}}, {"type": "node", "id": 13179911712, "lat": 51.589662, "lon": -2.1001953, "tags": {"bus": "yes", "check_date": "2025-09-29", "highway": "bus_stop", "name": "Reeds Farm Road", "naptan:AtcoCode": "4600WIY38422", "naptan:Bearing": "SW", "naptan:CommonName": "Reeds Farm Road", "naptan:Indicator": "SW-bound", "naptan:NaptanCode": "wilamwtj", "naptan:Street": "Reeds Road Farm", "naptan:verified": "yes", "public_transport": "platform"}}, {"type": "node", "id": 13179911714, "lat": 51.5906196, "lon": -2.0993081, "tags": {"bus": "yes", "check_date": "2025-09-29", "highway": "bus_stop", "name": "Old Railway Close", "naptan:AtcoCode": "4600WIA11240", "naptan:Bearing": "N", "naptan:CommonName": "Old Railway Close", "naptan:Indicator": "N-bound", "naptan:NaptanCode": "wilamwtm", "naptan:Street": "Webbs Way", "naptan:verified": "yes", "public_transport": "platform"}}, {"type": "node", "id": 13179911715, "lat": 51.5905936, "lon": -2.099187, "tags": {"bus": "yes", "check_date": "2025-09-29", "highway": "bus_stop", "name": "Old Railway Close", "naptan:AtcoCode": "4600WIA11243", "naptan:Bearing": "S", "naptan:CommonName": "Old Railway Close", "naptan:Indicator": "S-bound", "naptan:NaptanCode": "wilamwtp", "naptan:Street": "Webbs Way", "naptan:verified": "yes", "public_transport": "platform"}}, {"type": "node", "id": 13179911717, "lat": 51.5927526, "lon": -2.0988897, "tags": {"bus": "yes", "check_date": "2025-09-29", "highway": "bus_stop", "name": "John Betjeman Close", "naptan:AtcoCode": "4600WIA11241", "naptan:Bearing": "N", "naptan:CommonName": "John Betjeman Close", "naptan:Indicator": "N-bound", "naptan:NaptanCode": "wilapada", "naptan:Street": "Michael Pyms Road", "naptan:verified": "yes", "public_transport": "platform"}}, {"type": "node", "id": 13179911718, "lat": 51.5929386, "lon": -2.0971928, "tags": {"bus": "yes", "check_date": "2025-09-29", "highway": "bus_stop", "name": "Webbs Way", "naptan:AtcoCode": "4600WIA11242", "naptan:Bearing": "SW", "naptan:CommonName": "Webbs Way", "naptan:Indicator": "SW-bound", "naptan:NaptanCode": "wilapajg", "naptan:Street": "Webbs Way", "naptan:verified": "yes", "public_transport": "platform"}}, {"type": "node", "id": 13179911719, "lat": 51.5900265, "lon": -2.1260471, "tags": {"bus": "yes", "check_date": "2025-09-29", "highway": "bus_stop", "name": "Twatley Cottages", "naptan:AtcoCode": "4600WIA11753", "naptan:Bearing": "E", "naptan:CommonName": "Twatley Cottages", "naptan:Indicator": "E-bound", "naptan:NaptanCode": "wilamjda", "naptan:Street": "Parklands", "naptan:verified": "yes", "public_transport": "platform"}}, {"type": "node", "id": 13179911720, "lat": 51.5899969, "lon": -2.1262776, "tags": {"bus": "yes", "check_date": "2025-09-29", "highway": "bus_stop", "name": "Twatley Cottages", "naptan:AtcoCode": "4600WIA11752", "naptan:Bearing": "E", "naptan:CommonName": "Twatley Cottages", "naptan:Indicator": "E-bound", "naptan:NaptanCode": "wilamjat", "naptan:Street": "Sherston Road", "naptan:verified": "yes", "public_transport": "platform"}}, {"type": "node", "id": 13179911723, "lat": 51.5857201, "lon": -2.0934249, "tags": {"bus": "yes", "check_date": "2025-09-29", "highway": "bus_stop", "name": "Duke of York", "naptan:AtcoCode": "4600WIA11248", "naptan:Bearing": "S", "naptan:CommonName": "Duke of York", "naptan:Indicator": "S-bound", "naptan:NaptanCode": "wilapata", "naptan:verified": "yes", "public_transport": "platform"}}, {"type": "node", "id": 13179911724, "lat": 51.5858324, "lon": -2.0935333, "tags": {"bus": "yes", "check_date": "2025-09-29", "highway": "bus_stop", "name": "Duke of York", "naptan:AtcoCode": "4600WIA11247", "naptan:Bearing": "N", "naptan:CommonName": "Duke of York", "naptan:Indicator": "N-bound", "naptan:NaptanCode": "wilapapw", "naptan:Street": "Holloway", "naptan:verified": "yes", "public_transport": "platform"}}, {"type": "node", "id": 13179911725, "lat": 51.5961511, "lon": -2.1030313, "tags": {"bus": "yes", "check_date": "2025-09-29", "highway": "bus_stop", "name": "Avenue De Gien", "naptan:AtcoCode": "4600WIA11757", "naptan:Bearing": "NW", "naptan:CommonName": "Avenue De Gien", "naptan:Indicator": "NW-bound", "naptan:NaptanCode": "wilamwgd", "naptan:Street": "Avenue De Gien", "naptan:verified": "yes", "public_transport": "platform"}}, {"type": "node", "id": 13179911726, "lat": 51.5869251, "lon": -2.1071088, "tags": {"bus": "yes", "check_date": "2025-09-29", "highway": "bus_stop", "name": "Bremilham Road", "naptan:AtcoCode": "4600WIA11232", "naptan:Bearing": "E", "naptan:CommonName": "Bremilham Road", "naptan:Indicator": "E-bound", "naptan:NaptanCode": "wilamtwg", "naptan:Street": "Pool Gastons Road", "naptan:verified": "yes", "public_transport": "platform"}}, {"type": "node", "id": 13179911727, "lat": 51.5805905, "lon": -2.1134674, "tags": {"bus": "yes", "check_date": "2025-09-29", "highway": "bus_stop", "name": "Haddens Close", "naptan:AtcoCode": "4600WIY38421", "naptan:Bearing": "NE", "naptan:CommonName": "Haddens Close", "naptan:Indicator": "NE-bound", "naptan:NaptanCode": "wilamtat", "naptan:Street": "Haddens Close", "naptan:verified": "yes", "public_transport": "platform"}}, {"type": "node", "id": 13179911731, "lat": 51.5776032, "lon": -2.0947041, "tags": {"bus": "yes", "check_date": "2025-09-29", "highway": "bus_stop", "name": "Healthcare Centre", "naptan:AtcoCode": "460000201", "naptan:Bearing": "E", "naptan:CommonName": "Healthcare Centre", "naptan:Indicator": "E-bound", "naptan:NaptanCode": "wildwmwm", "naptan:verified": "yes", "public_transport": "platform"}}, {"type": "node", "id": 13179911732, "lat": 51.5781587, "lon": -2.0967657, "tags": {"bus": "yes", "check_date": "2025-09-29", "highway": "bus_stop", "name": "Orchard Court", "naptan:AtcoCode": "4600WIY38423", "naptan:Bearing": "W", "naptan:CommonName": "Orchard Court", "naptan:Indicator": "W-bound", "naptan:NaptanCode": "wilapajt", "naptan:Street": "Arches Lane", "naptan:verified": "yes", "public_transport": "platform"}}]}