{"version": 0.6, "generator": "Overpass API 0.7.62.10 2d4cfc48", "osm3s": {"timestamp_osm_base": "2026-03-01T06:19:06Z", "copyright": "The data included in this document is from www.openstreetmap.org. The data is made available under ODbL."}, "elements": [{"type": "node", "id": 1200009100, "lat": 51.339494, "lon": 1.4285483}, {"type": "node", "id": 1200009681, "lat": 51.3396721, "lon": 1.4285254}, {"type": "node", "id": 1200010074, "lat": 51.3395595, "lon": 1.4283989}, {"type": "node", "id": 1200011322, "lat": 51.3396066, "lon": 1.4286748}, {"type": "node", "id": 2829173188, "lat": 51.3336264, "lon": 1.4199409}, {"type": "node", "id": 2829173189, "lat": 51.3335412, "lon": 1.42013}, {"type": "node", "id": 2829218562, "lat": 51.3337749, "lon": 1.419776}, {"type": "node", "id": 2829218563, "lat": 51.3337212, "lon": 1.419853}, {"type": "node", "id": 2829221667, "lat": 51.3339243, "lon": 1.4194885}, {"type": "node", "id": 2829221668, "lat": 51.333873, "lon": 1.4193912}, {"type": "node", "id": 2829282308, "lat": 51.333687, "lon": 1.4200152}, {"type": "node", "id": 2829282311, "lat": 51.3336084, "lon": 1.4202017}, {"type": "node", "id": 5275952555, "lat": 51.3338381, "lon": 1.4199691}, {"type": "node", "id": 5275952556, "lat": 51.334024, "lon": 1.4196715}, {"type": "node", "id": 5275952557, "lat": 51.333784, "lon": 1.4196835}, {"type": "node", "id": 5275952558, "lat": 51.3337271, "lon": 1.4195766}, {"type": "node", "id": 5275952559, "lat": 51.3337476, "lon": 1.4197336}, {"type": "node", "id": 7510565743, "lat": 51.3375227, "lon": 1.4140975, "tags": {"addr:city": "Ramsgate", "addr:country": "GB", "addr:housenumber": "161", "addr:postcode": "CT11 9TT", "addr:street": "High Street", "amenity": "pharmacy", "brand": "Asda", "brand:wikidata": "Q297410", "brand:wikipedia": "en:Asda", "check_date": "2024-08-18", "contact:phone": "+44 1843 257800", "contact:website": "https://storelocator.asda.com/south-east/ramsgate/161-high-street/pharmacy", "drive_through": "no", "healthcare": "pharmacy", "name": "Asda", "operator": "Asda Stores Ltd"}}, {"type": "node", "id": 8232025131, "lat": 51.3402729, "lon": 1.3890418, "tags": {"addr:city": "Ramsgate", "addr:country": "GB", "addr:county": "Kent", "addr:district": "Thanet", "addr:postcode": "CT12 6NT", "addr:street": "Manston Road", "amenity": "pharmacy", "brand": "Tesco", "brand:wikidata": "Q487494", "dispensing": "yes", "drive_through": "no", "healthcare": "pharmacy", "name": "Tesco Pharmacy", "opening_hours": "Mo 08:00-22:30; Tu-Fr 06:30-22:30; Sa 06:30-22:00; Su 10:00-16:00", "operator": "Tesco", "phone": "+44 20 3426 8736", "wheelchair": "yes"}}, {"type": "node", "id": 12481089832, "lat": 51.3365803, "lon": 1.4051441, "tags": {"amenity": "pharmacy", "healthcare": "pharmacy", "name": "Courts Pharmacy"}}, {"type": "way", "id": 103966053, "nodes": [1200009681, 1200011322, 1200009100, 1200010074, 1200009681], "tags": {"amenity": "pharmacy", "brand": "Paydens", "brand:wikidata": "Q122829194", "building": "yes", "drive_through": "no", "healthcare": "pharmacy", "name": "Paydens Pharmacy", "ref:GB:uprn": "10022962159", "source": "Bing"}}, {"type": "way", "id": 545908689, "nodes": [5275952558, 5275952557, 5275952559, 2829218562, 2829218563, 5275952555, 5275952556, 2829221667, 2829221668, 5275952558], "tags": {"addr:city": "Ramsgate", "addr:housenumber": "7-13", "addr:postcode": "CT11 9AB", "addr:street": "High Street", "amenity": "pharmacy", "brand": "Boots", "brand:wikidata": "Q6123139", "brand:wikipedia": "en:Boots (company)", "building": "retail", "building:levels": "3", "dispensing": "yes", "drive_through": "no", "fhrs:id": "608242", "healthcare": "pharmacy", "name": "Boots", "note": "Added hours for December2020-January 2021 Holiday Period", "opening_hours": "Mo-Sa 09:00-17:30; Su 10:00-16:00; Dec 25,Jan 01 off; Dec 28 10:00-16:00", "phone": "+441843591864", "ref:GB:uprn": "100062283740", "roof:levels": "0", "source:addr": "FHRS Open Data", "source:opening_hours": "https://www.boots.com/stores/990-ramsgate-high-street-ct11-9ab", "website": "https://www.boots.com/stores/990-ramsgate-high-street-ct11-9ab", "wheelchair": "yes"}}, {"type": "way", "id": 545908691, "nodes": [2829173188, 2829282308, 2829282311, 2829173189, 2829173188], "tags": {"addr:city": "Ramsgate", "addr:housenumber": "3-5", "addr:postcode": "CT11 8NN", "addr:street": "King Street", "amenity": "pharmacy", "building": "yes", "dispensing": "yes", "drive_through": "no", "fax": "+441843 580717", "healthcare": "pharmacy", "name": "Courts Pharmacy", "opening_hours": "Mo-Fr 09:00-17:30; Sa 09:00-13:00", "phone": "+441843 580351", "wheelchair": "yes"}}]}