{"version": 0.6, "generator": "Overpass API 0.7.62.10 2d4cfc48", "osm3s": {"timestamp_osm_base": "2026-03-01T06:00:45Z", "copyright": "The data included in this document is from www.openstreetmap.org. The data is made available under ODbL."}, "elements": [{"type": "node", "id": 3901342222, "lat": 50.8382531, "lon": 0.4727782}, {"type": "node", "id": 3901342224, "lat": 50.8382683, "lon": 0.4729442}, {"type": "node", "id": 3901342230, "lat": 50.8383892, "lon": 0.472747}, {"type": "node", "id": 3901342233, "lat": 50.8384043, "lon": 0.4729129}, {"type": "node", "id": 3912812298, "lat": 50.8389539, "lon": 0.4773595}, {"type": "node", "id": 3912812299, "lat": 50.8389721, "lon": 0.4771299}, {"type": "node", "id": 3912812304, "lat": 50.8391026, "lon": 0.4773891}, {"type": "node", "id": 3912812305, "lat": 50.8391208, "lon": 0.4771595}, {"type": "node", "id": 3953956940, "lat": 50.8400516, "lon": 0.462776}, {"type": "node", "id": 3953956941, "lat": 50.8400697, "lon": 0.4629192}, {"type": "node", "id": 3953956944, "lat": 50.8401712, "lon": 0.462887}, {"type": "node", "id": 3953956945, "lat": 50.8401826, "lon": 0.4629772}, {"type": "node", "id": 3953956953, "lat": 50.8402301, "lon": 0.4627194}, {"type": "node", "id": 3953956956, "lat": 50.8402411, "lon": 0.4628064}, {"type": "node", "id": 3953964162, "lat": 50.8402617, "lon": 0.4627999}, {"type": "node", "id": 3953964163, "lat": 50.8402674, "lon": 0.4628452}, {"type": "node", "id": 3953964166, "lat": 50.8402785, "lon": 0.4628417}, {"type": "node", "id": 3953964167, "lat": 50.8402913, "lon": 0.4629428}, {"type": "node", "id": 3970965686, "lat": 50.8458337, "lon": 0.4801493}, {"type": "node", "id": 3970965690, "lat": 50.8458516, "lon": 0.480007}, {"type": "node", "id": 3970965728, "lat": 50.8460535, "lon": 0.4802186}, {"type": "node", "id": 3970965732, "lat": 50.8460714, "lon": 0.4800763}, {"type": "node", "id": 4049305817, "lat": 50.8572992, "lon": 0.4663376}, {"type": "node", "id": 4049305830, "lat": 50.8574022, "lon": 0.4658197}, {"type": "node", "id": 4049305837, "lat": 50.857445, "lon": 0.4664104}, {"type": "node", "id": 4049305839, "lat": 50.8574554, "lon": 0.4664156}, {"type": "node", "id": 4049305842, "lat": 50.8574982, "lon": 0.4662004}, {"type": "node", "id": 4049305843, "lat": 50.8575276, "lon": 0.4662151}, {"type": "node", "id": 4049305846, "lat": 50.8575879, "lon": 0.4659124}, {"type": "node", "id": 6270065506, "lat": 50.8459622, "lon": 0.4800419, "tags": {"access": "yes", "entrance": "main", "wheelchair": "yes"}}, {"type": "node", "id": 6270065525, "lat": 50.8402351, "lon": 0.462759, "tags": {"access": "yes", "entrance": "main", "wheelchair": "yes"}}, {"type": "node", "id": 6270065530, "lat": 50.8391091, "lon": 0.4771572, "tags": {"access": "yes", "entrance": "main", "wheelchair": "yes"}}, {"type": "node", "id": 8821291005, "lat": 50.8391152, "lon": 0.4772298, "tags": {"addr:city": "Bexhill-on-Sea", "addr:flats": "Flat", "addr:housenumber": "39", "addr:street": "Sea Road", "entrance": "home"}}, {"type": "way", "id": 386787429, "nodes": [3901342230, 3901342233, 3901342224, 3901342222, 3901342230], "tags": {"addr:city": "Bexhill-on-Sea", "addr:housenumber": "24", "addr:postcode": "TN40 1DG", "addr:street": "Albert Road", "amenity": "doctors", "building": "yes", "building:levels": "3", "contact:phone": "+44 1424 230025", "contact:website": "https://www.sidleymedicalpractice.nhs.uk", "healthcare": "doctor", "name": "Albert Road Surgery", "opening_hours": "Mo-Fr 08:00-13:00, 14:00-18:00", "operator": "Sidley Medical Practice", "ref:GB:nhs_ods": "G81041001", "ref:GB:uprn": "10002663385;10002649671;100062586326;100062586841", "wheelchair": "yes"}}, {"type": "way", "id": 388081076, "nodes": [3912812298, 3912812299, 6270065530, 3912812305, 8821291005, 3912812304, 3912812298], "tags": {"addr:city": "Bexhill-on-Sea", "addr:housenumber": "39-43", "addr:postcode": "TN40 1JJ", "addr:street": "Sea Road", "amenity": "doctors", "building": "civic", "building:levels": "3", "contact:email": "hrccg.pebsham@nhs.net", "contact:phone": "+44 1424 230399", "contact:website": "http://www.searoadsurgery.co.uk/", "healthcare": "doctor", "name": "Sea Road Surgery", "opening_hours": "Mo-Fr 08:20-13:00, 14:00-17:30", "ref:GB:nhs_ods": "T1Q9T", "ref:GB:uprn": "10090180721;100062588802;100062588814;10002665036;100061936550", "wheelchair": "yes"}}, {"type": "way", "id": 392131248, "nodes": [3953956941, 3953956940, 3953956953, 6270065525, 3953956956, 3953964162, 3953964163, 3953964166, 3953964167, 3953956945, 3953956944, 3953956941], "tags": {"addr:city": "Bexhill-on-Sea", "addr:housenumber": "23", "addr:postcode": "TN39 3LR", "addr:street": "Terminus Road", "amenity": "doctors", "building": "house", "building:levels": "2", "contact:phone": "+44 1424 217465", "contact:website": "http://www.collingtonsurgery.com/", "healthcare": "doctor", "name": "Collington Surgery", "opening_hours": "Mo-Fr 08:30-13:00, 14:00-18:00; Sa 08:30-11:30", "ref:GB:nhs_ods": "G81077", "ref:GB:uprn": "100062686109;100062582292;100062582293;10002661439", "wheelchair": "yes"}}, {"type": "way", "id": 394056299, "nodes": [3970965732, 3970965728, 3970965686, 3970965690, 6270065506, 3970965732], "tags": {"addr:city": "Bexhill-on-Sea", "addr:housenumber": "13", "addr:postcode": "TN40 2HG", "addr:street": "De La Warr Road", "amenity": "doctors", "building": "civic", "building:levels": "2", "contact:email": "HRCCG.OldTownSurgery@nhs.net", "contact:facebook": "https://m.facebook.com/LCOTPPG/", "contact:phone": "+44 1424 739420", "contact:website": "http://www.oldtownsurgery.org.uk", "healthcare": "doctor", "name": "Old Town Surgery", "opening_hours": "Mo-Fr 08:30-13:00, 14:00-18:30", "ref:GB:nhs_ods": "G81039001", "ref:GB:uprn": "10002656908", "wheelchair": "yes"}}, {"type": "way", "id": 402535563, "nodes": [4049305843, 4049305842, 4049305839, 4049305837, 4049305817, 4049305830, 4049305846, 4049305843], "tags": {"addr:city": "Bexhill-on-Sea", "addr:housenumber": "44", "addr:postcode": "TN39 5HE", "addr:street": "Turkey Road", "amenity": "doctors", "building": "civic", "building:levels": "2", "contact:phone": "+44 1424 230025", "contact:website": "https://www.sidleymedicalpractice.nhs.uk", "healthcare": "doctor", "name": "Sidley Surgery", "opening_hours": "Mo-Fr 08:00-13:00, 14:00-18:00", "operator": "Sidley Medical Practice", "ref:GB:nhs_ods": "G81041", "wheelchair": "yes"}}]}