{"version": 0.6, "generator": "Overpass API 0.7.62.10 2d4cfc48", "osm3s": {"timestamp_osm_base": "2026-03-01T06:04:44Z", "copyright": "The data included in this document is from www.openstreetmap.org. The data is made available under ODbL."}, "elements": [{"type": "node", "id": 2715769930, "lat": 51.4523747, "lon": -2.1338279}, {"type": "node", "id": 2715769987, "lat": 51.4523613, "lon": -2.1336455}, {"type": "node", "id": 2715770053, "lat": 51.452134, "lon": -2.1336724}, {"type": "node", "id": 2715770178, "lat": 51.4521474, "lon": -2.1338601}, {"type": "node", "id": 5369164495, "lat": 51.4625371, "lon": -2.1232753}, {"type": "node", "id": 5369164496, "lat": 51.4625421, "lon": -2.1234369}, {"type": "node", "id": 5369164497, "lat": 51.4625789, "lon": -2.123434}, {"type": "node", "id": 5369164498, "lat": 51.4625882, "lon": -2.1237384}, {"type": "node", "id": 5369164499, "lat": 51.4626898, "lon": -2.1237304}, {"type": "node", "id": 5369164500, "lat": 51.462696, "lon": -2.1239329}, {"type": "node", "id": 5369164501, "lat": 51.4623359, "lon": -2.1239614}, {"type": "node", "id": 5369164502, "lat": 51.4623154, "lon": -2.1232928}, {"type": "node", "id": 7502014603, "lat": 51.4501817, "lon": -2.1011379}, {"type": "node", "id": 7502014604, "lat": 51.4501366, "lon": -2.1009366}, {"type": "node", "id": 7502014605, "lat": 51.4499374, "lon": -2.1010515}, {"type": "node", "id": 7502014606, "lat": 51.4499825, "lon": -2.1012528}, {"type": "node", "id": 8888478633, "lat": 51.4624328, "lon": -2.1172617}, {"type": "node", "id": 8888478634, "lat": 51.4624248, "lon": -2.1171364}, {"type": "node", "id": 8888478635, "lat": 51.4623147, "lon": -2.1171206}, {"type": "node", "id": 8888478636, "lat": 51.4623129, "lon": -2.1172514}, {"type": "node", "id": 9581846871, "lat": 51.462427, "lon": -2.123284}, {"type": "node", "id": 9885388536, "lat": 51.4625281, "lon": -2.123276}, {"type": "node", "id": 11160786504, "lat": 51.463275, "lon": -2.1157084, "tags": {"addr:city": "Chippenham", "addr:housename": "Hathaway Retail Park", "addr:postcode": "SN15 1JG", "addr:street": "Foundry Lane", "addr:unit": "Unit 3B", "brand": "PureGym", "brand:wikidata": "Q18345898", "email": "info.chippenham@puregym.com", "leisure": "fitness_centre", "name": "PureGym", "opening_hours": "24/7", "phone": "+44 344 477 0005", "website": "https://www.puregym.com/gyms/chippenham/"}}, {"type": "way", "id": 265977095, "nodes": [2715770053, 2715770178, 2715769930, 2715769987, 2715770053], "tags": {"addr:housenumber": "Unit 12", "addr:postcode": "SN14 0AB", "addr:street": "Bath Road", "branch": "Chippenham (SW1)", "brand": "CrossFit", "brand:wikidata": "Q2072840", "building": "yes", "email": "info@crossfitchippenham.co.uk", "leisure": "fitness_centre", "name": "CrossFit", "opening_hours": "Mo-Th 06:00-20:30; Fr 06:00-19:30; Sa-Su 09:00-12:00", "website": "https://www.crossfitchippenham.co.uk/"}}, {"type": "way", "id": 556600635, "nodes": [5369164495, 5369164496, 5369164497, 5369164498, 5369164499, 5369164500, 5369164501, 5369164502, 9581846871, 9885388536, 5369164495], "tags": {"brand": "Snap Fitness", "brand:wikidata": "Q7547254", "brand:wikipedia": "en:Snap Fitness", "building": "yes", "leisure": "fitness_centre", "name": "Snap Fitness"}}, {"type": "way", "id": 802036880, "nodes": [7502014603, 7502014604, 7502014605, 7502014606, 7502014603], "tags": {"addr:city": "Chippenham", "addr:housename": "Industrial Park", "addr:housenumber": "4", "addr:postcode": "SN15 3EQ", "addr:street": "Cricketts Lane", "building": "yes", "leisure": "fitness_centre", "name": "Spartans Gym", "website": "https://www.spartans-gym.co.uk/"}}, {"type": "way", "id": 960831946, "nodes": [8888478633, 8888478634, 8888478635, 8888478636, 8888478633], "tags": {"addr:city": "Chippenham", "addr:housenumber": "3A", "addr:postcode": "SN15 1HW", "addr:street": "Union Road", "building": "yes", "leisure": "fitness_centre", "name": "Inspire Fitness", "phone": "+44 1249 463002", "sport": "fitness", "website": "https://www.inspirechippenham.com/"}}]}