{"version": 0.6, "generator": "Overpass API 0.7.62.10 2d4cfc48", "osm3s": {"timestamp_osm_base": "2026-02-26T10:55:34Z", "copyright": "The data included in this document is from www.openstreetmap.org. The data is made available under ODbL."}, "elements": [{"type": "node", "id": 1273289143, "lat": 51.7616209, "lon": -1.2681691}, {"type": "node", "id": 1273289358, "lat": 51.7615333, "lon": -1.2683217}, {"type": "node", "id": 1273289606, "lat": 51.761588, "lon": -1.2684037}, {"type": "node", "id": 1273289661, "lat": 51.7616632, "lon": -1.2682728}, {"type": "node", "id": 1273289990, "lat": 51.7616406, "lon": -1.2682389}, {"type": "node", "id": 1273290111, "lat": 51.761653, "lon": -1.2682172}, {"type": "node", "id": 1289155108, "lat": 51.7452828, "lon": -1.2427432}, {"type": "node", "id": 1289155110, "lat": 51.7453797, "lon": -1.2428478}, {"type": "node", "id": 1289155113, "lat": 51.7451728, "lon": -1.2434131}, {"type": "node", "id": 1289155114, "lat": 51.7450686, "lon": -1.2434537}, {"type": "node", "id": 1289197685, "lat": 51.7587864, "lon": -1.2612436}, {"type": "node", "id": 1289197861, "lat": 51.7588377, "lon": -1.2612877}, {"type": "node", "id": 1709283791, "lat": 51.7477746, "lon": -1.2351484}, {"type": "node", "id": 1709283796, "lat": 51.7477994, "lon": -1.235273}, {"type": "node", "id": 1709283798, "lat": 51.7478103, "lon": -1.2352646}, {"type": "node", "id": 1709283805, "lat": 51.7476608, "lon": -1.2352398}, {"type": "node", "id": 2140734557, "lat": 51.7457199, "lon": -1.2445234}, {"type": "node", "id": 2140752284, "lat": 51.7454883, "lon": -1.2444749}, {"type": "node", "id": 2140752289, "lat": 51.7451915, "lon": -1.2441765}, {"type": "node", "id": 2140760132, "lat": 51.7455685, "lon": -1.2446678}, {"type": "node", "id": 2140760135, "lat": 51.7455997, "lon": -1.244587}, {"type": "node", "id": 2140770381, "lat": 51.7456375, "lon": -1.2447372}, {"type": "node", "id": 2140784801, "lat": 51.7450743, "lon": -1.2441979}, {"type": "node", "id": 2140784803, "lat": 51.7451528, "lon": -1.2442768}, {"type": "node", "id": 2140784806, "lat": 51.7450914, "lon": -1.2441535}, {"type": "node", "id": 2140784838, "lat": 51.7451878, "lon": -1.243405}, {"type": "node", "id": 2140784840, "lat": 51.7451293, "lon": -1.2440553}, {"type": "node", "id": 2140784863, "lat": 51.745164, "lon": -1.2439653}, {"type": "node", "id": 2212917352, "lat": 51.7476968, "lon": -1.235356}, {"type": "node", "id": 3084771848, "lat": 51.7450283, "lon": -1.2434173}, {"type": "node", "id": 3084771853, "lat": 51.7451104, "lon": -1.2433505}, {"type": "node", "id": 3106638248, "lat": 51.7456691, "lon": -1.244655}, {"type": "node", "id": 3613547150, "lat": 51.758755, "lon": -1.261354}, {"type": "node", "id": 3613547151, "lat": 51.7588597, "lon": -1.2614469}, {"type": "node", "id": 3613547152, "lat": 51.7589306, "lon": -1.2613689}, {"type": "node", "id": 3613547153, "lat": 51.7589034, "lon": -1.2614936}, {"type": "node", "id": 3845360254, "lat": 51.7499897, "lon": -1.2595131, "tags": {"addr:city": "Oxford", "addr:street": "St Ebbes Street", "brand": "PureGym", "brand:wikidata": "Q18345898", "leisure": "fitness_centre", "level": "0,-1", "name": "PureGym"}}, {"type": "node", "id": 7182922319, "lat": 51.7507163, "lon": -1.2607586, "tags": {"brand": "Buzz Gym", "brand:wikidata": "Q117834439", "leisure": "fitness_centre", "level": "2", "level:ref": "2", "name": "Buzz Gym", "opening_hours": "24/7"}}, {"type": "node", "id": 7945881741, "lat": 51.7452093, "lon": -1.2433617}, {"type": "node", "id": 7945881742, "lat": 51.7450942, "lon": -1.2432431}, {"type": "node", "id": 8594721902, "lat": 51.745734, "lon": -1.2444867}, {"type": "node", "id": 8594721903, "lat": 51.7457095, "lon": -1.244462}, {"type": "node", "id": 8594721904, "lat": 51.7457251, "lon": -1.2444214}, {"type": "node", "id": 8594721905, "lat": 51.7456219, "lon": -1.2443175}, {"type": "node", "id": 8594721906, "lat": 51.7455917, "lon": -1.2443958}, {"type": "node", "id": 10156810823, "lat": 51.7512456, "lon": -1.2726947, "tags": {"addr:city": "Oxford", "addr:housenumber": "16", "addr:postcode": "OX2 0AU", "addr:street": "East Street", "architect": "Adrian James Architects", "leisure": "fitness_centre", "name": "Vishuddha Yoga Centre", "sport": "yoga", "website": "https://www.vishuddhayoga.org/"}}, {"type": "node", "id": 10677753805, "lat": 51.74261, "lon": -1.2314371, "tags": {"addr:street": "Hertford Street", "email": "yogitoby@gmail.com", "leisure": "fitness_centre", "name": "Iyengar Yoga Oxford", "opening_hours": "Su, Tu 18:15-19:45; Mo 13:15-14:45; Th 11:15-12:45", "phone": "+44 7800 925111", "website": "https://iyengaryogaoxford.co.uk/"}}, {"type": "node", "id": 11584761276, "lat": 51.7645715, "lon": -1.2617811, "tags": {"leisure": "fitness_centre", "name": "Experience Light", "sport": "yoga", "website": "https://experiencelight.co.uk"}}, {"type": "node", "id": 11629661107, "lat": 51.7416507, "lon": -1.2361093, "tags": {"addr:city": "Oxford", "addr:housenumber": "9", "addr:postcode": "OX4 1RE", "addr:street": "Magdalen Road", "addr:unit": "9", "contact:instagram": "theprojectpt", "leisure": "fitness_centre", "lgbtq": "welcome", "name": "Magdalen Road Gym", "operator": "Project PT", "personal_trainer": "yes", "sauna": "no", "sport": "fitness", "swimming_pool": "no", "website": "https://www.theprojectpt.com/", "wheelchair": "no"}}, {"type": "node", "id": 11741715073, "lat": 51.7416178, "lon": -1.2361919, "tags": {"addr:unit": "9A", "leisure": "fitness_centre", "name": "Every Body Studio", "sport": "yoga", "website": "https://www.everybodystudio.co.uk/"}}, {"type": "node", "id": 12077033776, "lat": 51.7597676, "lon": -1.2664856}, {"type": "node", "id": 12077033777, "lat": 51.75984, "lon": -1.2663482}, {"type": "node", "id": 12077033779, "lat": 51.7597288, "lon": -1.2664322}, {"type": "node", "id": 12077033780, "lat": 51.759819, "lon": -1.2662584}, {"type": "node", "id": 12077033781, "lat": 51.7598584, "lon": -1.2663133}, {"type": "way", "id": 111835020, "nodes": [1273290111, 1273289143, 1273289358, 1273289606, 1273289661, 1273289990, 1273290111], "tags": {"addr:city": "Oxford", "addr:housenumber": "85", "addr:postcode": "OX2 6EA", "addr:street": "Walton Street", "building": "retail", "check_date": "2023-07-30", "leisure": "fitness_centre", "name": "Prana Yoga Oxford", "ref:GB:uprn": "10095730402;100120841648;100120841647;100121296045;10095730403", "source": "survey", "source:geometry": "Bing", "sport": "yoga"}}, {"type": "way", "id": 113715837, "nodes": [1289155108, 7945881742, 3084771848, 1289155114, 3084771853, 1289155113, 2140784838, 7945881741, 1289155110, 1289155108], "tags": {"building": "yes", "leisure": "fitness_centre", "name": "Rowing Tank", "sport": "rowing"}}, {"type": "way", "id": 211269544, "nodes": [1709283805, 1709283791, 1709283798, 1709283796, 2212917352, 1709283805], "tags": {"addr:city": "Oxford", "addr:housenumber": "2", "addr:postcode": "OX4 1YF", "addr:street": "Avenue Lane", "building": "yes", "building:levels": "2", "leisure": "fitness_centre", "name": "Yoga Venue", "ref:GB:uprn": "10095729134;10095729133;100121299469", "roof:shape": "gabled", "sport": "yoga", "website": "http://www.yogavenue.co.uk/"}}, {"type": "way", "id": 303419009, "nodes": [2140784803, 2140752289, 2140752284, 2140760135, 2140760132, 2140770381, 3106638248, 2140734557, 8594721902, 8594721903, 8594721904, 8594721905, 8594721906, 2140784863, 2140784840, 2140784806, 2140784801, 2140784803], "tags": {"building": "yes", "leisure": "fitness_centre", "sport": "dojo;climbing;weights"}}, {"type": "way", "id": 355813194, "nodes": [3613547150, 1289197685, 1289197861, 3613547152, 3613547153, 3613547151, 3613547150], "tags": {"addr:city": "Oxford", "addr:housenumber": "1-2", "addr:postcode": "OX1 2HP", "addr:street": "Little Clarendon Street", "building": "yes", "leisure": "fitness_centre", "name": "PTOX", "personal_trainer": "yes", "ref:GB:uprn": "100120826704", "sport": "pilates"}}, {"type": "way", "id": 1304095554, "nodes": [12077033776, 12077033779, 12077033780, 12077033781, 12077033777, 12077033776], "tags": {"addr:city": "Oxford", "addr:housenumber": "6", "addr:postcode": "OX2 6DF", "addr:street": "King Street", "building": "yes", "leisure": "fitness_centre", "name": "Naomi Swain", "opening_hours": "08:00-20:00", "ref:GB:uprn": "100121296170;10093787549;10093787550;200004679807;100121367012;100121367010;100121367011", "sport": "yoga", "website": "https://www.naomiswain.co.uk/"}}]}