{"version": 0.6, "generator": "Overpass API 0.7.62.10 2d4cfc48", "osm3s": {"timestamp_osm_base": "2026-03-01T06:11:00Z", "copyright": "The data included in this document is from www.openstreetmap.org. The data is made available under ODbL."}, "elements": [{"type": "node", "id": 2360764804, "lat": 52.0605713, "lon": -2.7143219}, {"type": "node", "id": 3575194249, "lat": 52.0411734, "lon": -2.7400261}, {"type": "node", "id": 3575194257, "lat": 52.0412345, "lon": -2.7398275}, {"type": "node", "id": 3575194265, "lat": 52.0413485, "lon": -2.7401687}, {"type": "node", "id": 3575194268, "lat": 52.0414097, "lon": -2.7399701}, {"type": "node", "id": 4401229761, "lat": 52.0603689, "lon": -2.7139555}, {"type": "node", "id": 4401229763, "lat": 52.0604372, "lon": -2.7143791}, {"type": "node", "id": 4401229764, "lat": 52.060503, "lon": -2.7138983}, {"type": "node", "id": 4985351473, "lat": 52.0440208, "lon": -2.7441793}, {"type": "node", "id": 4985351474, "lat": 52.0440143, "lon": -2.7439512}, {"type": "node", "id": 4985351475, "lat": 52.0439158, "lon": -2.7439585}, {"type": "node", "id": 4985351476, "lat": 52.0438884, "lon": -2.7441224}, {"type": "node", "id": 4985351477, "lat": 52.0439263, "lon": -2.7441196}, {"type": "node", "id": 4985351478, "lat": 52.0439281, "lon": -2.7441862}, {"type": "node", "id": 4985351479, "lat": 52.0439163, "lon": -2.743979}, {"type": "node", "id": 4985351480, "lat": 52.0438844, "lon": -2.7439814}, {"type": "node", "id": 4985351492, "lat": 52.0440189, "lon": -2.7441119}, {"type": "node", "id": 5654486326, "lat": 52.0476105, "lon": -2.7191219}, {"type": "node", "id": 5654486371, "lat": 52.0476757, "lon": -2.7190669}, {"type": "node", "id": 5654486374, "lat": 52.0475508, "lon": -2.718676}, {"type": "node", "id": 5654486421, "lat": 52.0476627, "lon": -2.7185816}, {"type": "node", "id": 5654486426, "lat": 52.0477987, "lon": -2.7190074}, {"type": "node", "id": 5654486444, "lat": 52.0477014, "lon": -2.7194066}, {"type": "node", "id": 5654486445, "lat": 52.0478863, "lon": -2.7189335}, {"type": "node", "id": 5654486448, "lat": 52.047966, "lon": -2.7191832}, {"type": "node", "id": 6560382478, "lat": 52.0517227, "lon": -2.7233105}, {"type": "node", "id": 6560382479, "lat": 52.0516746, "lon": -2.7234574}, {"type": "node", "id": 6560382480, "lat": 52.05151, "lon": -2.7233034}, {"type": "node", "id": 6560382481, "lat": 52.0515639, "lon": -2.7231471}, {"type": "node", "id": 9215223554, "lat": 52.0601875, "lon": -2.7287475, "tags": {"addr:city": "Hereford", "addr:housename": "Unit 1", "addr:housenumber": "2", "addr:postcode": "HR4 0EH", "addr:street": "Harrow Road", "amenity": "community_centre", "email": "herefordmake@outlook.com", "name": "Hereford Make", "opening_hours": "Mo-Fr 09:00-18:00; Sa-Su 10:00-17:00", "phone": "+44 1432 271 255", "website": "https://www.herefordmake.com"}}, {"type": "node", "id": 12110087429, "lat": 52.0494361, "lon": -2.7223234, "tags": {"amenity": "community_centre", "name": "The Kindle Centre"}}, {"type": "way", "id": 351697189, "nodes": [3575194265, 3575194268, 3575194257, 3575194249, 3575194265], "tags": {"addr:city": "Belmont", "addr:housename": "Belmont Community Centre", "addr:postcode": "HR2 7UQ", "addr:street": "Eastholme Avenue", "amenity": "community_centre", "building": "yes", "email": "belmontcommunitycentrehereford@yahoo.com", "name": "Belmont Community Centre", "operator": "Belmont Rural", "phone": "+44 1432 263415"}}, {"type": "way", "id": 442438485, "nodes": [2360764804, 4401229764, 4401229761, 4401229763, 2360764804], "tags": {"addr:city": "Hereford", "addr:postcode": "HR4 9HN", "addr:street": "Widemarsh Street", "amenity": "community_centre", "building": "yes", "name": "St John Ambulance", "operator": "St John Ambulance", "source": "bing"}}, {"type": "way", "id": 509286246, "nodes": [4985351473, 4985351492, 4985351474, 4985351475, 4985351479, 4985351480, 4985351476, 4985351477, 4985351478, 4985351473], "tags": {"addr:city": "Belmont", "addr:postcode": "HR2 7SP", "addr:street": "Northolme Road", "amenity": "community_centre", "building": "yes", "name": "Northolme Community Centre", "phone": "+44 1432 263687"}}, {"type": "way", "id": 592451212, "nodes": [5654486448, 5654486445, 5654486426, 5654486421, 5654486374, 5654486371, 5654486326, 5654486444, 5654486448], "tags": {"amenity": "community_centre", "building": "yes", "name": "Hinton Community Centre", "source": "DigitalGlobe-Standard"}}, {"type": "way", "id": 698608777, "nodes": [6560382478, 6560382479, 6560382480, 6560382481, 6560382478], "tags": {"amenity": "community_centre", "building": "yes", "community_centre": "youth_centre", "name": "Sea Cadets T.S. Antelope"}}]}