{"version": 0.6, "generator": "Overpass API 0.7.62.10 2d4cfc48", "osm3s": {"timestamp_osm_base": "2026-03-01T06:04:44Z", "copyright": "The data included in this document is from www.openstreetmap.org. The data is made available under ODbL."}, "elements": [{"type": "node", "id": 2775494537, "lat": 51.4590341, "lon": -2.1143345}, {"type": "node", "id": 2775494559, "lat": 51.4591946, "lon": -2.1144713}, {"type": "node", "id": 2775494573, "lat": 51.459126, "lon": -2.1144686}, {"type": "node", "id": 2775494592, "lat": 51.4591227, "lon": -2.1141843}, {"type": "node", "id": 2775494689, "lat": 51.4592514, "lon": -2.1143855}, {"type": "node", "id": 2775494791, "lat": 51.4591528, "lon": -2.1144096}, {"type": "node", "id": 3873174149, "lat": 51.4479393, "lon": -2.1019582, "tags": {"amenity": "community_centre", "name": "Pewsham Community Centre"}}, {"type": "node", "id": 5326315582, "lat": 51.455128, "lon": -2.1332998}, {"type": "node", "id": 5326315583, "lat": 51.4553201, "lon": -2.133291}, {"type": "node", "id": 5326315584, "lat": 51.4553172, "lon": -2.13313}, {"type": "node", "id": 5326315585, "lat": 51.4551251, "lon": -2.1331388}, {"type": "way", "id": 272606054, "nodes": [2775494592, 2775494689, 2775494559, 2775494791, 2775494573, 2775494537, 2775494592], "tags": {"addr:city": "Chippenham", "addr:postcode": "SN15 3JP", "addr:street": "Emery Gate", "amenity": "community_centre", "building": "yes", "building:levels": "2", "club": "freemasonry", "name": "Masonic Hall", "website": "https://www.pglwilts.org.uk/"}}, {"type": "way", "id": 551523639, "nodes": [5326315582, 5326315583, 5326315584, 5326315585, 5326315582], "tags": {"amenity": "community_centre", "building": "yes"}}]}