{"version": 0.6, "generator": "Overpass API 0.7.62.10 2d4cfc48", "osm3s": {"timestamp_osm_base": "2026-03-01T06:04:44Z", "copyright": "The data included in this document is from www.openstreetmap.org. The data is made available under ODbL."}, "elements": [{"type": "node", "id": 502475020, "lat": 51.7088015, "lon": -1.9725017, "tags": {"bench": "no", "bin": "no", "bus": "yes", "highway": "bus_stop", "lit": "yes", "name": "Shops", "naptan:AtcoCode": "1600GL1103", "naptan:Bearing": "W", "naptan:CommonName": "Shops", "naptan:NaptanCode": "glodwtpm", "naptan:Street": "Chesterton Lane", "naptan:verified": "no", "public_transport": "platform", "shelter": "no", "source": "naptan_import", "tactile_paving": "no"}}, {"type": "node", "id": 502475027, "lat": 51.7088824, "lon": -1.9724872, "tags": {"bench": "no", "bin": "no", "bus": "yes", "highway": "bus_stop", "lit": "yes", "name": "Shops", "naptan:AtcoCode": "1600GL1104", "naptan:Bearing": "E", "naptan:CommonName": "Shops", "naptan:Indicator": "Opp", "naptan:NaptanCode": "glodwtpt", "naptan:Street": "Chesterton Ln", "naptan:verified": "no", "public_transport": "platform", "shelter": "no", "source": "naptan_import", "tactile_paving": "no"}}, {"type": "node", "id": 502475405, "lat": 51.7113791, "lon": -1.9900334, "tags": {"bus": "yes", "highway": "bus_stop", "name": "Deer Park School", "naptan:AtcoCode": "1600GL1265", "naptan:Bearing": "E", "naptan:BusStopType": "CUS", "naptan:CommonName": "Deer Park School", "naptan:NaptanCode": "glodwpat", "naptan:Street": "Stroud Rd A419", "naptan:verified": "no", "public_transport": "platform", "shelter": "no", "source": "naptan_import"}}, {"type": "node", "id": 502475411, "lat": 51.7112595, "lon": -1.9900342, "tags": {"bus": "yes", "highway": "bus_stop", "name": "Deer Park School", "naptan:AtcoCode": "1600GL1266", "naptan:Bearing": "W", "naptan:CommonName": "Deer Park School", "naptan:Indicator": "Opp", "naptan:NaptanCode": "glodwpaw", "naptan:Street": "Stroud Rd A419", "naptan:verified": "no", "public_transport": "platform", "shelter": "yes", "source": "naptan_import"}}, {"type": "node", "id": 502475442, "lat": 51.7153914, "lon": -1.9693422, "tags": {"bench": "no", "bin": "no", "bus": "yes", "departures_board": "no", "highway": "bus_stop", "lit": "yes", "name": "Brewery Car Park", "naptan:AtcoCode": "1600GL1274", "naptan:Bearing": "SW", "naptan:CommonName": "Brewery Car Park", "naptan:NaptanCode": "glogadmg", "naptan:Street": "Off Cripps Rd", "naptan:verified": "no", "note": "This stop is served only by bus 72C, which has no pre-defined route. https://communityconnexions.org.uk/routes/72c-cirencester-shopper/", "public_transport": "platform", "shelter": "no", "signed": "no", "source": "naptan_import", "tactile_paving": "no"}}, {"type": "node", "id": 502475459, "lat": 51.7123826, "lon": -1.9875235, "tags": {"bus": "yes", "highway": "bus_stop", "name": "Deer Park School Grounds", "naptan:AtcoCode": "1600GL1286", "naptan:Bearing": "E", "naptan:CommonName": "Deer Park School Grounds", "naptan:NaptanCode": "glodwpap", "naptan:Street": "Off Stroud Rd A419", "naptan:verified": "no", "public_transport": "platform", "source": "naptan_import"}}, {"type": "node", "id": 502475463, "lat": 51.7177104, "lon": -1.9431108, "tags": {"bus": "yes", "highway": "bus_stop", "name": "Kingshill School", "naptan:AtcoCode": "1600GL1289", "naptan:Bearing": "N", "naptan:CommonName": "Kingshill School", "naptan:NaptanCode": "glogampd", "naptan:Street": "Kingshill Lane", "naptan:verified": "no", "public_transport": "platform", "source": "naptan_import"}}, {"type": "node", "id": 502475482, "lat": 51.7055852, "lon": -1.9507571, "tags": {"bus": "yes", "departures_board": "timetable", "highway": "bus_stop", "name": "Tesco Stores", "naptan:AtcoCode": "1600GL1308", "naptan:Bearing": "SW", "naptan:CommonName": "Tesco Stores", "naptan:NaptanCode": "glogajwt", "naptan:Street": "Off Old Cricklade Rd", "naptan:verified": "no", "public_transport": "platform", "ref:GB:uprn": "10025677346", "source": "naptan_import"}}, {"type": "node", "id": 502475490, "lat": 51.7096268, "lon": -1.9598833, "tags": {"bench": "no", "bin": "no", "bus": "yes", "highway": "bus_stop", "lit": "no", "name": "Queen St", "naptan:AtcoCode": "1600GL1311", "naptan:Bearing": "SE", "naptan:CommonName": "Queen St", "naptan:NaptanCode": "glogagwa", "naptan:Street": "Watermoor Rd", "naptan:verified": "no", "public_transport": "platform", "shelter": "no", "source": "naptan_import", "tactile_paving": "no"}}, {"type": "node", "id": 502475493, "lat": 51.7096431, "lon": -1.9600833, "tags": {"bench": "no", "bin": "yes", "bus": "yes", "highway": "bus_stop", "lit": "no", "name": "Queen St", "naptan:AtcoCode": "1600GL1312", "naptan:Bearing": "NW", "naptan:CommonName": "Queen St", "naptan:Indicator": "Opp", "naptan:NaptanCode": "glogagtw", "naptan:Street": "Watermoor Rd", "naptan:verified": "no", "public_transport": "platform", "shelter": "no", "source": "naptan_import", "tactile_paving": "no"}}, {"type": "node", "id": 502476019, "lat": 51.7089734, "lon": -1.9776684, "tags": {"bench": "no", "bus": "yes", "highway": "bus_stop", "lit": "yes", "name": "Shalford Close", "naptan:AtcoCode": "1600GL1507", "naptan:Bearing": "S", "naptan:CommonName": "Shalford Close", "naptan:Indicator": "Opp", "naptan:NaptanCode": "glodwpmp", "naptan:Street": "Cranhams Lane", "naptan:verified": "no", "public_transport": "platform", "shelter": "no", "source": "naptan_import"}}, {"type": "node", "id": 502478849, "lat": 51.7168708, "lon": -1.9451776, "tags": {"bus": "yes", "highway": "bus_stop", "name": "Kingshill School Grounds", "naptan:AtcoCode": "1600GL2772", "naptan:Bearing": "SE", "naptan:CommonName": "Kingshill School Grounds", "naptan:NaptanCode": "glogampa", "naptan:Street": "Off Kingshill Ln", "naptan:verified": "no", "public_transport": "platform", "source": "naptan_import"}}, {"type": "node", "id": 502480439, "lat": 51.7160503, "lon": -1.9535551, "tags": {"bus": "yes", "highway": "bus_stop", "lit": "yes", "name": "Akeman Rd", "naptan:AtcoCode": "1600GL351", "naptan:Bearing": "E", "naptan:CommonName": "Akeman Rd", "naptan:Indicator": "Opp", "naptan:NaptanCode": "glogajmt", "naptan:Street": "Archery Rd", "naptan:verified": "no", "public_transport": "platform", "source": "naptan_import"}}, {"type": "node", "id": 502480465, "lat": 51.7159069, "lon": -1.9539081, "tags": {"bus": "yes", "highway": "bus_stop", "lit": "yes", "name": "Akeman Rd", "naptan:AtcoCode": "1600GL352", "naptan:Bearing": "W", "naptan:CommonName": "Akeman Rd", "naptan:NaptanCode": "glogajmj", "naptan:Street": "Archery Rd", "naptan:verified": "no", "public_transport": "platform", "source": "naptan_import"}}, {"type": "node", "id": 502483622, "lat": 51.7337054, "lon": -1.9758197, "tags": {"bus": "yes", "highway": "bus_stop", "name": "Haresfield", "naptan:AtcoCode": "1600GL4538", "naptan:Bearing": "NW", "naptan:CommonName": "Haresfield", "naptan:Indicator": "Before", "naptan:NaptanCode": "glodwtat", "naptan:Street": "Stratton Heights", "naptan:verified": "no", "public_transport": "platform", "source": "naptan_import"}}, {"type": "node", "id": 502483641, "lat": 51.7290876, "lon": -1.9798883, "tags": {"bus": "yes", "highway": "bus_stop", "name": "The Plough", "naptan:AtcoCode": "1600GL4542", "naptan:Bearing": "NW", "naptan:CommonName": "The Plough", "naptan:NaptanCode": "glodwpjm", "naptan:Street": "Gloucester Road", "naptan:verified": "no", "public_transport": "platform", "source": "naptan_import"}}, {"type": "node", "id": 502483857, "lat": 51.7178051, "lon": -1.9540687, "tags": {"bus": "yes", "highway": "bus_stop", "lit": "yes", "name": "Whitelands Rd", "naptan:AtcoCode": "1600GL4687", "naptan:Bearing": "S", "naptan:CommonName": "Whitelands Rd", "naptan:NaptanCode": "glogajmp", "naptan:Street": "Churchill Rd", "naptan:verified": "no", "public_transport": "platform", "source": "naptan_import"}}, {"type": "node", "id": 502484412, "lat": 51.7354499, "lon": -1.9789688, "tags": {"bus": "yes", "highway": "bus_stop", "name": "Manor Close", "naptan:AtcoCode": "1600GL4960", "naptan:Bearing": "S", "naptan:CommonName": "Manor Close", "naptan:NaptanCode": "glodwpmd", "naptan:Street": "Vaisey Road", "naptan:verified": "no", "public_transport": "platform", "source": "naptan_import"}}, {"type": "node", "id": 502486271, "lat": 51.7245316, "lon": -1.9695089, "tags": {"bus": "yes", "highway": "bus_stop", "name": "Bowling Green Ave", "naptan:AtcoCode": "1600GL588", "naptan:Bearing": "E", "naptan:CommonName": "Bowling Green Ave", "naptan:NaptanCode": "glogadmp", "naptan:Street": "Bowling Green Rd", "naptan:verified": "no", "public_transport": "platform", "source": "naptan_import"}}, {"type": "node", "id": 502488106, "lat": 51.7071304, "lon": -1.9789718, "tags": {"bench": "no", "bus": "yes", "highway": "bus_stop", "lit": "yes", "name": "Kemble Drive", "naptan:AtcoCode": "1600GLA06400", "naptan:Bearing": "NE", "naptan:CommonName": "Kemble Drive", "naptan:NaptanCode": "glogpmtp", "naptan:Street": "Cranhams Lane", "naptan:verified": "no", "public_transport": "platform", "shelter": "no", "source": "naptan_import"}}, {"type": "node", "id": 502488214, "lat": 51.7080711, "lon": -1.9873362, "tags": {"bench": "no", "bin": "no", "bus": "yes", "highway": "bus_stop", "lit": "no", "name": "Steadings Cottages", "naptan:AtcoCode": "1600GLA06425", "naptan:Bearing": "NE", "naptan:CommonName": "Steadings Cottages", "naptan:Landmark": "A429", "naptan:NaptanCode": "glogptgj", "naptan:Street": "Tetbury Road", "naptan:verified": "no", "public_transport": "platform", "shelter": "no", "source": "naptan_import", "tactile_paving": "no"}}, {"type": "node", "id": 502489788, "lat": 51.709774, "lon": -1.9794193, "tags": {"bench": "no", "bin": "no", "bus": "yes", "highway": "bus_stop", "lit": "yes", "name": "Cemetery", "naptan:AtcoCode": "1600GLA36750", "naptan:Bearing": "W", "naptan:CommonName": "Cemetery", "naptan:NaptanCode": "glogmpam", "naptan:Street": "Chesterton Lane", "naptan:verified": "no", "public_transport": "platform", "shelter": "no", "source": "naptan_import", "tactile_paving": "no"}}, {"type": "node", "id": 502491030, "lat": 51.7143076, "lon": -1.9658956, "tags": {"bench": "no", "bin": "no", "bus": "yes", "highway": "bus_stop", "lit": "yes", "name": "Cotswold Mill", "naptan:AtcoCode": "1600GLA57023", "naptan:Bearing": "SW", "naptan:CommonName": "Cotswold Mill", "naptan:NaptanCode": "glogmtwa", "naptan:Street": "Lewis Ln", "naptan:verified": "no", "public_transport": "platform", "shelter": "no", "source": "naptan_import", "tactile_paving": "no"}}, {"type": "node", "id": 502492669, "lat": 51.7050532, "lon": -1.9777572, "tags": {"bench": "no", "bus": "yes", "highway": "bus_stop", "lit": "yes", "name": "Hanstone Close", "naptan:AtcoCode": "1600GLA90837", "naptan:Bearing": "SE", "naptan:CommonName": "Hanstone Close", "naptan:NaptanCode": "glogpapm", "naptan:Street": "Cranhams Ln", "naptan:verified": "no", "public_transport": "platform", "shelter": "no", "source": "naptan_import"}}, {"type": "node", "id": 502492672, "lat": 51.7085218, "lon": -1.9686955, "tags": {"bench": "no", "bin": "no", "bus": "yes", "highway": "bus_stop", "lit": "no", "name": "Chesterton Ln", "naptan:AtcoCode": "1600GLA90838", "naptan:Bearing": "N", "naptan:CommonName": "Chesterton Ln", "naptan:NaptanCode": "glogpapw", "naptan:Street": "Somerford Rd", "naptan:verified": "no", "public_transport": "platform", "shelter": "no", "source": "naptan_import", "tactile_paving": "no"}}, {"type": "node", "id": 502492678, "lat": 51.7039644, "lon": -1.9738939, "tags": {"bench": "no", "bus": "yes", "highway": "bus_stop", "name": "The Maples", "naptan:AtcoCode": "1600GLA90839", "naptan:Bearing": "E", "naptan:CommonName": "The Maples", "naptan:Indicator": "Opp", "naptan:NaptanCode": "glogpapt", "naptan:Street": "Cranhams Lane", "naptan:verified": "no", "public_transport": "platform", "shelter": "no", "source": "naptan_import"}}, {"type": "node", "id": 502494035, "lat": 51.7182509, "lon": -1.9572752, "tags": {"bench": "no", "bin": "no", "bus": "yes", "highway": "bus_stop", "lit": "yes", "name": "Burford Rd", "naptan:AtcoCode": "1600GLC004", "naptan:Bearing": "W", "naptan:CommonName": "Burford Rd", "naptan:Indicator": "Opp", "naptan:NaptanCode": "glogajat", "naptan:Street": "London Rd", "naptan:verified": "no", "public_transport": "platform", "shelter": "no", "source": "naptan_import", "tactile_paving": "no"}}, {"type": "node", "id": 502494038, "lat": 51.7184885, "lon": -1.9541259, "tags": {"bench": "no", "bin": "no", "bus": "yes", "highway": "bus_stop", "lit": "yes", "name": "Churchill Rd", "naptan:AtcoCode": "1600GLC005", "naptan:Bearing": "E", "naptan:CommonName": "Churchill Rd", "naptan:Indicator": "Opp", "naptan:NaptanCode": "glogajmg", "naptan:Street": "London Rd", "naptan:verified": "no", "public_transport": "platform", "shelter": "no", "source": "naptan_import", "tactile_paving": "no"}}, {"type": "node", "id": 502494041, "lat": 51.7183807, "lon": -1.9545169, "tags": {"bench": "no", "bin": "no", "bus": "yes", "highway": "bus_stop", "lit": "yes", "name": "Churchill Rd", "naptan:AtcoCode": "1600GLC006", "naptan:Bearing": "W", "naptan:CommonName": "Churchill Rd", "naptan:NaptanCode": "glogajma", "naptan:Street": "London Rd", "naptan:verified": "no", "public_transport": "platform", "shelter": "no", "source": "naptan_import", "tactile_paving": "no"}}, {"type": "node", "id": 502494045, "lat": 51.7190808, "lon": -1.951288, "tags": {"bus": "yes", "highway": "bus_stop", "lit": "yes", "name": "Pheasant Way", "naptan:AtcoCode": "1600GLC007", "naptan:Bearing": "E", "naptan:CommonName": "Pheasant Way", "naptan:Indicator": "Opp", "naptan:NaptanCode": "glogajwg", "naptan:Street": "London Rd", "naptan:verified": "no", "public_transport": "platform", "source": "naptan_import"}}, {"type": "node", "id": 502494050, "lat": 51.7189908, "lon": -1.951042, "tags": {"bus": "yes", "highway": "bus_stop", "lit": "yes", "name": "Pheasant Way", "naptan:AtcoCode": "1600GLC008", "naptan:Bearing": "W", "naptan:CommonName": "Pheasant Way", "naptan:NaptanCode": "glogajwm", "naptan:Street": "London Rd", "naptan:verified": "no", "public_transport": "platform", "source": "naptan_import"}}, {"type": "node", "id": 502494127, "lat": 51.7192573, "lon": -1.9438471, "tags": {"bus": "yes", "highway": "bus_stop", "lit": "no", "name": "Kingshill Ln", "naptan:AtcoCode": "1600GLC029", "naptan:Bearing": "E", "naptan:CommonName": "Kingshill Ln", "naptan:Indicator": "Opp", "naptan:NaptanCode": "glogamjw", "naptan:Street": "London Rd A417", "naptan:verified": "no", "public_transport": "platform", "source": "naptan_import"}}, {"type": "node", "id": 502494132, "lat": 51.7191494, "lon": -1.9438762, "tags": {"bus": "yes", "highway": "bus_stop", "lit": "no", "name": "Kingshill Ln", "naptan:AtcoCode": "1600GLC030", "naptan:Bearing": "W", "naptan:CommonName": "Kingshill Ln", "naptan:NaptanCode": "glogamjt", "naptan:Street": "London Rd A417", "naptan:verified": "no", "public_transport": "platform", "source": "naptan_import"}}, {"type": "node", "id": 502494316, "lat": 51.7132349, "lon": -1.9753215, "tags": {"bench": "no", "bin": "yes", "bus": "yes", "highway": "bus_stop", "lit": "yes", "name": "Querns Hospital", "naptan:AtcoCode": "1600GLC129", "naptan:Bearing": "W", "naptan:CommonName": "Querns Hospital", "naptan:NaptanCode": "glodwtdj", "naptan:Street": "Tetbury Rd A419", "naptan:verified": "no", "public_transport": "platform", "shelter": "yes", "source": "naptan_import", "tactile_paving": "no"}}, {"type": "node", "id": 502494318, "lat": 51.7109164, "lon": -1.9818051, "tags": {"bench": "no", "bin": "no", "bus": "yes", "highway": "bus_stop", "lit": "yes", "name": "Chesterton Ln", "naptan:AtcoCode": "1600GLC132", "naptan:Bearing": "NE", "naptan:CommonName": "Chesterton Ln", "naptan:Indicator": "Opp", "naptan:NaptanCode": "glodwpgw", "naptan:Street": "Tetbury Rd A419", "naptan:verified": "no", "public_transport": "platform", "shelter": "no", "source": "naptan_import", "tactile_paving": "no"}}, {"type": "node", "id": 502494472, "lat": 51.7373304, "lon": -1.9695156, "tags": {"bus": "yes", "highway": "bus_stop", "name": "Baunton Turn", "naptan:AtcoCode": "1600GLC181", "naptan:Bearing": "S", "naptan:CommonName": "Baunton Turn", "naptan:NaptanCode": "glogadjw", "naptan:Street": "Cheltenham Rd A435", "naptan:verified": "no", "public_transport": "platform", "source": "naptan_import"}}, {"type": "node", "id": 502494482, "lat": 51.7344041, "lon": -1.9722086, "tags": {"bus": "yes", "highway": "bus_stop", "name": "Churn Court", "naptan:AtcoCode": "1600GLC184", "naptan:Bearing": "NE", "naptan:CommonName": "Churn Court", "naptan:NaptanCode": "glodwtwg", "naptan:Street": "Cheltenham Rd", "naptan:verified": "no", "public_transport": "platform", "source": "naptan_import"}}, {"type": "node", "id": 502494489, "lat": 51.7301391, "lon": -1.9738718, "tags": {"bus": "yes", "highway": "bus_stop", "name": "Roberts Close", "naptan:AtcoCode": "1600GLC185", "naptan:Bearing": "S", "naptan:CommonName": "Roberts Close", "naptan:Indicator": "Opp", "naptan:NaptanCode": "glodwtjw", "naptan:Street": "Cheltenham Rd", "naptan:verified": "no", "public_transport": "platform", "source": "naptan_import"}}, {"type": "node", "id": 502494491, "lat": 51.7304393, "lon": -1.9738602, "tags": {"bus": "yes", "highway": "bus_stop", "name": "Roberts Close", "naptan:AtcoCode": "1600GLC186", "naptan:Bearing": "N", "naptan:CommonName": "Roberts Close", "naptan:NaptanCode": "glodwtjt", "naptan:Street": "Cheltenham Rd", "naptan:verified": "no", "public_transport": "platform", "source": "naptan_import"}}, {"type": "node", "id": 502494501, "lat": 51.7213255, "lon": -1.9684261, "tags": {"bus": "yes", "highway": "bus_stop", "name": "Abbey Way", "naptan:AtcoCode": "1600GLC191", "naptan:Bearing": "SW", "naptan:CommonName": "Abbey Way", "naptan:NaptanCode": "glogadtg", "naptan:Street": "Spitalgate Lane", "naptan:verified": "no", "public_transport": "platform", "source": "naptan_import"}}, {"type": "node", "id": 502494509, "lat": 51.7153982, "lon": -1.9619744, "tags": {"bus": "yes", "highway": "bus_stop", "lit": "yes", "name": "Newcombe Court", "naptan:AtcoCode": "1600GLC195", "naptan:Bearing": "SE", "naptan:CommonName": "Newcombe Court", "naptan:NaptanCode": "glogagpw", "naptan:Street": "Victoria Rd", "naptan:verified": "no", "public_transport": "platform", "source": "naptan_import"}}, {"type": "node", "id": 502494518, "lat": 51.7114701, "lon": -1.960086, "tags": {"bench": "no", "bin": "no", "bus": "yes", "highway": "bus_stop", "lit": "yes", "name": "Cirencester Junior School", "naptan:AtcoCode": "1600GLC197", "naptan:Bearing": "SE", "naptan:CommonName": "Cirencester Junior School", "naptan:NaptanCode": "glogagtp", "naptan:Street": "Victoria Rd", "naptan:verified": "no", "public_transport": "platform", "shelter": "no", "source": "naptan_import", "tactile_paving": "no"}}, {"type": "node", "id": 502494522, "lat": 51.7120619, "lon": -1.960443, "tags": {"bench": "no", "bin": "no", "bus": "yes", "highway": "bus_stop", "lit": "yes", "name": "Cirencester Junior School", "naptan:AtcoCode": "1600GLC198", "naptan:Bearing": "N", "naptan:CommonName": "Cirencester Junior School", "naptan:Indicator": "Opp", "naptan:NaptanCode": "glogagtj", "naptan:Street": "Victoria Rd", "naptan:verified": "no", "public_transport": "platform", "shelter": "no", "source": "naptan_import", "tactile_paving": "no"}}, {"type": "node", "id": 502494524, "lat": 51.7070776, "lon": -1.9585044, "tags": {"bus": "yes", "highway": "bus_stop", "lit": "yes", "name": "Bridge Close", "naptan:AtcoCode": "1600GLC199", "naptan:Bearing": "E", "naptan:CommonName": "Bridge Close", "naptan:NaptanCode": "glogagwg", "naptan:Street": "Bridge Rd", "naptan:verified": "no", "public_transport": "platform", "source": "naptan_import"}}, {"type": "node", "id": 502494525, "lat": 51.7069812, "lon": -1.9589034, "tags": {"bus": "yes", "highway": "bus_stop", "name": "Bridge Close", "naptan:AtcoCode": "1600GLC200", "naptan:Bearing": "W", "naptan:CommonName": "Bridge Close", "naptan:NaptanCode": "glogagwd", "naptan:Street": "Bridge Rd", "naptan:verified": "no", "public_transport": "platform", "source": "naptan_import"}}, {"type": "node", "id": 502494526, "lat": 51.7053076, "lon": -1.9555141, "tags": {"bus": "yes", "highway": "bus_stop", "lit": "yes", "name": "Ermin Place", "naptan:AtcoCode": "1600GLC201", "naptan:Bearing": "SE", "naptan:CommonName": "Ermin Place", "naptan:NaptanCode": "glogajdt", "naptan:Street": "Siddington Rd", "naptan:verified": "no", "public_transport": "platform", "source": "naptan_import"}}, {"type": "node", "id": 502494528, "lat": 51.7054984, "lon": -1.9564092, "tags": {"bus": "yes", "highway": "bus_stop", "lit": "yes", "name": "Ermin Place", "naptan:AtcoCode": "1600GLC202", "naptan:Bearing": "NW", "naptan:CommonName": "Ermin Place", "naptan:Indicator": "Opp", "naptan:NaptanCode": "glogajdj", "naptan:Street": "Siddington Rd", "naptan:verified": "no", "public_transport": "platform", "source": "naptan_import"}}, {"type": "node", "id": 502494531, "lat": 51.7219822, "lon": -1.9696128, "tags": {"bus": "yes", "highway": "bus_stop", "name": "Spitalgate Lane", "naptan:AtcoCode": "1600GLC206", "naptan:Bearing": "NW", "naptan:CommonName": "Spitalgate Lane", "naptan:NaptanCode": "glogadpj", "naptan:Street": "Abbey Way", "naptan:verified": "no", "public_transport": "platform", "source": "naptan_import"}}, {"type": "node", "id": 502494545, "lat": 51.727163, "lon": -1.9777753, "tags": {"bus": "yes", "highway": "bus_stop", "name": "Albion St", "naptan:AtcoCode": "1600GLC221", "naptan:Bearing": "SE", "naptan:CommonName": "Albion St", "naptan:NaptanCode": "glodwptg", "naptan:Street": "Gloucester Rd", "naptan:verified": "no", "public_transport": "platform", "source": "naptan_import"}}, {"type": "node", "id": 502494546, "lat": 51.7269427, "lon": -1.9776599, "tags": {"bus": "yes", "highway": "bus_stop", "name": "Albion Street", "naptan:AtcoCode": "1600GLC222", "naptan:Bearing": "NW", "naptan:CommonName": "Albion St", "naptan:Indicator": "Opp", "naptan:NaptanCode": "glodwpmw", "naptan:Street": "Gloucester Rd", "naptan:verified": "no", "public_transport": "platform", "source": "naptan_import"}}, {"type": "node", "id": 502494619, "lat": 51.7341361, "lon": -1.9849082, "tags": {"bus": "yes", "highway": "bus_stop", "name": "Daglingworth Turn", "naptan:AtcoCode": "1600GLC271", "naptan:Bearing": "SE", "naptan:CommonName": "Daglingworth Turn", "naptan:Indicator": "Opp", "naptan:NaptanCode": "glodwpdp", "naptan:Street": "Gloucester Rd", "naptan:verified": "no", "public_transport": "platform", "source": "naptan_import"}}, {"type": "node", "id": 502494637, "lat": 51.7044118, "lon": -1.9446214, "tags": {"bus": "yes", "highway": "bus_stop", "name": "Preston Toll Bar", "naptan:AtcoCode": "1600GLC277", "naptan:Bearing": "NE", "naptan:CommonName": "Preston Toll Bar", "naptan:NaptanCode": "glogamgp", "naptan:Street": "Kingshill Ln", "naptan:verified": "no", "public_transport": "platform", "source": "naptan_import"}}, {"type": "node", "id": 502494643, "lat": 51.7038379, "lon": -1.9455883, "tags": {"bus": "yes", "highway": "bus_stop", "name": "Preston Toll Bar", "naptan:AtcoCode": "1600GLC282", "naptan:Bearing": "NW", "naptan:CommonName": "Preston Toll Bar", "naptan:Indicator": "by", "naptan:NaptanCode": "glogjtpw", "naptan:Street": "Swindon Rd", "naptan:verified": "no", "public_transport": "platform", "source": "naptan_import"}}, {"type": "node", "id": 502494656, "lat": 51.7134705, "lon": -1.9521191, "tags": {"bus": "yes", "highway": "bus_stop", "lit": "yes", "name": "Queen Elizabeth Rd", "naptan:AtcoCode": "1600GLC287", "naptan:Bearing": "NE", "naptan:CommonName": "Queen Elizabeth Rd", "naptan:NaptanCode": "glogajtp", "naptan:Street": "Queen Elizabeth Rd", "naptan:verified": "no", "public_transport": "platform", "source": "naptan_import"}}, {"type": "node", "id": 502494660, "lat": 51.7133356, "lon": -1.9521047, "tags": {"bus": "yes", "highway": "bus_stop", "lit": "yes", "name": "Queen Elizabeth Rd", "naptan:AtcoCode": "1600GLC288", "naptan:Bearing": "SW", "naptan:CommonName": "Queen Elizabeth Rd", "naptan:NaptanCode": "glogajwa", "naptan:Street": "Queen Elizabeth Rd", "naptan:verified": "no", "public_transport": "platform", "source": "naptan_import"}}, {"type": "node", "id": 502494664, "lat": 51.7334929, "lon": -1.9772526, "tags": {"bus": "yes", "highway": "bus_stop", "name": "Vaisey Road", "naptan:AtcoCode": "1600GLC290", "naptan:Bearing": "W", "naptan:CommonName": "Vaisey Road", "naptan:NaptanCode": "glodwtad", "naptan:Street": "Haresfield", "naptan:verified": "no", "public_transport": "platform", "source": "naptan_import"}}, {"type": "node", "id": 502494667, "lat": 51.7345901, "lon": -1.9788143, "tags": {"bus": "yes", "highway": "bus_stop", "name": "Grange Court", "naptan:AtcoCode": "1600GLC291", "naptan:Bearing": "N", "naptan:CommonName": "Grange Court", "naptan:Indicator": "Opp", "naptan:NaptanCode": "glodwpmj", "naptan:Street": "Vaisey Rd", "naptan:verified": "no", "public_transport": "platform", "source": "naptan_import"}}, {"type": "node", "id": 502494671, "lat": 51.73468, "lon": -1.9786115, "tags": {"bus": "yes", "highway": "bus_stop", "name": "Grange Court", "naptan:AtcoCode": "1600GLC292", "naptan:Bearing": "S", "naptan:CommonName": "Grange Court", "naptan:NaptanCode": "glodwpmt", "naptan:Street": "Vaisey Rd", "naptan:verified": "no", "public_transport": "platform", "source": "naptan_import"}}, {"type": "node", "id": 502494675, "lat": 51.736424, "lon": -1.977177, "tags": {"bus": "yes", "highway": "bus_stop", "name": "Links View", "naptan:AtcoCode": "1600GLC294", "naptan:Bearing": "SW", "naptan:CommonName": "Links View", "naptan:NaptanCode": "glodwpwg", "naptan:Street": "Baunton Lane", "naptan:verified": "no", "public_transport": "platform", "source": "naptan_import"}}, {"type": "node", "id": 502494677, "lat": 51.7322699, "lon": -1.976875, "tags": {"bus": "yes", "highway": "bus_stop", "name": "Glebe Close", "naptan:AtcoCode": "1600GLC296", "naptan:Bearing": "S", "naptan:CommonName": "Glebe Close", "naptan:NaptanCode": "glodwpwj", "naptan:Street": "Vaisey Rd", "naptan:verified": "no", "public_transport": "platform", "source": "naptan_import"}}, {"type": "node", "id": 502494681, "lat": 51.7310855, "lon": -1.9768767, "tags": {"bus": "yes", "highway": "bus_stop", "name": "Vaisey Rd", "naptan:AtcoCode": "1600GLC298", "naptan:Bearing": "W", "naptan:CommonName": "Vaisey Rd", "naptan:NaptanCode": "glodwptw", "naptan:Street": "Overhill Rd", "naptan:verified": "no", "public_transport": "platform", "source": "naptan_import"}}, {"type": "node", "id": 502494683, "lat": 51.732557, "lon": -1.9736602, "tags": {"bus": "yes", "highway": "bus_stop", "name": "Park View", "naptan:AtcoCode": "1600GLC300", "naptan:Bearing": "N", "naptan:CommonName": "Park View", "naptan:NaptanCode": "glodwtma", "naptan:Street": "Stratton Heights", "naptan:verified": "no", "public_transport": "platform", "source": "naptan_import"}}, {"type": "node", "id": 502494695, "lat": 51.7252511, "lon": -1.9667342, "tags": {"bus": "yes", "highway": "bus_stop", "name": "Shepherds Way", "naptan:AtcoCode": "1600GLC304", "naptan:Bearing": "E", "naptan:CommonName": "Shepherds Way", "naptan:NaptanCode": "glogagdp", "naptan:Street": "Bowling Green Rd", "naptan:verified": "no", "public_transport": "platform", "source": "naptan_import"}}, {"type": "node", "id": 502494698, "lat": 51.7246424, "lon": -1.9652387, "tags": {"bus": "yes", "highway": "bus_stop", "name": "Bowling Green Rd", "naptan:AtcoCode": "1600GLC305", "naptan:Bearing": "NE", "naptan:CommonName": "Bowling Green Rd", "naptan:NaptanCode": "glogagjt", "naptan:Street": "The Whiteway", "naptan:verified": "no", "public_transport": "platform", "source": "naptan_import"}}, {"type": "node", "id": 502494700, "lat": 51.7246064, "lon": -1.9651374, "tags": {"bus": "yes", "highway": "bus_stop", "name": "Bowling Green Rd", "naptan:AtcoCode": "1600GLC306", "naptan:Bearing": "SW", "naptan:CommonName": "Bowling Green Rd", "naptan:Indicator": "Opp", "naptan:NaptanCode": "glogagmd", "naptan:Street": "The Whiteway", "naptan:verified": "no", "public_transport": "platform", "source": "naptan_import"}}, {"type": "node", "id": 502494703, "lat": 51.7149206, "lon": -1.9711224, "tags": {"bench": "no", "bin": "no", "bus": "yes", "highway": "bus_stop", "lit": "yes", "name": "Register Office", "naptan:AtcoCode": "1600GLC309", "naptan:Bearing": "S", "naptan:CommonName": "Register Office", "naptan:NaptanCode": "glogadgj", "naptan:Street": "Sheep St", "naptan:verified": "no", "public_transport": "platform", "shelter": "no", "source": "naptan_import", "tactile_paving": "no"}}, {"type": "node", "id": 502494706, "lat": 51.7097829, "lon": -1.9788403, "tags": {"bench": "yes", "bin": "yes", "bus": "yes", "highway": "bus_stop", "lit": "yes", "name": "Cemetery", "naptan:AtcoCode": "1600GLC311", "naptan:Bearing": "E", "naptan:CommonName": "Cemetery", "naptan:Indicator": "Opp", "naptan:NaptanCode": "glodwpmg", "naptan:Street": "Chesterton Lane", "naptan:verified": "no", "public_transport": "platform", "shelter": "no", "source": "naptan_import", "tactile_paving": "no"}}, {"type": "node", "id": 502494710, "lat": 51.7092143, "lon": -1.9691003, "tags": {"bench": "no", "bin": "no", "bus": "yes", "highway": "bus_stop", "lit": "yes", "name": "Somerford Court", "naptan:AtcoCode": "1600GLC313", "naptan:Bearing": "S", "naptan:CommonName": "Somerford Court", "naptan:Indicator": "Opp", "naptan:NaptanCode": "glogadpd", "naptan:Street": "Somerford Rd", "naptan:verified": "no", "public_transport": "platform", "shelter": "no", "source": "naptan_import", "tactile_paving": "no"}}, {"type": "node", "id": 502494714, "lat": 51.7097024, "lon": -1.9692369, "tags": {"bench": "no", "bin": "no", "bus": "yes", "highway": "bus_stop", "lit": "yes", "name": "Somerford Court", "naptan:AtcoCode": "1600GLC314", "naptan:Bearing": "N", "naptan:CommonName": "Somerford Court", "naptan:NaptanCode": "glogadmt", "naptan:Street": "Somerford Rd", "naptan:verified": "no", "public_transport": "platform", "shelter": "no", "source": "naptan_import", "tactile_paving": "no"}}, {"type": "node", "id": 502494717, "lat": 51.7051777, "lon": -1.9715777, "tags": {"bus": "yes", "highway": "bus_stop", "lit": "yes", "name": "St Lawrence's Church", "naptan:AtcoCode": "1600GLC315", "naptan:Bearing": "NW", "naptan:CommonName": "St Lawrence's Church", "naptan:Indicator": "Opp", "naptan:NaptanCode": "glogadat", "naptan:Street": "Countess Lilias Rd", "naptan:verified": "no", "public_transport": "platform", "source": "naptan_import"}}, {"type": "node", "id": 502494719, "lat": 51.705862, "lon": -1.975861, "tags": {"bus": "yes", "highway": "bus_stop", "name": "Brooke Rd", "naptan:AtcoCode": "1600GLC317", "naptan:Bearing": "W", "naptan:CommonName": "Brooke Rd", "naptan:Indicator": "Opp", "naptan:NaptanCode": "glodwtap", "naptan:Street": "Springfield Rd", "naptan:verified": "no", "public_transport": "platform", "source": "naptan_import"}}, {"type": "node", "id": 502494721, "lat": 51.7073549, "lon": -1.9771771, "tags": {"bus": "yes", "highway": "bus_stop", "lit": "yes", "name": "Apsley Road", "naptan:AtcoCode": "1600GLC319", "naptan:Bearing": "N", "naptan:CommonName": "Apsley Road", "naptan:NaptanCode": "glodwpwa", "naptan:Street": "Bowly Rd", "naptan:verified": "no", "public_transport": "platform", "source": "naptan_import"}}, {"type": "node", "id": 502494726, "lat": 51.7081262, "lon": -1.9738543, "tags": {"bench": "no", "bin": "no", "bus": "yes", "highway": "bus_stop", "lit": "no", "name": "Lawrence Road", "naptan:AtcoCode": "1600GLC321", "naptan:Bearing": "N", "naptan:CommonName": "Lawrence Road", "naptan:NaptanCode": "glodwtjg", "naptan:Street": "Bathurst Rd", "naptan:verified": "no", "public_transport": "platform", "shelter": "no", "source": "naptan_import", "tactile_paving": "no"}}, {"type": "node", "id": 502494755, "lat": 51.7147185, "lon": -1.9509246, "tags": {"bus": "yes", "highway": "bus_stop", "lit": "yes", "name": "Old Railway Footpath Bridge", "naptan:AtcoCode": "1600GLC331", "naptan:Bearing": "SE", "naptan:CommonName": "Old Railway Footpath Bridge", "naptan:NaptanCode": "glogamaj", "naptan:Street": "Golden Farm Rd", "naptan:verified": "no", "public_transport": "platform", "source": "naptan_import"}}, {"type": "node", "id": 502494779, "lat": 51.7070453, "lon": -1.9620828, "tags": {"bus": "yes", "highway": "bus_stop", "lit": "yes", "name": "Midland Rd", "naptan:AtcoCode": "1600GLC340", "naptan:Bearing": "SE", "naptan:CommonName": "Midland Rd", "naptan:NaptanCode": "glogjtwd", "naptan:Street": "Love Lane", "naptan:verified": "no", "public_transport": "platform", "source": "naptan_import"}}, {"type": "node", "id": 502494821, "lat": 51.7015436, "lon": -1.9655458, "tags": {"bus": "yes", "highway": "bus_stop", "name": "Berkeley Rd", "naptan:AtcoCode": "1600GLC361", "naptan:Bearing": "S", "naptan:CommonName": "Berkeley Rd", "naptan:Indicator": "Opp", "naptan:NaptanCode": "glogagjd", "naptan:Street": "Somerford Rd", "naptan:verified": "no", "public_transport": "platform", "source": "naptan_import"}}, {"type": "node", "id": 502494824, "lat": 51.7015526, "lon": -1.9656616, "tags": {"bus": "yes", "highway": "bus_stop", "name": "Berkeley Rd", "naptan:AtcoCode": "1600GLC362", "naptan:Bearing": "N", "naptan:CommonName": "Berkeley Rd", "naptan:NaptanCode": "glogagja", "naptan:Street": "Somerford Rd", "naptan:verified": "no", "public_transport": "platform", "source": "naptan_import"}}, {"type": "node", "id": 502494827, "lat": 51.7077574, "lon": -1.9681317, "tags": {"bench": "no", "bin": "no", "bus": "yes", "highway": "bus_stop", "lit": "no", "name": "Oaklands", "naptan:AtcoCode": "1600GLC363", "naptan:Bearing": "S", "naptan:CommonName": "Oaklands", "naptan:NaptanCode": "glogadtw", "naptan:Street": "Somerford Rd", "naptan:verified": "no", "public_transport": "platform", "shelter": "no", "source": "naptan_import", "tactile_paving": "no"}}, {"type": "node", "id": 502494829, "lat": 51.7076675, "lon": -1.9682475, "tags": {"bench": "no", "bin": "no", "bus": "yes", "highway": "bus_stop", "lit": "yes", "name": "Oaklands", "naptan:AtcoCode": "1600GLC364", "naptan:Bearing": "N", "naptan:CommonName": "Oaklands", "naptan:Indicator": "Opp", "naptan:NaptanCode": "glogadtp", "naptan:Street": "Somerford Rd", "naptan:verified": "no", "public_transport": "platform", "shelter": "no", "source": "naptan_import", "tactile_paving": "no"}}, {"type": "node", "id": 502495096, "lat": 51.7129549, "lon": -1.9701544, "tags": {"bench": "no", "bin": "no", "bus": "yes", "highway": "bus_stop", "lit": "yes", "name": "Phoenix Way", "naptan:AtcoCode": "1600GLC424", "naptan:Bearing": "NW", "naptan:CommonName": "Phoenix Way", "naptan:Indicator": "Opp", "naptan:NaptanCode": "glogadpt", "naptan:Street": "Sheep St", "naptan:verified": "no", "public_transport": "platform", "shelter": "no", "source": "naptan_import", "tactile_paving": "no"}}, {"type": "node", "id": 502495705, "lat": 51.7051584, "lon": -1.9421732, "tags": {"bus": "yes", "highway": "bus_stop", "name": "Kingsway", "naptan:AtcoCode": "1600GLC639", "naptan:Bearing": "NE", "naptan:CommonName": "Kingsway", "naptan:NaptanCode": "glogampm", "naptan:Street": "Main Street", "naptan:verified": "no", "public_transport": "platform", "source": "naptan_import"}}, {"type": "node", "id": 502495707, "lat": 51.7050842, "lon": -1.9421549, "tags": {"bus": "yes", "highway": "bus_stop", "name": "Kingsway", "naptan:AtcoCode": "1600GLC640", "naptan:Bearing": "SW", "naptan:CommonName": "Kingsway", "naptan:Indicator": "Opp", "naptan:NaptanCode": "glogampt", "naptan:Street": "Main Street", "naptan:verified": "no", "public_transport": "platform", "source": "naptan_import"}}, {"type": "node", "id": 502502388, "lat": 51.7070093, "lon": -1.9621841, "tags": {"bus": "yes", "highway": "bus_stop", "lit": "yes", "name": "Midland Rd", "naptan:AtcoCode": "1600WOZ03987", "naptan:Bearing": "NW", "naptan:CommonName": "Midland Rd", "naptan:NaptanCode": "glogagpj", "naptan:Street": "Love Lane", "naptan:verified": "no", "public_transport": "platform", "source": "naptan_import"}}, {"type": "node", "id": 589036332, "lat": 51.7167483, "lon": -1.9606625, "tags": {"bench": "yes", "bin": "yes", "bus": "yes", "highway": "bus_stop", "lit": "yes", "name": "Beeches Coach stop", "naptan:AtcoCode": "1600GL1272", "naptan:Bearing": "SW", "naptan:CommonName": "Beeches Car Park", "naptan:Indicator": "by", "naptan:NaptanCode": "glogagtd", "naptan:Street": "London Road", "naptan:verified": "no", "public_transport": "platform", "shelter": "no", "tactile_paving": "no"}}, {"type": "node", "id": 599576160, "lat": 51.7227156, "lon": -1.9719687, "tags": {"bus": "yes", "highway": "bus_stop", "name": "Bowling Green Lane", "naptan:AtcoCode": "1600GLC190", "naptan:Bearing": "NW", "naptan:CommonName": "Bowling Green Lane", "naptan:Indicator": "opp", "naptan:NaptanCode": "glogadga", "naptan:Street": "Abbey Way", "naptan:verified": "no", "public_transport": "platform"}}, {"type": "node", "id": 599576161, "lat": 51.7226499, "lon": -1.9712831, "tags": {"bus": "yes", "highway": "bus_stop", "name": "Bowling Green Lane", "naptan:AtcoCode": "1600GLC189", "naptan:Bearing": "SE", "naptan:CommonName": "Bowling Green Lane", "naptan:Indicator": "after", "naptan:NaptanCode": "glogadgm", "naptan:Street": "Abbey Way", "naptan:verified": "no", "public_transport": "platform"}}, {"type": "node", "id": 602253725, "lat": 51.7170146, "lon": -1.9560816, "tags": {"bus": "yes", "highway": "bus_stop", "lit": "yes", "name": "The Green", "naptan:AtcoCode": "1600GLC285", "naptan:Bearing": "S", "naptan:CommonName": "The Green", "naptan:NaptanCode": "glogajdp", "naptan:Street": "Upper Churnside", "naptan:verified": "no", "public_transport": "platform", "source": "naptan_import"}}, {"type": "node", "id": 603081508, "lat": 51.7043859, "lon": -1.9445312, "tags": {"bus": "yes", "highway": "bus_stop", "name": "Preston Toll Bar", "naptan:AtcoCode": "1600GLC278", "naptan:Bearing": "SW", "naptan:BusStopType": "CUS", "naptan:CommonName": "Preston Toll Bar", "naptan:NaptanCode": "glogamjd", "naptan:Street": "Kingshill Ln", "naptan:verified": "no", "public_transport": "platform", "source": "naptan_import"}}, {"type": "node", "id": 604671772, "lat": 51.7266855, "lon": -1.976886, "tags": {"bus": "yes", "highway": "bus_stop", "name": "Old Meeting Hall", "naptan:AtcoCode": "1600GLC188", "naptan:Bearing": "NE", "naptan:CommonName": "Old Meeting Hall", "naptan:Indicator": "opp", "naptan:NaptanCode": "glodwpwm", "naptan:Street": "Cheltenham Road", "naptan:verified": "no", "public_transport": "platform"}}, {"type": "node", "id": 3745586347, "lat": 51.734597, "lon": -1.9721618, "tags": {"bus": "yes", "highway": "bus_stop", "name": "Churn Court", "naptan:AtcoCode": "1600GLC183", "naptan:Bearing": "SW", "naptan:CommonName": "Churn Court", "naptan:Indicator": "Opp", "naptan:NaptanCode": "glodwtwj", "naptan:Street": "Cheltenham Rd", "naptan:verified": "no", "public_transport": "platform", "source": "naptan_import"}}, {"type": "node", "id": 3750961620, "lat": 51.7173223, "lon": -1.9429949, "tags": {"bus": "yes", "highway": "bus_stop", "name": "Kingshill School", "naptan:AtcoCode": "1600GL1290", "naptan:Bearing": "S", "naptan:CommonName": "Kingshill School", "naptan:Indicator": "Opp", "naptan:NaptanCode": "glogampg", "naptan:Street": "Kingshill Lane", "naptan:verified": "no", "public_transport": "platform", "source": "naptan_import"}}, {"type": "node", "id": 3751410818, "lat": 51.7239834, "lon": -1.9712689, "tags": {"bus": "yes", "highway": "bus_stop", "name": "Shepherds Way", "naptan:AtcoCode": "1600GLC302", "naptan:Bearing": "N", "naptan:CommonName": "Shepherds Way", "naptan:Indicator": "Opp", "naptan:NaptanCode": "glogadaw", "naptan:Street": "Bowling Green Ln", "naptan:verified": "no", "public_transport": "platform", "source": "naptan_import"}}, {"type": "node", "id": 3757690639, "lat": 51.7138867, "lon": -1.9722309, "tags": {"bench": "no", "bin": "no", "bus": "yes", "highway": "bus_stop", "lit": "yes", "name": "Waitrose Store", "naptan:AtcoCode": "1600GL1305", "naptan:Bearing": "SW", "naptan:CommonName": "Waitrose Store", "naptan:NaptanCode": "glodwtwa", "naptan:Street": "Hammond Way", "naptan:verified": "no", "public_transport": "platform", "shelter": "no", "source": "naptan_import", "tactile_paving": "no"}}, {"type": "node", "id": 6860806996, "lat": 51.7039491, "lon": -1.9534026, "tags": {"bus": "yes", "highway": "bus_stop", "name": "Cherry Tree Drive", "naptan:AtcoCode": "1600GLC203", "naptan:Bearing": "SE", "naptan:CommonName": "Cherry Tree Drive", "naptan:NaptanCode": "glogajpa", "naptan:Street": "Siddington Rd", "naptan:verified": "no", "public_transport": "platform", "source": "naptan_import"}}, {"type": "node", "id": 9919903172, "lat": 51.7168772, "lon": -1.9659232, "tags": {"bus": "yes", "highway": "bus_stop", "name": "Bingham Library", "naptan:AtcoCode": "1600GL1281", "naptan:Bearing": "E", "naptan:CommonName": "Parish Church", "naptan:Indicator": "opp", "naptan:NaptanCode": "glogadwa", "naptan:Street": "Dyer Street", "naptan:verified": "no", "public_transport": "platform"}}, {"type": "node", "id": 11207772836, "lat": 51.7079683, "lon": -1.9653526, "tags": {"bus": "yes", "highway": "bus_stop", "name": "Meadow Court", "naptan:AtcoCode": "160000556", "naptan:Bearing": "E", "naptan:CommonName": "Meadow Court", "naptan:Indicator": "by", "naptan:NaptanCode": "glojadgm", "naptan:verified": "no", "public_transport": "platform"}}, {"type": "node", "id": 11248435355, "lat": 51.7038824, "lon": -1.9535318, "tags": {"bus": "yes", "highway": "bus_stop", "name": "Cherry Tree Drive", "naptan:AtcoCode": "1600GLC204", "naptan:Bearing": "NW", "naptan:CommonName": "Cherry Tree Drive", "naptan:Indicator": "after", "naptan:NaptanCode": "glogajmw", "naptan:Street": "Siddington Road", "naptan:verified": "no", "public_transport": "platform"}}, {"type": "node", "id": 11745267454, "lat": 51.7151522, "lon": -1.9639073, "tags": {"bench": "no", "bin": "no", "bus": "yes", "highway": "bus_stop", "lit": "yes", "name": "Bingham Place", "naptan:AtcoCode": "1600GLA06081", "naptan:CommonName": "Bingham Place", "naptan:NaptanCode": "glogpdmd", "naptan:ShortCommonName": "School Bus Only", "naptan:Street": "Lewis Ln", "naptan:verified": "no", "public_transport": "platform", "shelter": "no", "source": "naptan_import", "tactile_paving": "no"}}, {"type": "node", "id": 11827137424, "lat": 51.7154364, "lon": -1.9658647, "tags": {"bench": "yes", "bin": "yes", "bus": "yes", "highway": "bus_stop", "lit": "yes", "name": "The Forum", "naptan:AtcoCode": "1600GLC002", "naptan:CommonName": "The Forum", "naptan:NaptanCode": "glogagdm", "naptan:Street": "South Way", "public_transport": "platform", "shelter": "yes", "tactile_paving": "no"}}, {"type": "node", "id": 11827137425, "lat": 51.7151057, "lon": -1.9653282, "tags": {"bench": "yes", "bin": "yes", "bus": "yes", "highway": "bus_stop", "lit": "yes", "name": "The Forum", "naptan:AtcoCode": "160000537", "naptan:CommonName": "The Forum", "naptan:NaptanCode": "glogwpjp", "naptan:Street": "South Way", "public_transport": "platform", "shelter": "yes", "tactile_paving": "no"}}, {"type": "node", "id": 11835487251, "lat": 51.7094704, "lon": -1.9517702, "tags": {"bus": "yes", "highway": "bus_stop", "lit": "yes", "name": "Mulberry Court", "naptan:AtcoCode": "160000333", "naptan:CommonName": "Mulberry Court", "naptan:NaptanCode": "glogwdga", "naptan:Street": "Middle Mead", "public_transport": "platform"}}, {"type": "node", "id": 11835487258, "lat": 51.7181466, "lon": -1.9569928, "tags": {"bench": "no", "bin": "no", "bus": "yes", "highway": "bus_stop", "lit": "yes", "name": "Burford Rd", "naptan:AtcoCode": "1600GLC003", "naptan:Bearing": "E", "naptan:CommonName": "Burford Rd", "naptan:Indicator": "Corner Of", "naptan:NaptanCode": "glogajap", "naptan:Street": "London Rd", "public_transport": "platform", "shelter": "no", "tactile_paving": "no"}}, {"type": "node", "id": 11835487259, "lat": 51.7181573, "lon": -1.9687865, "tags": {"bus": "yes", "highway": "bus_stop", "name": "Abbey House", "naptan:AtcoCode": "1600GLC194", "naptan:Bearing": "NW", "naptan:CommonName": "Abbey House", "naptan:Indicator": "O/S", "naptan:NaptanCode": "glogadta", "naptan:Street": "Gosditch Street", "public_transport": "platform"}}, {"type": "node", "id": 11835487260, "lat": 51.7300606, "lon": -1.9804243, "tags": {"bus": "yes", "highway": "bus_stop", "name": "The Plough", "naptan:AtcoCode": "1600GL4541", "naptan:Bearing": "SE", "naptan:CommonName": "The Plough", "naptan:NaptanCode": "glodwpjt", "naptan:Street": "Gloucester Road", "public_transport": "platform"}}, {"type": "node", "id": 11835487262, "lat": 51.7177848, "lon": -1.9684213, "tags": {"bench": "yes", "bin": "yes", "bus": "yes", "highway": "bus_stop", "lit": "no", "name": "Abbey House", "naptan:AtcoCode": "1600GLC193", "naptan:Bearing": "S", "naptan:CommonName": "Abbey House", "naptan:Indicator": "After", "naptan:NaptanCode": "glogadtm", "naptan:Street": "Gosditch Street", "public_transport": "platform", "shelter": "no", "tactile_paving": "no"}}, {"type": "node", "id": 11835487263, "lat": 51.7156664, "lon": -1.9722417, "tags": {"bus": "yes", "highway": "bus_stop", "name": "Old Station Car Park", "naptan:AtcoCode": "1600GL1310", "naptan:Bearing": "NE", "naptan:CommonName": "Old Station Car Park", "naptan:NaptanCode": "glodwtwd", "naptan:Street": "Tetbury Road", "public_transport": "platform", "source": "naptan_import"}}, {"type": "node", "id": 12023684023, "lat": 51.7171589, "lon": -1.9562223, "tags": {"bus": "yes", "highway": "bus_stop", "lit": "yes", "name": "The Green", "naptan:AtcoCode": "1600GLC286", "naptan:Bearing": "N", "naptan:CommonName": "The Green", "naptan:NaptanCode": "glogajdm", "naptan:Street": "Upper Churnside", "naptan:verified": "no", "public_transport": "platform", "signed": "no", "source": "naptan_import"}}, {"type": "node", "id": 12023684024, "lat": 51.7178023, "lon": -1.9541964, "tags": {"bus": "yes", "highway": "bus_stop", "lit": "yes", "name": "Whitelands Rd", "naptan:AtcoCode": "1600GL4688", "naptan:Bearing": "N", "naptan:CommonName": "Whitelands Rd", "naptan:NaptanCode": "glogajmd", "naptan:Street": "Churchill Rd", "naptan:verified": "no", "public_transport": "platform", "signed": "no", "source": "naptan_import"}}, {"type": "node", "id": 12036010845, "lat": 51.7113483, "lon": -1.9964099, "tags": {"bus": "yes", "highway": "bus_stop", "name": "Royal Agricultural University", "naptan:AtcoCode": "1600GLC656", "naptan:Bearing": "W", "naptan:CommonName": "Deer Park School", "naptan:Indicator": "nr", "naptan:NaptanCode": "glodwmjt", "naptan:Street": "Stroud Road A419", "naptan:verified": "no", "public_transport": "platform", "signed": "no"}}, {"type": "node", "id": 12036010846, "lat": 51.7114614, "lon": -1.9967906, "tags": {"bus": "yes", "highway": "bus_stop", "name": "Royal Agricultural University", "naptan:AtcoCode": "1600GLC655", "naptan:Bearing": "E", "naptan:CommonName": "Deer Park School", "naptan:Indicator": "opp", "naptan:NaptanCode": "glodwmjp", "naptan:Street": "Stroud Road A419", "naptan:verified": "no", "public_transport": "platform", "signed": "no"}}, {"type": "node", "id": 12036010847, "lat": 51.7078232, "lon": -1.9652113, "tags": {"bus": "yes", "highway": "bus_stop", "name": "Meadow Court", "naptan:AtcoCode": "160000555", "naptan:Bearing": "W", "naptan:CommonName": "Meadow Court", "naptan:Indicator": "opp", "naptan:NaptanCode": "glojadgj", "naptan:verified": "no", "public_transport": "platform"}}, {"type": "node", "id": 12174442825, "lat": 51.7037034, "lon": -1.9445027, "tags": {"bus": "yes", "highway": "bus_stop", "name": "Preston Toll Bar", "naptan:Bearing": "SE", "naptan:CommonName": "Preston Toll Bar", "naptan:Street": "Swindon Rd", "naptan:verified": "no", "public_transport": "platform", "source": "naptan_import"}}, {"type": "node", "id": 12174442826, "lat": 51.7131841, "lon": -1.9838176, "tags": {"bus": "yes", "highway": "bus_stop", "name": "Cirencester College", "naptan:AtcoCode": "160000662", "naptan:Bearing": "N", "naptan:CommonName": "College Grounds (Scholars", "naptan:Indicator": "inside", "naptan:NaptanCode": "glojajaw", "naptan:Street": "Swindon Rd", "naptan:verified": "no", "public_transport": "platform", "source": "naptan_import"}}, {"type": "node", "id": 12290423164, "lat": 51.7167726, "lon": -1.9608854, "tags": {"bench": "yes", "bus": "yes", "highway": "bus_stop", "name": "Beeches Coach stop", "naptan:AtcoCode": "1600GL1271", "naptan:Bearing": "NE", "naptan:CommonName": "Beeches Car Park", "naptan:Indicator": "opp", "naptan:NaptanCode": "glogagta", "naptan:Street": "London Road", "naptan:verified": "no", "public_transport": "platform", "shelter": "no"}}, {"type": "node", "id": 12290423166, "lat": 51.7265871, "lon": -1.976733, "tags": {"bus": "yes", "highway": "bus_stop", "name": "Old Meeting Hall", "public_transport": "platform"}}, {"type": "node", "id": 13295341289, "lat": 51.7323026, "lon": -1.944212, "tags": {"bus": "yes", "highway": "bus_stop", "name": "Abbey Home Farm", "public_transport": "platform"}}, {"type": "node", "id": 13295341290, "lat": 51.7255707, "lon": -1.9440076, "tags": {"bus": "yes", "highway": "bus_stop", "name": "Stow Lodge", "public_transport": "platform"}}, {"type": "node", "id": 13295341291, "lat": 51.725594, "lon": -1.9441862, "tags": {"bus": "yes", "highway": "bus_stop", "name": "Stow Lodge", "public_transport": "platform"}}, {"type": "node", "id": 13295341292, "lat": 51.7324062, "lon": -1.9443765, "tags": {"bus": "yes", "highway": "bus_stop", "name": "Abbey Home Farm", "public_transport": "platform"}}]}