{"version": 0.6, "generator": "Overpass API 0.7.62.10 2d4cfc48", "osm3s": {"timestamp_osm_base": "2026-03-01T06:30:25Z", "copyright": "The data included in this document is from www.openstreetmap.org. The data is made available under ODbL."}, "elements": [{"type": "node", "id": 4093153848, "lat": 54.3783223, "lon": -2.906031}, {"type": "node", "id": 4093153850, "lat": 54.3783112, "lon": -2.9060732}, {"type": "node", "id": 4093153851, "lat": 54.3782746, "lon": -2.9060431}, {"type": "node", "id": 4093153853, "lat": 54.3782383, "lon": -2.9061316}, {"type": "node", "id": 4093153854, "lat": 54.3782688, "lon": -2.906017}, {"type": "node", "id": 4093153855, "lat": 54.3782797, "lon": -2.906023}, {"type": "node", "id": 4093153856, "lat": 54.3784015, "lon": -2.9057797}, {"type": "node", "id": 4093153857, "lat": 54.3783024, "lon": -2.9057045}, {"type": "node", "id": 4093153858, "lat": 54.3782621, "lon": -2.9058507}, {"type": "node", "id": 4093153859, "lat": 54.3782309, "lon": -2.9058299}, {"type": "node", "id": 4093153860, "lat": 54.3781735, "lon": -2.9060994}, {"type": "node", "id": 4093153868, "lat": 54.378256, "lon": -2.9058466}, {"type": "node", "id": 4093153870, "lat": 54.3781301, "lon": -2.9056438}, {"type": "node", "id": 4093153871, "lat": 54.3780897, "lon": -2.9058518}, {"type": "node", "id": 4093153877, "lat": 54.3780438, "lon": -2.9058279}, {"type": "node", "id": 4093153878, "lat": 54.3780836, "lon": -2.905618}, {"type": "node", "id": 4093154107, "lat": 54.3783944, "lon": -2.9058022}, {"type": "node", "id": 4174717572, "lat": 54.370895, "lon": -2.9131928, "tags": {"addr:city": "Windermere", "addr:housename": "Windermere Health Centre", "addr:postcode": "LA23 2EG", "addr:street": "Goodly Dale", "amenity": "pharmacy", "healthcare": "pharmacy", "name": "Windermere Health Centre Pharmacy", "opening_hours": "Mo-Fr 09:00-18:00; Sa,Su off", "phone": "+44 15394 43139"}}, {"type": "way", "id": 407266157, "nodes": [4093153853, 4093153854, 4093153855, 4093153851, 4093153850, 4093153848, 4093154107, 4093153856, 4093153857, 4093153858, 4093153868, 4093153859, 4093153860, 4093153853], "tags": {"addr:city": "Windermere", "addr:housenumber": "10-12", "addr:postcode": "LA23 1EA", "addr:street": "Crescent Road", "amenity": "pharmacy", "brand": "Boots", "brand:wikidata": "Q6123139", "brand:wikipedia": "en:Boots (company)", "building": "yes", "check_date": "2025-12-27", "check_date:opening_hours": "2025-12-27", "dispensing": "yes", "fhrs:id": "299403", "healthcare": "pharmacy", "name": "Boots", "opening_hours": "Mo-Sa 09:00-17:00; Su,PH off", "payment:cash": "yes", "ref:GB:uprn": "100110352918;100110700700;100110757206", "website": "https://www.boots.com/stores/1272-windermere-crescent-road-la23-1ea"}}, {"type": "way", "id": 407266162, "nodes": [4093153871, 4093153877, 4093153878, 4093153870, 4093153871], "tags": {"addr:city": "Windermere", "addr:housenumber": "16", "addr:postcode": "LA23 1DT", "addr:street": "Crescent Road", "amenity": "pharmacy", "building": "yes", "check_date": "2025-12-27", "check_date:opening_hours": "2025-12-27", "dispensing": "yes", "fhrs:id": "299580", "healthcare": "pharmacy", "name": "Windermere Community Pharmacy", "opening_hours": "Mo-Fr 09:00-17:30; Sa 09:00-14:00; Su,PH off", "ref:GB:uprn": "100110757386"}}]}