{"version": 0.6, "generator": "Overpass API 0.7.62.10 2d4cfc48", "osm3s": {"timestamp_osm_base": "2026-03-01T06:01:44Z", "copyright": "The data included in this document is from www.openstreetmap.org. The data is made available under ODbL."}, "elements": [{"type": "node", "id": 434345166, "lat": 51.0184162, "lon": -4.2045555, "tags": {"bench": "yes", "bin": "yes", "bus": "yes", "highway": "bus_stop", "lit": "yes", "local_ref": "C", "name": "Bideford Quay", "naptan:AtcoCode": "1100DEA10706", "naptan:Bearing": "N", "naptan:CommonName": "Bideford Quay", "naptan:Indicator": "Stop D", "naptan:NaptanCode": "dvnagjgt", "naptan:Street": "The Quay", "naptan:verified": "no", "public_transport": "platform", "shelter": "yes", "tactile_paving": "no"}}, {"type": "node", "id": 434345206, "lat": 51.0182449, "lon": -4.2045885, "tags": {"bench": "yes", "bin": "no", "bus": "yes", "highway": "bus_stop", "lit": "yes", "local_ref": "D", "name": "Bideford Quay", "naptan:AtcoCode": "1100DEA10707", "naptan:Bearing": "N", "naptan:CommonName": "Bideford Quay", "naptan:Indicator": "Stop C", "naptan:NaptanCode": "dvnagjgj", "naptan:Street": "The Quay", "naptan:verified": "no", "public_transport": "platform", "shelter": "yes", "tactile_paving": "no"}}, {"type": "node", "id": 434603903, "lat": 51.0146538, "lon": -4.1952397, "tags": {"bus": "yes", "highway": "bus_stop", "name": "Avon Road", "naptan:AtcoCode": "1100DEA11117", "naptan:Bearing": "E", "naptan:CommonName": "Avon Road", "naptan:Indicator": "E-bound", "naptan:NaptanCode": "dvnagmdm", "naptan:Street": "Torrington Lane", "naptan:verified": "no", "public_transport": "platform"}}, {"type": "node", "id": 434604398, "lat": 51.0146737, "lon": -4.1962686, "tags": {"bus": "yes", "highway": "bus_stop", "name": "Avon Road", "naptan:AtcoCode": "1100DEA11116", "naptan:Bearing": "W", "naptan:CommonName": "Avon Road", "naptan:Indicator": "W-bound", "naptan:NaptanCode": "dvnagmap", "naptan:Street": "Torrington Lane", "naptan:verified": "no", "public_transport": "platform"}}, {"type": "node", "id": 10945163007, "lat": 51.0232276, "lon": -4.208848, "tags": {"bench": "no", "bin": "no", "bus": "yes", "highway": "bus_stop", "lit": "yes", "name": "The Sports Ground", "naptan:AtcoCode": "1100DEA10516", "naptan:Bearing": "SE", "naptan:CommonName": "The Sports Ground", "naptan:Indicator": "SE-bound", "naptan:NaptanCode": "dvnagdtm", "naptan:Street": "Kingsley Road", "naptan:verified": "no", "public_transport": "platform", "shelter": "no", "tactile_paving": "no"}}, {"type": "node", "id": 10945163295, "lat": 51.0243676, "lon": -4.2098545, "tags": {"bench": "yes", "bin": "no", "bus": "yes", "highway": "bus_stop", "lit": "yes", "name": "Chanters Road", "naptan:AtcoCode": "1100DEA10518", "naptan:Bearing": "SE", "naptan:CommonName": "Chanters Road", "naptan:Indicator": "SE-bound", "naptan:NaptanCode": "dvnagdpd", "naptan:Street": "Kingsley Road", "naptan:verified": "no", "public_transport": "platform", "shelter": "yes", "tactile_paving": "no"}}, {"type": "node", "id": 10945163430, "lat": 51.0261799, "lon": -4.2133628, "tags": {"bench": "yes", "bin": "no", "bus": "yes", "highway": "bus_stop", "lit": "no", "name": "Raleigh Garage", "naptan:AtcoCode": "1100DEA10709", "naptan:Bearing": "S", "naptan:CommonName": "Raleigh Garage", "naptan:Indicator": "S-bound", "naptan:NaptanCode": "dvnagata", "naptan:Street": "Kingsley Road", "naptan:verified": "no", "public_transport": "platform", "shelter": "yes", "tactile_paving": "no"}}, {"type": "node", "id": 10948809050, "lat": 51.0191209, "lon": -4.2041393, "tags": {"bench": "yes", "bin": "no", "bus": "yes", "highway": "bus_stop", "lit": "yes", "local_ref": "B", "name": "Bideford Quay", "public_transport": "platform", "shelter": "yes", "tactile_paving": "no"}}, {"type": "node", "id": 10948809051, "lat": 51.0193622, "lon": -4.204073, "tags": {"bench": "yes", "bin": "yes", "bus": "yes", "highway": "bus_stop", "lit": "yes", "local_ref": "A", "name": "Bideford Quay", "public_transport": "platform", "shelter": "yes", "tactile_paving": "no"}}, {"type": "node", "id": 10948809842, "lat": 51.0209305, "lon": -4.2045785, "tags": {"bench": "no", "bus": "yes", "highway": "bus_stop", "naptan:AtcoCode": "1100DEA10511", "naptan:NaptanCode": "dvnagjdw", "public_transport": "platform", "shelter": "no"}}, {"type": "node", "id": 10951481715, "lat": 51.0286197, "lon": -4.2132448, "tags": {"bench": "yes", "bin": "no", "bus": "yes", "highway": "bus_stop", "lit": "yes", "name": "Heywood Road", "naptan:AtcoCode": "1100DEA06005", "naptan:Bearing": "NE", "naptan:BusStopType": "CUS", "naptan:CommonName": "Heywood Road", "naptan:Indicator": "NE-bound", "naptan:NaptanCode": "dvngmjpt", "naptan:Street": "Heywood Road", "naptan:verified": "no", "public_transport": "platform", "shelter": "yes", "tactile_paving": "no"}}, {"type": "node", "id": 10951481810, "lat": 51.0268412, "lon": -4.2139254, "tags": {"bench": "yes", "bin": "no", "bus": "yes", "highway": "bus_stop", "lit": "no", "name": "Raleigh Garage", "naptan:AtcoCode": "1100DEA10710", "naptan:Bearing": "N", "naptan:CommonName": "Raleigh Garage", "naptan:Indicator": "N-bound", "naptan:NaptanCode": "dvnagapt", "naptan:Street": "Heywood Road", "naptan:verified": "no", "public_transport": "platform", "shelter": "yes", "tactile_paving": "no"}}, {"type": "node", "id": 10951482058, "lat": 51.0240542, "lon": -4.2097874, "tags": {"bench": "yes", "bin": "no", "bus": "yes", "highway": "bus_stop", "lit": "yes", "name": "Chanters Road", "naptan:AtcoCode": "1100DEA10519", "naptan:Bearing": "NW", "naptan:CommonName": "Chanters Road", "naptan:Indicator": "NW-bound", "naptan:NaptanCode": "dvnagdmt", "naptan:Street": "Kingsley Road", "naptan:verified": "no", "public_transport": "platform", "shelter": "yes", "tactile_paving": "no"}}, {"type": "node", "id": 10951570409, "lat": 51.0335056, "lon": -4.2126614, "tags": {"bench": "yes", "bin": "yes", "bus": "yes", "highway": "bus_stop", "lit": "no", "naptan:AtcoCode": "1100DEA10713", "naptan:NaptanCode": "dvnagdat", "public_transport": "platform", "shelter": "yes", "tactile_paving": "no"}}, {"type": "node", "id": 11778070942, "lat": 51.0190371, "lon": -4.1995924, "tags": {"bus": "yes", "highway": "bus_stop", "name": "Salterns Terrace", "naptan:AtcoCode": "1100DEA11137", "naptan:Bearing": "N", "naptan:CommonName": "Salterns Terrace", "naptan:Indicator": "opp", "naptan:NaptanCode": "dvnagjwd", "naptan:Street": "Barnstaple Street", "naptan:verified": "no", "public_transport": "platform"}}, {"type": "node", "id": 11778070950, "lat": 51.0189803, "lon": -4.1994933, "tags": {"bus": "yes", "highway": "bus_stop", "public_transport": "platform"}}, {"type": "node", "id": 11778070951, "lat": 51.0171757, "lon": -4.2005928, "tags": {"bench": "yes", "bin": "no", "bus": "yes", "highway": "bus_stop", "lit": "no", "name": "Ship On Launch", "naptan:AtcoCode": "1100DEA11136", "naptan:Bearing": "SW", "naptan:CommonName": "Ship On Launch", "naptan:Indicator": "SW-bound", "naptan:NaptanCode": "dvnagjtj", "naptan:Street": "Barnstaple Street", "naptan:verified": "no", "public_transport": "platform", "shelter": "yes", "tactile_paving": "no"}}, {"type": "node", "id": 11778070956, "lat": 51.0171291, "lon": -4.2007576, "tags": {"bench": "yes", "bin": "no", "bus": "yes", "highway": "bus_stop", "lit": "yes", "name": "Ship On Launch", "naptan:AtcoCode": "1100DEA11135", "naptan:Bearing": "NE", "naptan:CommonName": "Ship On Launch", "naptan:Indicator": "opp", "naptan:NaptanCode": "dvnagjtd", "naptan:Street": "Barnstaple Street", "naptan:verified": "no", "public_transport": "platform", "shelter": "yes", "tactile_paving": "no"}}, {"type": "node", "id": 11808190496, "lat": 51.0188649, "lon": -4.1995856, "tags": {"bench": "no", "bin": "no", "bus": "yes", "highway": "bus_stop", "public_transport": "platform", "shelter": "no", "tactile_paving": "no"}}, {"type": "node", "id": 12492120059, "lat": 51.0191209, "lon": -4.2041393, "tags": {"bench": "yes", "bin": "no", "bus": "yes", "highway": "bus_stop", "lit": "yes", "local_ref": "B", "name": "Bideford Quay", "naptan:AtcoCode": "1100DEA10702", "naptan:Bearing": "S", "naptan:CommonName": "Bideford Quay", "naptan:Indicator": "Stop B", "naptan:NaptanCode": "dvnagjgm", "naptan:Street": "The Quay", "naptan:verified": "no", "public_transport": "platform", "shelter": "yes", "tactile_paving": "no"}}, {"type": "node", "id": 12492120060, "lat": 51.0193622, "lon": -4.204073, "tags": {"bench": "yes", "bin": "yes", "bus": "yes", "highway": "bus_stop", "lit": "yes", "local_ref": "A", "name": "Bideford Quay", "naptan:AtcoCode": "1100DEA10703", "naptan:Bearing": "S", "naptan:CommonName": "Bideford Quay", "naptan:Indicator": "Stop A", "naptan:NaptanCode": "dvnagjgw", "naptan:Street": "The Quay", "naptan:verified": "no", "public_transport": "platform", "shelter": "yes", "tactile_paving": "no"}}, {"type": "node", "id": 12692118326, "lat": 51.0315061, "lon": -4.2124161, "tags": {"bus": "yes", "highway": "bus_stop", "name": "Limers Lane", "naptan:AtcoCode": "1100DEA10712", "naptan:Bearing": "S", "naptan:CommonName": "Limers Lane", "naptan:Indicator": "S-bound", "naptan:NaptanCode": "dvnagdgm", "naptan:Street": "Heywood Road", "public_transport": "platform", "survey:date": "2025-03-22"}}, {"type": "node", "id": 12692118327, "lat": 51.0314869, "lon": -4.2125392, "tags": {"bus": "yes", "highway": "bus_stop", "name": "Limers Lane", "naptan:AtcoCode": "1100DEA10711", "naptan:Bearing": "N", "naptan:CommonName": "Limers Lane", "naptan:Indicator": "N-bound", "naptan:NaptanCode": "dvnagdam", "naptan:Street": "Heywood Road", "public_transport": "platform", "survey:date": "2025-03-22"}}]}