{"version": 0.6, "generator": "Overpass API 0.7.62.10 2d4cfc48", "osm3s": {"timestamp_osm_base": "2026-03-01T06:11:54Z", "copyright": "The data included in this document is from www.openstreetmap.org. The data is made available under ODbL."}, "elements": [{"type": "node", "id": 1619589526, "lat": 54.0005776, "lon": -1.4683798, "tags": {"bus": "yes", "highway": "bus_stop", "naptan:AtcoCode": "3200YND57160", "naptan:NaptanCode": "32057160", "public_transport": "platform"}}, {"type": "node", "id": 2180069183, "lat": 54.0098415, "lon": -1.4636587, "tags": {"bus": "yes", "highway": "bus_stop", "name": "St. Johns School", "naptan:AtcoCode": "3200YND10990", "naptan:Bearing": "NW", "naptan:CommonName": "Castle School", "naptan:Indicator": "SW-bound", "naptan:NaptanCode": "32010990", "naptan:PlusbusZoneRef": "HAGT", "naptan:Street": "Stockwell Court", "naptan:verified": "no", "public_transport": "platform", "source": "Bing"}}, {"type": "node", "id": 2657143875, "lat": 53.9998692, "lon": -1.4484124, "tags": {"bus": "yes", "departures_board": "timetable", "highway": "bus_stop", "name": "Grimbald Bridge", "naptan:AtcoCode": "3200YND78380", "naptan:NaptanCode": "32078380", "public_transport": "platform", "shelter": "yes"}}, {"type": "node", "id": 2657143876, "lat": 53.9994611, "lon": -1.4451396, "tags": {"bus": "yes", "departures_board": "timetable", "highway": "bus_stop", "name": "St James Retail Park", "naptan:AtcoCode": "3200YND78040", "naptan:Bearing": "SE", "naptan:BusStopType": "CUS", "naptan:CommonName": "St James Retail Park", "naptan:Indicator": "SE-bound", "naptan:NaptanCode": "32078040", "naptan:PlusbusZoneRef": "HAGT", "naptan:Street": "Grimbald Crag Way", "naptan:verified": "no", "public_transport": "platform", "shelter": "yes"}}, {"type": "node", "id": 3015418261, "lat": 54.010632, "lon": -1.4735417, "tags": {"bus": "yes", "highway": "bus_stop", "naptan:AtcoCode": "3200YNA96389", "naptan:NaptanCode": "32096389", "public_transport": "platform"}}, {"type": "node", "id": 3120564375, "lat": 54.0006821, "lon": -1.4972326, "tags": {"bus": "yes", "highway": "bus_stop", "name": "The Avenue", "naptan:AtcoCode": "3200YND10770", "naptan:Bearing": "NE", "naptan:CommonName": "The Avenue", "naptan:Indicator": "NE-bound", "naptan:NaptanCode": "32010770", "naptan:PlusbusZoneRef": "HAGT", "naptan:Street": "High Street", "naptan:verified": "no", "public_transport": "platform"}}, {"type": "node", "id": 3120564391, "lat": 54.0000316, "lon": -1.4977779, "tags": {"bus": "yes", "highway": "bus_stop", "naptan:AtcoCode": "3200YND10880", "naptan:NaptanCode": "32010880", "public_transport": "platform", "shelter": "yes"}}, {"type": "node", "id": 4525592223, "lat": 54.003038, "lon": -1.4943477, "tags": {"bus": "yes", "highway": "bus_stop", "public_transport": "platform"}}, {"type": "node", "id": 4525615891, "lat": 54.0025194, "lon": -1.494953, "tags": {"bus": "yes", "highway": "bus_stop", "name": "Forest Lane Head", "naptan:AtcoCode": "3200YND10870", "naptan:Bearing": "SW", "naptan:CommonName": "Forest Lane Head", "naptan:Indicator": "SW-bound", "naptan:NaptanCode": "32010870", "naptan:PlusbusZoneRef": "HAGT", "naptan:Street": "High Street", "naptan:verified": "no", "public_transport": "platform"}}, {"type": "node", "id": 6035156812, "lat": 53.9999535, "lon": -1.4482896, "tags": {"bench": "no", "bus": "yes", "departures_board": "timetable", "highway": "bus_stop", "name": "Grimbald Bridge", "naptan:AtcoCode": "3200YND78030", "naptan:NaptanCode": "32078030", "network": "BCT Bus Stop", "public_transport": "platform", "ref": "436258", "shelter": "no"}}, {"type": "node", "id": 7962768257, "lat": 54.0065127, "lon": -1.4419959, "tags": {"bus": "yes", "highway": "bus_stop", "naptan:AtcoCode": "3200YND56930", "naptan:NaptanCode": "32056930", "public_transport": "platform", "shelter": "no"}}, {"type": "node", "id": 8149541224, "lat": 54.008536, "lon": -1.4753876, "tags": {"bus": "yes", "highway": "bus_stop", "name": "High Bridge", "naptan:AtcoCode": "3200YND10810", "naptan:Bearing": "SW", "naptan:CommonName": "High Bridge", "naptan:Indicator": "SW-bound", "naptan:NaptanCode": "32010810", "naptan:PlusbusZoneRef": "HAGT", "naptan:Street": "Harrogate Road", "naptan:verified": "no", "public_transport": "platform", "shelter": "yes"}}, {"type": "node", "id": 8602312893, "lat": 54.0056527, "lon": -1.4509663, "tags": {"bench": "yes", "bus": "yes", "highway": "bus_stop", "name": "Lidl", "naptan:AtcoCode": "3200YND56730", "naptan:Bearing": "E", "naptan:CommonName": "Lidl", "naptan:Indicator": "E-bound", "naptan:NaptanCode": "32056730", "naptan:PlusbusZoneRef": "HAGT", "naptan:Street": "A59", "naptan:verified": "no", "public_transport": "platform", "shelter": "yes"}}, {"type": "node", "id": 8773985292, "lat": 54.0043931, "lon": -1.4913035, "tags": {"bench": "yes", "bus": "yes", "departures_board": "timetable", "highway": "bus_stop", "name": "Golf Club", "naptan:AtcoCode": "3200YND10860", "naptan:Bearing": "SW", "naptan:CommonName": "Golf Club", "naptan:Indicator": "SW bound", "naptan:NaptanCode": "32010860", "naptan:PlusbusZoneRef": "HAGT", "naptan:Street": "Forest Lane Head", "naptan:verified": "no", "public_transport": "platform", "shelter": "yes"}}, {"type": "node", "id": 8773985297, "lat": 54.00443, "lon": -1.4916767, "tags": {"bus": "yes", "departures_board": "timetable", "highway": "bus_stop", "public_transport": "platform", "shelter": "no"}}, {"type": "node", "id": 9392032362, "lat": 53.9925553, "lon": -1.4933058, "tags": {"bus": "yes", "highway": "bus_stop", "name": "Hookstone Park", "naptan:AtcoCode": "3200YND57110", "naptan:Bearing": "NE", "naptan:CommonName": "Hookstone Park", "naptan:Indicator": "adj", "naptan:NaptanCode": "32057110", "naptan:PlusbusZoneRef": "HAGT", "naptan:Street": "Hookstone Chase", "naptan:verified": "no", "public_transport": "platform"}}, {"type": "node", "id": 9959774305, "lat": 53.9996365, "lon": -1.4554262, "tags": {"bus": "yes", "departures_board": "timetable", "highway": "bus_stop", "name": "Aspin View", "naptan:AtcoCode": "3200YNA96390", "naptan:NaptanCode": "32096390", "public_transport": "platform", "shelter": "no"}}, {"type": "node", "id": 9959774306, "lat": 53.9998536, "lon": -1.4587225, "tags": {"bus": "yes", "departures_board": "timetable", "highway": "bus_stop", "name": "Aspin Lane, Shops", "naptan:AtcoCode": "3200YND11130", "naptan:Bearing": "W", "naptan:CommonName": "Aspin Lane Post Ofice", "naptan:Indicator": "W-bound", "naptan:NaptanCode": "32011130", "naptan:PlusbusZoneRef": "HAGT", "naptan:Street": "Aspin Lane", "naptan:verified": "no", "operator": "The Harrogate Bus Company", "public_transport": "platform", "shelter": "yes", "website": "https://www.transdevbus.co.uk/"}}, {"type": "node", "id": 9959774307, "lat": 54.0012773, "lon": -1.4608629, "tags": {"bus": "yes", "departures_board": "timetable", "highway": "bus_stop", "name": "Aspin Park Drive", "naptan:AtcoCode": "3200YND56992", "naptan:Bearing": "NW", "naptan:CommonName": "Aspin Park Drive", "naptan:Indicator": "opp", "naptan:NaptanCode": "32056992", "naptan:PlusbusZoneRef": "HAGT", "naptan:Street": "Aspin Lane", "naptan:verified": "no", "public_transport": "platform", "shelter": "no"}}, {"type": "node", "id": 9959774308, "lat": 54.003723, "lon": -1.4627065, "tags": {"bus": "yes", "departures_board": "timetable", "highway": "bus_stop", "name": "St Roberts Road", "naptan:AtcoCode": "3200YND11110", "naptan:NaptanCode": "32011110", "public_transport": "platform", "shelter": "no"}}, {"type": "node", "id": 9959774309, "lat": 54.0057922, "lon": -1.4613118, "tags": {"bus": "yes", "departures_board": "timetable", "highway": "bus_stop", "name": "Knaresborough Swimming Pool", "naptan:AtcoCode": "3200YND56994", "naptan:Bearing": "NE", "naptan:CommonName": "Swimming Pool", "naptan:Indicator": "NE-bound", "naptan:NaptanCode": "32056994", "naptan:PlusbusZoneRef": "HAGT", "naptan:Street": "King James Road", "naptan:verified": "no", "public_transport": "platform", "shelter": "yes"}}, {"type": "node", "id": 9959774310, "lat": 54.0056109, "lon": -1.4559464, "tags": {"bench": "yes", "bus": "yes", "departures_board": "timetable", "highway": "bus_stop", "name": "Princess Drive", "naptan:AtcoCode": "3200YNA96422", "naptan:Bearing": "E", "naptan:BusStopType": "CUS", "naptan:CommonName": "Princess Drive", "naptan:Indicator": "adj", "naptan:NaptanCode": "32096422", "naptan:PlusbusZoneRef": "HAGT", "naptan:Street": "A59", "naptan:verified": "no", "public_transport": "platform", "shelter": "yes"}}, {"type": "node", "id": 9959774311, "lat": 54.00551, "lon": -1.4559437, "tags": {"bench": "no", "bus": "yes", "departures_board": "timetable", "highway": "bus_stop", "name": "Princess Drive", "naptan:AtcoCode": "3200YND56940", "naptan:Bearing": "W", "naptan:CommonName": "Princess Drive", "naptan:Indicator": "W-bound", "naptan:NaptanCode": "32056940", "naptan:PlusbusZoneRef": "HAGT", "naptan:Street": "York Road", "naptan:verified": "no", "public_transport": "platform", "shelter": "no"}}, {"type": "node", "id": 9959774312, "lat": 54.0036314, "lon": -1.4514362, "tags": {"bus": "yes", "departures_board": "timetable", "highway": "bus_stop", "name": "Aspin Park School", "naptan:AtcoCode": "3200YND56970", "naptan:Bearing": "S", "naptan:CommonName": "Aspin Park School", "naptan:Indicator": "S-bound", "naptan:NaptanCode": "32056970", "naptan:PlusbusZoneRef": "HAGT", "naptan:Street": "Wetherby Road", "naptan:verified": "no", "public_transport": "platform", "shelter": "no"}}, {"type": "node", "id": 9959774313, "lat": 54.003733, "lon": -1.4516464, "tags": {"bus": "yes", "departures_board": "timetable", "highway": "bus_stop", "name": "Aspin Park School", "naptan:AtcoCode": "3200YND11180", "naptan:NaptanCode": "32011180", "public_transport": "platform", "shelter": "no"}}, {"type": "node", "id": 9959774314, "lat": 54.0020108, "lon": -1.4509084, "tags": {"bench": "yes", "bin": "yes", "bus": "yes", "departures_board": "timetable", "highway": "bus_stop", "name": "Wetherby Road", "naptan:AtcoCode": "3200YND78020", "naptan:NaptanCode": "32078020", "public_transport": "platform", "shelter": "yes"}}, {"type": "node", "id": 9959774315, "lat": 54.0018324, "lon": -1.4510252, "tags": {"bench": "no", "bin": "no", "bus": "yes", "departures_board": "timetable", "highway": "bus_stop", "lit": "yes", "name": "Wetherby Road", "naptan:AtcoCode": "3200YND11170", "naptan:Bearing": "N", "naptan:CommonName": "Wetherby Road", "naptan:Indicator": "N-bound", "naptan:NaptanCode": "32011170", "naptan:PlusbusZoneRef": "HAGT", "naptan:Street": "Wetherby Road", "naptan:verified": "no", "public_transport": "platform", "shelter": "no", "tactile_paving": "no"}}, {"type": "node", "id": 9959774316, "lat": 53.9994658, "lon": -1.4455869, "tags": {"bus": "yes", "departures_board": "timetable", "highway": "bus_stop", "name": "St James Retail Park", "naptan:AtcoCode": "3200YNA06567", "naptan:Bearing": "NW", "naptan:CommonName": "St James Retail Pk", "naptan:Indicator": "Opp", "naptan:NaptanCode": "32006567", "naptan:PlusbusZoneRef": "HAGT", "naptan:Street": "B6164", "naptan:verified": "no", "public_transport": "platform", "shelter": "no"}}, {"type": "node", "id": 9959776817, "lat": 54.0018608, "lon": -1.4534564, "tags": {"bus": "yes", "departures_board": "timetable", "highway": "bus_stop", "name": "Rievaulx Avenue", "naptan:AtcoCode": "3200YND56980", "naptan:Bearing": "W", "naptan:CommonName": "Rievaulx Avenue", "naptan:Indicator": "adj", "naptan:NaptanCode": "32056980", "naptan:PlusbusZoneRef": "HAGT", "naptan:Street": "Farfield Avenue", "naptan:verified": "no", "public_transport": "platform", "shelter": "no"}}, {"type": "node", "id": 9959776818, "lat": 54.0012897, "lon": -1.4542716, "tags": {"bus": "yes", "departures_board": "timetable", "highway": "bus_stop", "name": "Aspin Park Road", "naptan:AtcoCode": "3200YND11150", "naptan:Bearing": "S", "naptan:CommonName": "Aspin Park Rd", "naptan:Indicator": "N-bound", "naptan:NaptanCode": "32011150", "naptan:PlusbusZoneRef": "HAGT", "naptan:Street": "Aspin Drive", "naptan:verified": "no", "public_transport": "platform", "shelter": "no"}}, {"type": "node", "id": 11181359327, "lat": 54.020808, "lon": -1.4610716, "tags": {"bench": "no", "bin": "no", "bus": "yes", "highway": "bus_stop", "lit": "yes", "name": "Piccadilly Motors", "naptan:AtcoCode": "3200YNA97047", "naptan:Bearing": "SW", "naptan:CommonName": "Piccadilly Motors", "naptan:Indicator": "adj", "naptan:NaptanCode": "32097047", "naptan:Street": "Boroughbridge Road", "naptan:verified": "no", "public_transport": "platform", "shelter": "no", "tactile_paving": "no"}}]}