{"version": 0.6, "generator": "Overpass API 0.7.62.10 2d4cfc48", "osm3s": {"timestamp_osm_base": "2026-03-01T06:08:56Z", "copyright": "The data included in this document is from www.openstreetmap.org. The data is made available under ODbL."}, "elements": [{"type": "node", "id": 9380037119, "lat": 51.1961533, "lon": -0.6062965}, {"type": "node", "id": 9380037121, "lat": 51.1962577, "lon": -0.6062091}, {"type": "node", "id": 9380037122, "lat": 51.1962151, "lon": -0.606216}, {"type": "node", "id": 9380037123, "lat": 51.1962127, "lon": -0.6061788}, {"type": "node", "id": 9380037124, "lat": 51.1961465, "lon": -0.6061895}, {"type": "node", "id": 9402951639, "lat": 51.1875227, "lon": -0.6017686, "tags": {"leisure": "fitness_centre", "name": "The Fitness Hangout", "sport": "aerial;yoga;pilates", "website": "https://www.thefitnesshangout.co.uk/"}}, {"type": "node", "id": 9534305444, "lat": 51.1962621, "lon": -0.606279}, {"type": "node", "id": 9534305445, "lat": 51.1961614, "lon": -0.6062952}, {"type": "node", "id": 9556520555, "lat": 51.1859913, "lon": -0.6123544, "tags": {"addr:city": "Godalming", "addr:housenumber": "46- 56", "addr:postcode": "GU7 1DY", "addr:street": "High Street", "brand": "Snap Fitness", "brand:wikidata": "Q7547254", "brand:wikipedia": "en:Snap Fitness", "check_date": "2022-06-29", "leisure": "fitness_centre", "level": "1", "name": "Snap Fitness", "opening_hours": "Mo-Th 6:00-21:30; Fr 6:00-21:00; Sa,Su 08:00-17:00", "operator": "Snap", "website": "https://www.snapfitness.com/uk/gyms/godalming"}}, {"type": "node", "id": 9583121279, "lat": 51.1853775, "lon": -0.6143878, "tags": {"addr:city": "Godalming", "addr:housenumber": "79-81", "addr:postcode": "GU7 1AA", "addr:street": "High Street", "check_date": "2022-09-01", "leisure": "fitness_centre", "name": "The Pilates Movement Studio", "phone": "+44 1483 420 474", "sport": "pilates", "website": "https://www.thepilatesmovementstudio.co.uk/"}}, {"type": "way", "id": 1016957299, "nodes": [9380037119, 9534305445, 9534305444, 9380037121, 9380037122, 9380037123, 9380037124, 9380037119], "tags": {"building": "yes", "leisure": "fitness_centre", "name": "Eliot Edward"}}]}