{"version": 0.6, "generator": "Overpass API 0.7.62.10 2d4cfc48", "osm3s": {"timestamp_osm_base": "2026-03-01T06:18:02Z", "copyright": "The data included in this document is from www.openstreetmap.org. The data is made available under ODbL."}, "elements": [{"type": "node", "id": 255871247, "lat": 51.3973961, "lon": -1.3221449, "tags": {"bench": "no", "bin": "no", "bus": "yes", "highway": "bus_stop", "lit": "yes", "local_ref": "T", "name": "Newbury Station", "naptan:AtcoCode": "030054220006", "naptan:Bearing": "E", "naptan:CommonName": "Newbury Station", "naptan:Indicator": "Stop T", "naptan:Landmark": "Newbury Station westbound platform", "naptan:NaptanCode": "brkpwtd", "naptan:Street": "Station Road", "naptan:verified": "yes", "public_transport": "platform", "ref": "Stop T", "shelter": "no", "tactile_paving": "no"}}, {"type": "node", "id": 255871249, "lat": 51.3974263, "lon": -1.3218182, "tags": {"bench": "no", "bin": "no", "bus": "yes", "highway": "bus_stop", "lit": "yes", "name": "Newbury Station", "naptan:AtcoCode": "030054220005", "naptan:Bearing": "E", "naptan:CommonName": "Newbury Station", "naptan:Indicator": "Stop/Stand U", "naptan:Landmark": "Newbury Station", "naptan:NaptanCode": "brkmdjd", "naptan:PlusbusZoneRef": "NEWBURY", "naptan:Street": "Station Road", "naptan:verified": "yes", "public_transport": "platform", "ref": "Stop U", "shelter": "no", "tactile_paving": "no"}}, {"type": "node", "id": 263922487, "lat": 51.4001094, "lon": -1.32293, "tags": {"bench": "yes", "bin": "no", "bus": "yes", "highway": "bus_stop", "lit": "yes", "local_ref": "O", "name": "Cheap Street", "naptan:AtcoCode": "030054200001", "naptan:Bearing": "SE", "naptan:CommonName": "Cheap Street", "naptan:Indicator": "Stop O", "naptan:Landmark": "Adjacent old Post Office opposite Kennet Centre", "naptan:NaptanCode": "brkmdgt", "naptan:Street": "Cheap Street", "naptan:verified": "yes", "public_transport": "platform", "shelter": "yes", "tactile_paving": "no"}}, {"type": "node", "id": 265822340, "lat": 51.383822, "lon": -1.31716, "tags": {"bus": "yes", "highway": "bus_stop", "name": "Tesco The Triangle", "naptan:AtcoCode": "30055860002", "naptan:Bearing": "N", "naptan:CommonName": "Tesco The Triangle", "naptan:Indicator": "Tesco Store", "naptan:Landmark": "N-bound", "naptan:NaptanCode": "brkpgmw", "naptan:Street": "The Triangle", "naptan:verified": "yes", "public_transport": "platform", "shelter": "yes"}}, {"type": "node", "id": 270332855, "lat": 51.3996548, "lon": -1.2980665, "tags": {"bus": "yes", "highway": "bus_stop", "name": "Hambridge Lane", "naptan:AtcoCode": "030052780001", "naptan:Bearing": "W", "naptan:CommonName": "Hambridge Lane", "naptan:Indicator": "Adj", "naptan:NaptanCode": "brkgtdm", "naptan:PlusbusZoneRef": "NEWBURY", "naptan:Street": "Hambridge Road", "naptan:verified": "no", "public_transport": "platform", "shelter": "yes", "tactile_paving": "no"}}, {"type": "node", "id": 270332856, "lat": 51.3997994, "lon": -1.2991284, "tags": {"bus": "yes", "highway": "bus_stop", "name": "Hambridge Lane", "naptan:AtcoCode": "030052780002", "naptan:Bearing": "E", "naptan:CommonName": "Hambridge Lane", "naptan:Indicator": "opp", "naptan:NaptanCode": "brkgtdp", "naptan:PlusbusZoneRef": "NEWBURY", "naptan:Street": "Hambridge Road", "naptan:verified": "no", "public_transport": "platform", "tactile_paving": "no"}}, {"type": "node", "id": 270332860, "lat": 51.3995425, "lon": -1.3013179, "tags": {"bus": "yes", "highway": "bus_stop", "public_transport": "platform"}}, {"type": "node", "id": 270332865, "lat": 51.3994163, "lon": -1.3035143, "tags": {"bus": "yes", "highway": "bus_stop", "name": "Bone Lane foot", "naptan:AtcoCode": "030053470001", "naptan:Bearing": "W", "naptan:CommonName": "Bone Lane foot", "naptan:Indicator": "W-bound", "naptan:NaptanCode": "brkgwmp", "naptan:PlusbusZoneRef": "NEWBURY", "naptan:Street": "Hambridge Road", "naptan:verified": "no", "public_transport": "platform", "shelter": "no", "tactile_paving": "no"}}, {"type": "node", "id": 270332866, "lat": 51.3995906, "lon": -1.3034742, "tags": {"bus": "yes", "highway": "bus_stop", "name": "Bone Lane foot", "naptan:AtcoCode": "030053470002", "naptan:Bearing": "E", "naptan:CommonName": "Bone Lane foot", "naptan:Indicator": "E-bound", "naptan:NaptanCode": "brkgwmt", "naptan:PlusbusZoneRef": "NEWBURY", "naptan:Street": "Hambridge Road", "naptan:verified": "no", "public_transport": "platform", "shelter": "no", "tactile_paving": "no"}}, {"type": "node", "id": 270332871, "lat": 51.3992778, "lon": -1.308242, "tags": {"bus": "yes", "highway": "bus_stop", "name": "Racecourse Station", "naptan:AtcoCode": "030054930002", "naptan:Bearing": "E", "naptan:CommonName": "Racecourse Station", "naptan:Indicator": "opp", "naptan:NaptanCode": "brkpjtd", "naptan:PlusbusZoneRef": "NEWBURY", "naptan:Street": "Hambridge Road", "naptan:verified": "no", "public_transport": "platform", "shelter": "no", "tactile_paving": "no"}}, {"type": "node", "id": 270335811, "lat": 51.4044959, "lon": -1.2948841, "tags": {"bench": "no", "bin": "no", "bus": "yes", "highway": "bus_stop", "lit": "yes", "name": "Hambridge Road", "naptan:AtcoCode": "030053730003", "naptan:Bearing": "E", "naptan:CommonName": "Hambridge Road", "naptan:Indicator": "Eastbound", "naptan:NaptanCode": "brkmagp", "naptan:PlusbusZoneRef": "NEWBURY", "naptan:Street": "A4 London Road", "naptan:verified": "no", "public_transport": "platform", "shelter": "no", "tactile_paving": "no"}}, {"type": "node", "id": 349340988, "lat": 51.3964853, "lon": -1.334722, "tags": {"bus": "yes", "highway": "bus_stop", "note": "Did not see a bus stop here - it is a very narrow street too", "public_transport": "platform"}}, {"type": "node", "id": 349342890, "lat": 51.3984213, "lon": -1.3358457, "tags": {"bench": "no", "bin": "no", "bus": "yes", "highway": "bus_stop", "lit": "yes", "name": "Green Lane", "naptan:AtcoCode": "030057210001", "naptan:Bearing": "N", "naptan:CommonName": "Green Lane", "naptan:Indicator": "N-bound", "naptan:NaptanCode": "brkpama", "naptan:PlusbusZoneRef": "NEWBURY", "naptan:Street": "Green Lane", "naptan:verified": "no", "public_transport": "platform", "shelter": "no", "tactile_paving": "no"}}, {"type": "node", "id": 349342891, "lat": 51.3984347, "lon": -1.3357348, "tags": {"bench": "no", "bin": "no", "bus": "yes", "highway": "bus_stop", "lit": "no", "name": "Green Lane", "naptan:AtcoCode": "030057210002", "naptan:Bearing": "S", "naptan:CommonName": "Green Lane", "naptan:Indicator": "S-bound", "naptan:NaptanCode": "brkpamd", "naptan:PlusbusZoneRef": "NEWBURY", "naptan:Street": "Green Lane", "naptan:verified": "no", "public_transport": "platform", "shelter": "no", "tactile_paving": "no"}}, {"type": "node", "id": 349342893, "lat": 51.3989792, "lon": -1.3308716, "tags": {"bench": "no", "bin": "no", "bus": "yes", "highway": "bus_stop", "lit": "yes", "name": "Blenheim Road", "naptan:AtcoCode": "030057200002", "naptan:NaptanCode": "brkpajw", "public_transport": "platform", "shelter": "no", "tactile_paving": "no"}}, {"type": "node", "id": 349342897, "lat": 51.399062, "lon": -1.3289597, "tags": {"bench": "no", "bin": "no", "bus": "yes", "highway": "bus_stop", "lit": "no", "name": "Kennet Road", "naptan:AtcoCode": "030057190002", "naptan:Bearing": "W", "naptan:CommonName": "Kennet Road", "naptan:Indicator": "opp", "naptan:NaptanCode": "brkpajp", "naptan:PlusbusZoneRef": "NEWBURY", "naptan:Street": "Craven Road", "naptan:verified": "no", "public_transport": "platform", "shelter": "no", "tactile_paving": "no"}}, {"type": "node", "id": 366701772, "lat": 51.3965965, "lon": -1.3304185, "tags": {"bench": "no", "bin": "no", "bus": "yes", "highway": "bus_stop", "lit": "no", "name": "Lamb Inn", "naptan:AtcoCode": "030053580002", "naptan:NaptanCode": "brkgwtp", "public_transport": "platform", "shelter": "no", "tactile_paving": "no"}}, {"type": "node", "id": 370469524, "lat": 51.4042658, "lon": -1.2978472, "tags": {"bench": "yes", "bin": "yes", "bus": "yes", "highway": "bus_stop", "name": "Hambridge Road", "naptan:AtcoCode": "030053730001", "naptan:NaptanCode": "brkmagj", "public_transport": "platform", "shelter": "yes", "tactile_paving": "yes"}}, {"type": "node", "id": 370469546, "lat": 51.4043575, "lon": -1.309442, "tags": {"bench": "yes", "bin": "no", "bus": "yes", "highway": "bus_stop", "lit": "yes", "name": "Skylings", "naptan:AtcoCode": "030055300002", "naptan:Bearing": "SE", "naptan:CommonName": "Skyllings", "naptan:Indicator": "Adj", "naptan:NaptanCode": "brkdjtd", "naptan:PlusbusZoneRef": "NEWBURY", "naptan:Street": "A4 London Road", "naptan:verified": "no", "public_transport": "platform", "shelter": "yes", "tactile_paving": "no"}}, {"type": "node", "id": 370469549, "lat": 51.4043567, "lon": -1.3097968, "tags": {"bench": "yes", "bin": "no", "bus": "yes", "highway": "bus_stop", "lit": "yes", "name": "Skylings", "naptan:AtcoCode": "030055300001", "naptan:Bearing": "NW", "naptan:CommonName": "Skyllings", "naptan:Indicator": "opp", "naptan:NaptanCode": "brkdjta", "naptan:PlusbusZoneRef": "NEWBURY", "naptan:Street": "A4 London Road", "naptan:verified": "no", "public_transport": "platform", "shelter": "yes", "tactile_paving": "yes"}}, {"type": "node", "id": 370469554, "lat": 51.4053222, "lon": -1.3133803, "tags": {"bench": "yes", "bin": "no", "bus": "yes", "highway": "bus_stop", "name": "Newport Road", "naptan:AtcoCode": "030054250001", "naptan:NaptanCode": "brkmdjg", "public_transport": "platform", "shelter": "yes", "tactile_paving": "yes"}}, {"type": "node", "id": 381513347, "lat": 51.3920537, "lon": -1.3250681, "tags": {"bench": "no", "bin": "no", "bus": "yes", "highway": "bus_stop", "name": "Priory Road (Opp)", "naptan:AtcoCode": "030054860001", "naptan:NaptanCode": "brkdjap", "public_transport": "platform", "shelter": "no", "tactile_paving": "no"}}, {"type": "node", "id": 529073400, "lat": 51.386542, "lon": -1.3217684, "tags": {"bus": "yes", "highway": "bus_stop", "name": "The Oaks", "naptan:AtcoCode": "030055180002", "naptan:NaptanCode": "brkmjdw", "public_transport": "platform", "shelter": "yes"}}, {"type": "node", "id": 924343302, "lat": 51.4036868, "lon": -1.3032264, "tags": {"bus": "yes", "highway": "bus_stop", "name": "Swan Inn", "naptan:AtcoCode": "030055820001", "naptan:NaptanCode": "brkmpmj", "public_transport": "platform"}}, {"type": "node", "id": 924343306, "lat": 51.4043385, "lon": -1.3001773, "tags": {"bus": "yes", "highway": "bus_stop", "name": "Swan Inn", "naptan:AtcoCode": "030055820002", "naptan:Bearing": "E", "naptan:CommonName": "Swan Inn PH", "naptan:Indicator": "adj", "naptan:NaptanCode": "brkmpmp", "naptan:PlusbusZoneRef": "NEWBURY", "naptan:Street": "A4 London Road", "naptan:verified": "no", "public_transport": "platform"}}, {"type": "node", "id": 924343336, "lat": 51.4066914, "lon": -1.3190814, "tags": {"bench": "yes", "bin": "yes", "bus": "yes", "highway": "bus_stop", "lit": "no", "name": "Hawthorn Road", "naptan:AtcoCode": "030053010001", "naptan:NaptanCode": "brkgtmj", "public_transport": "platform", "shelter": "yes", "tactile_paving": "no"}}, {"type": "node", "id": 924343341, "lat": 51.4065217, "lon": -1.3193035, "tags": {"bench": "no", "bin": "no", "bus": "yes", "highway": "bus_stop", "lit": "yes", "name": "Hawthorn Road", "naptan:AtcoCode": "030053010002", "naptan:NaptanCode": "brkpdtp", "public_transport": "platform", "shelter": "no", "tactile_paving": "no"}}, {"type": "node", "id": 924343346, "lat": 51.4054832, "lon": -1.3132315, "tags": {"bus": "yes", "highway": "bus_stop", "name": "Newport Road", "naptan:AtcoCode": "030054250002", "naptan:Bearing": "SE", "naptan:CommonName": "Newport Road", "naptan:Indicator": "adj", "naptan:NaptanCode": "brkmdjm", "naptan:PlusbusZoneRef": "NEWBURY", "naptan:Street": "A4 London Road", "naptan:verified": "no", "public_transport": "platform"}}, {"type": "node", "id": 966785200, "lat": 51.4150778, "lon": -1.3267539, "tags": {"bus": "yes", "highway": "bus_stop", "public_transport": "platform", "shelter": "no"}}, {"type": "node", "id": 1736629409, "lat": 51.4098026, "lon": -1.3093487, "tags": {"bench": "no", "bin": "no", "bus": "yes", "highway": "bus_stop", "name": "Cromwell Road", "naptan:AtcoCode": "030051650001", "naptan:Bearing": "W", "naptan:CommonName": "Cromwell Road", "naptan:Indicator": "Opp", "naptan:NaptanCode": "brkgjtm", "naptan:PlusbusZoneRef": "NEWBURY", "naptan:Street": "Kiln Road", "naptan:verified": "no", "public_transport": "platform", "shelter": "yes"}}, {"type": "node", "id": 2001777129, "lat": 51.3856606, "lon": -1.3361574, "tags": {"bench": "no", "bin": "no", "bus": "yes", "highway": "bus_stop", "lit": "no", "name": "Tydehams", "naptan:AtcoCode": "030056410002", "naptan:Bearing": "NE", "naptan:CommonName": "Tydehams", "naptan:Indicator": "opp", "naptan:NaptanCode": "brkpmgd", "naptan:PlusbusZoneRef": "NEWBURY", "naptan:Street": "A343 Andover Road", "naptan:verified": "no", "public_transport": "platform", "shelter": "no", "tactile_paving": "no"}}, {"type": "node", "id": 2001777130, "lat": 51.3856325, "lon": -1.3360335, "tags": {"bench": "no", "bin": "no", "bus": "yes", "highway": "bus_stop", "lit": "no", "name": "Tydehams", "naptan:AtcoCode": "030056410001", "naptan:NaptanCode": "brkdpad", "public_transport": "platform", "shelter": "no", "tactile_paving": "no"}}, {"type": "node", "id": 2004958724, "lat": 51.3927385, "lon": -1.3301223, "tags": {"bench": "no", "bin": "no", "bus": "yes", "highway": "bus_stop", "lit": "no", "name": "Buckingham Road", "naptan:AtcoCode": "30050950002", "naptan:Bearing": "NE", "naptan:CommonName": "Buckingham Road", "naptan:Indicator": "adj", "naptan:Landmark": "Adjacent Buckingham Road", "naptan:NaptanCode": "brkptwt", "naptan:Street": "A343 Andover Road", "naptan:verified": "yes", "public_transport": "platform", "shelter": "no", "tactile_paving": "yes"}}, {"type": "node", "id": 2004958727, "lat": 51.3924086, "lon": -1.3302073, "tags": {"bench": "no", "bin": "no", "bus": "yes", "highway": "bus_stop", "lit": "no", "name": "Buckingham Road", "naptan:AtcoCode": "030050950001", "naptan:Bearing": "SE", "naptan:CommonName": "Buckingham Road", "naptan:Indicator": "opp", "naptan:Landmark": "opposite Buckingham Road", "naptan:NaptanCode": "brkgdaw", "naptan:Street": "A343 Andover Road", "naptan:verified": "yes", "public_transport": "platform", "shelter": "no", "tactile_paving": "yes"}}, {"type": "node", "id": 2004958728, "lat": 51.390334, "lon": -1.332202, "tags": {"bench": "yes", "bin": "no", "bus": "yes", "highway": "bus_stop", "name": "Bartlemy Road East", "naptan:AtcoCode": "030057350001", "naptan:NaptanCode": "brkpatm", "public_transport": "platform", "ref": "brkpatm", "shelter": "yes"}}, {"type": "node", "id": 2006562367, "lat": 51.3904846, "lon": -1.3318415, "tags": {"bus": "yes", "highway": "bus_stop", "name": "Bartlemy Road East", "naptan:AtcoCode": "030057350002", "naptan:NaptanCode": "brkpmga", "public_transport": "platform", "ref": "brkpmga", "shelter": "no"}}, {"type": "node", "id": 2006580145, "lat": 51.3937856, "lon": -1.328307, "tags": {"bench": "no", "bin": "no", "bus": "yes", "highway": "bus_stop", "name": "Malvern Court", "naptan:AtcoCode": "030054170002", "naptan:Bearing": "SW", "naptan:CommonName": "Malvern Court", "naptan:Indicator": "adj", "naptan:Landmark": "Adjacent Malvern Court", "naptan:NaptanCode": "brkmdat", "naptan:Street": "A343 Andover Road", "naptan:verified": "yes", "public_transport": "platform", "shelter": "no", "tactile_paving": "yes"}}, {"type": "node", "id": 2006580151, "lat": 51.3944938, "lon": -1.3274249, "tags": {"bench": "yes", "bin": "no", "bus": "yes", "highway": "bus_stop", "lit": "no", "name": "Malvern Court", "naptan:AtcoCode": "030054170001", "naptan:Bearing": "NE", "naptan:CommonName": "Malvern Court", "naptan:Indicator": "opp", "naptan:Landmark": "Opposite Old Newtown Road", "naptan:NaptanCode": "brkmdap", "naptan:Street": "A343 Andover Road", "naptan:verified": "yes", "public_transport": "platform", "shelter": "yes", "tactile_paving": "yes"}}, {"type": "node", "id": 2008278218, "lat": 51.4053009, "lon": -1.3224387, "tags": {"bench": "no", "bin": "no", "bus": "yes", "highway": "bus_stop", "lit": "yes", "local_ref": "S", "name": "Park Way / London Road", "naptan:AtcoCode": "030058430002", "naptan:NaptanCode": "brkpmgw", "naptan:verified": "yes", "public_transport": "platform", "shelter": "no", "tactile_paving": "no"}}, {"type": "node", "id": 2008278219, "lat": 51.4056681, "lon": -1.3226326, "tags": {"bench": "yes", "bin": "yes", "bus": "yes", "highway": "bus_stop", "lit": "yes", "local_ref": "R", "name": "Park Way / London Road", "naptan:AtcoCode": "030058430001", "naptan:Bearing": "N", "naptan:CommonName": "Park Way Top", "naptan:Indicator": "Stop R", "naptan:NaptanCode": "brkpmgt", "naptan:PlusbusZoneRef": "NEWBURY", "naptan:Street": "Park Way", "naptan:verified": "yes", "public_transport": "platform", "shelter": "yes", "tactile_paving": "no"}}, {"type": "node", "id": 2009329162, "lat": 51.3835482, "lon": -1.3205228, "tags": {"bench": "yes", "bin": "yes", "bus": "yes", "highway": "bus_stop", "name": "A339 Pinchington Lane Roundabout", "naptan:AtcoCode": "030054720001", "naptan:NaptanCode": "brkmgjp", "public_transport": "platform", "shelter": "yes"}}, {"type": "node", "id": 2009329163, "lat": 51.3833272, "lon": -1.3206999, "tags": {"bench": "no", "bin": "no", "bus": "yes", "highway": "bus_stop", "name": "A339 Pinchington Lane Roundabout (Opp)", "naptan:AtcoCode": "030054720002", "naptan:NaptanCode": "brkmgjt", "public_transport": "platform", "shelter": "no"}}, {"type": "node", "id": 2010767537, "lat": 51.4037588, "lon": -1.3226, "tags": {"bench": "yes", "bin": "yes", "bus": "yes", "highway": "bus_stop", "lit": "no", "local_ref": "P", "name": "Park Way", "naptan:AtcoCode": "030058420001", "naptan:Bearing": "N", "naptan:CommonName": "Park Way", "naptan:Indicator": "Stop P", "naptan:NaptanCode": "brkpmgm", "naptan:PlusbusZoneRef": "NEWBURY", "naptan:Street": "Park Way", "naptan:verified": "yes", "public_transport": "platform", "shelter": "yes", "tactile_paving": "no"}}, {"type": "node", "id": 2010767540, "lat": 51.4035269, "lon": -1.322365, "tags": {"bench": "yes", "bin": "no", "bus": "yes", "highway": "bus_stop", "lit": "yes", "local_ref": "Q", "name": "Park Way", "naptan:AtcoCode": "030058420002", "naptan:Bearing": "S", "naptan:CommonName": "Park Way", "naptan:Indicator": "Stop Q", "naptan:NaptanCode": "brkpmgp", "naptan:PlusbusZoneRef": "NEWBURY", "naptan:Street": "Park Way", "naptan:verified": "yes", "public_transport": "platform", "shelter": "yes", "tactile_paving": "no"}}, {"type": "node", "id": 2024723274, "lat": 51.3964638, "lon": -1.3264047, "tags": {"bench": "yes", "bin": "yes", "bus": "yes", "highway": "bus_stop", "lit": "no", "local_ref": "V", "name": "Fair Close", "naptan:AtcoCode": "030052250001", "naptan:Bearing": "S", "naptan:CommonName": "Fair Close", "naptan:Indicator": "adj", "naptan:Landmark": "Adjacent Fair Close Day Centre and Almshouses", "naptan:NaptanCode": "brkgpap", "naptan:Street": "Newtown Road", "naptan:verified": "yes", "public_transport": "platform", "shelter": "yes", "tactile_paving": "no"}}, {"type": "node", "id": 2024723276, "lat": 51.3963597, "lon": -1.326525, "tags": {"bench": "no", "bin": "no", "bus": "yes", "highway": "bus_stop", "lit": "no", "name": "Fair Close (Opp)", "naptan:AtcoCode": "030052250002", "naptan:Bearing": "N", "naptan:CommonName": "Fair Close", "naptan:Indicator": "opp", "naptan:Landmark": "opposite Fair Close Day Centre and approaching E", "naptan:NaptanCode": "brkgpat", "naptan:PlusbusZoneRef": "NEWBURY", "naptan:Street": "Newtown Road", "naptan:verified": "no", "public_transport": "platform", "shelter": "no", "tactile_paving": "no"}}, {"type": "node", "id": 2042725922, "lat": 51.3941314, "lon": -1.3256614, "tags": {"bench": "no", "bin": "yes", "bus": "yes", "highway": "bus_stop", "lit": "yes", "name": "Porchester Road", "naptan:AtcoCode": "030054260002", "naptan:NaptanCode": "brkmdjt", "public_transport": "platform", "shelter": "no", "tactile_paving": "no"}}, {"type": "node", "id": 2042725941, "lat": 51.3896, "lon": -1.3232955, "tags": {"bus": "yes", "highway": "bus_stop", "name": "Friars Road", "naptan:AtcoCode": "030052480002", "naptan:Bearing": "S", "naptan:CommonName": "Friars Road", "naptan:Indicator": "Adj", "naptan:NaptanCode": "brkgpmd", "naptan:PlusbusZoneRef": "NEWBURY", "naptan:Street": "Newtown Road", "naptan:verified": "no", "public_transport": "platform"}}, {"type": "node", "id": 2042725946, "lat": 51.3917315, "lon": -1.3247989, "tags": {"bench": "no", "bin": "no", "bus": "yes", "highway": "bus_stop", "lit": "yes", "name": "Priory Road", "naptan:AtcoCode": "030054860002", "naptan:Bearing": "S", "naptan:CommonName": "Priory Road", "naptan:Indicator": "adj", "naptan:NaptanCode": "brkpdwa", "naptan:PlusbusZoneRef": "NEWBURY", "naptan:Street": "Newtown Road", "naptan:verified": "no", "public_transport": "platform", "shelter": "no", "tactile_paving": "no"}}, {"type": "node", "id": 2042725952, "lat": 51.3941206, "lon": -1.3258074, "tags": {"bench": "no", "bin": "no", "bus": "yes", "highway": "bus_stop", "lit": "yes", "name": "Porchester Road (Opp)", "naptan:AtcoCode": "030054260001", "naptan:NaptanCode": "brkmdjp", "public_transport": "platform", "shelter": "no", "tactile_paving": "no"}}, {"type": "node", "id": 2046215897, "lat": 51.399739, "lon": -1.322842, "tags": {"bench": "yes", "bin": "no", "bus": "yes", "highway": "bus_stop", "lit": "no", "local_ref": "N", "name": "Cheap Street (Opp)", "naptan:AtcoCode": "030054200002", "naptan:Bearing": "N", "naptan:CommonName": "Cheap Street", "naptan:Indicator": "Stop N", "naptan:NaptanCode": "brkmdgw", "naptan:PlusbusZoneRef": "NEWBURY", "naptan:Street": "Cheap Street", "naptan:verified": "yes", "public_transport": "platform", "shelter": "yes", "tactile_paving": "no"}}, {"type": "node", "id": 2048128106, "lat": 51.4073973, "lon": -1.3158178, "tags": {"bench": "no", "bin": "no", "bus": "yes", "highway": "bus_stop", "lit": "no", "name": "Shaw Road foot", "naptan:AtcoCode": "030055240001", "naptan:Bearing": "SW", "naptan:CommonName": "Shaw Road Foot", "naptan:Indicator": "SW-bound", "naptan:NaptanCode": "brkdjpd", "naptan:PlusbusZoneRef": "NEWBURY", "naptan:Street": "B4009 Shaw Road", "naptan:verified": "no", "public_transport": "platform", "shelter": "no", "source": "gps", "tactile_paving": "no"}}, {"type": "node", "id": 2048128119, "lat": 51.4075722, "lon": -1.315719, "tags": {"bench": "no", "bin": "no", "bus": "yes", "highway": "bus_stop", "lit": "yes", "name": "Shaw Road foot", "naptan:AtcoCode": "030055240002", "naptan:NaptanCode": "brkdjpg", "public_transport": "platform", "shelter": "no", "source": "gps", "tactile_paving": "no"}}, {"type": "node", "id": 2048128120, "lat": 51.408447, "lon": -1.3147337, "tags": {"bench": "no", "bin": "no", "bus": "yes", "highway": "bus_stop", "lit": "yes", "name": "Coachmans Court (Opp)", "naptan:AtcoCode": "030051390002", "naptan:NaptanCode": "brkgjdg", "public_transport": "platform", "shelter": "no", "source": "gps", "tactile_paving": "no"}}, {"type": "node", "id": 2048128122, "lat": 51.4089912, "lon": -1.314546, "tags": {"bench": "no", "bin": "no", "bus": "yes", "highway": "bus_stop", "lit": "yes", "name": "Coachmans Court", "naptan:AtcoCode": "030051390001", "naptan:Bearing": "N", "naptan:CommonName": "Coachmans Court", "naptan:Indicator": "adj", "naptan:NaptanCode": "brkgjda", "naptan:PlusbusZoneRef": "NEWBURY", "naptan:Street": "Shaw Road", "naptan:verified": "no", "public_transport": "platform", "shelter": "no", "source": "gps", "tactile_paving": "no"}}, {"type": "node", "id": 2048275170, "lat": 51.3888926, "lon": -1.3288108, "tags": {"bench": "no", "bin": "no", "bus": "yes", "highway": "bus_stop", "lit": "yes", "name": "Croft Road", "naptan:AtcoCode": "030051640001", "naptan:Bearing": "S", "naptan:CommonName": "Croft Road", "naptan:Indicator": "adj", "naptan:NaptanCode": "brkgjtg", "naptan:PlusbusZoneRef": "NEWBURY", "naptan:Street": "Wendan Road", "naptan:verified": "no", "public_transport": "platform", "shelter": "no", "tactile_paving": "no"}}, {"type": "node", "id": 2048275188, "lat": 51.3918417, "lon": -1.3291326, "tags": {"bus": "yes", "highway": "bus_stop", "name": "Wendan Road", "naptan:AtcoCode": "030056590001", "naptan:NaptanCode": "brkdpdp", "public_transport": "platform", "source": "gps"}}, {"type": "node", "id": 2048275192, "lat": 51.3871803, "lon": -1.3265524, "tags": {"bus": "yes", "highway": "bus_stop", "name": "Chandos Road", "naptan:AtcoCode": "030051160002", "naptan:NaptanCode": "brkgdpj", "public_transport": "platform"}}, {"type": "node", "id": 2048275195, "lat": 51.3832504, "lon": -1.3341174, "tags": {"bus": "yes", "highway": "bus_stop", "name": "Monks Lane Surgery", "naptan:AtcoCode": "030057170002", "naptan:NaptanCode": "brkpaja", "public_transport": "platform"}}, {"type": "node", "id": 2048275212, "lat": 51.387105, "lon": -1.3264746, "tags": {"bus": "yes", "highway": "bus_stop", "name": "Chandos Road", "naptan:AtcoCode": "030051160001", "naptan:NaptanCode": "brkgdpg", "public_transport": "platform"}}, {"type": "node", "id": 2048275217, "lat": 51.388993, "lon": -1.3290039, "tags": {"bench": "no", "bin": "no", "bus": "yes", "highway": "bus_stop", "lit": "no", "name": "Croft Road", "naptan:AtcoCode": "030051640002", "naptan:Bearing": "N", "naptan:CommonName": "Croft Road", "naptan:Indicator": "opp", "naptan:NaptanCode": "brkgjtj", "naptan:PlusbusZoneRef": "NEWBURY", "naptan:Street": "Wendan Road", "naptan:verified": "no", "public_transport": "platform", "shelter": "no", "tactile_paving": "no"}}, {"type": "node", "id": 2048275222, "lat": 51.3915036, "lon": -1.3289556, "tags": {"bus": "yes", "highway": "bus_stop", "name": "Wendan Road", "naptan:AtcoCode": "030056590002", "naptan:Bearing": "S", "naptan:CommonName": "Wendan Road", "naptan:Indicator": "Southbound", "naptan:NaptanCode": "brkdpdt", "naptan:PlusbusZoneRef": "NEWBURY", "naptan:Street": "Wendan Road", "naptan:verified": "no", "public_transport": "platform", "source": "gps"}}, {"type": "node", "id": 2060548011, "lat": 51.3866114, "lon": -1.322034, "tags": {"bus": "yes", "highway": "bus_stop", "name": "The Oaks (Opp)", "naptan:AtcoCode": "030055180001", "naptan:NaptanCode": "brkmjdt", "public_transport": "platform", "shelter": "yes"}}, {"type": "node", "id": 2060548022, "lat": 51.3902037, "lon": -1.3239457, "tags": {"bus": "yes", "highway": "bus_stop", "name": "Friars Road (Opp)", "naptan:AtcoCode": "030052480001", "naptan:Bearing": "N", "naptan:CommonName": "Friars Road", "naptan:Indicator": "opp", "naptan:NaptanCode": "brkgpma", "naptan:PlusbusZoneRef": "NEWBURY", "naptan:Street": "Newtown Road", "naptan:verified": "no", "public_transport": "platform"}}, {"type": "node", "id": 2074395401, "lat": 51.3851493, "lon": -1.3436541, "tags": {"bus": "yes", "highway": "bus_stop", "name": "Middle Close", "naptan:AtcoCode": "030053990002", "naptan:NaptanCode": "brkmapt", "public_transport": "platform", "shelter": "no"}}, {"type": "node", "id": 2074395870, "lat": 51.385337, "lon": -1.3435435, "tags": {"bus": "yes", "highway": "bus_stop", "name": "Middle Close", "naptan:AtcoCode": "030053990001", "naptan:NaptanCode": "brkmapm", "public_transport": "platform", "shelter": "yes"}}, {"type": "node", "id": 2081005254, "lat": 51.3967687, "lon": -1.3273556, "tags": {"bench": "no", "bin": "no", "bus": "yes", "highway": "bus_stop", "lit": "yes", "local_ref": "U", "name": "Argyle Road", "naptan:AtcoCode": "030050120001", "naptan:NaptanCode": "brkdwpd", "public_transport": "platform", "route_ref": "2", "shelter": "no", "tactile_paving": "no"}}, {"type": "node", "id": 2081007125, "lat": 51.39684, "lon": -1.327564, "tags": {"bench": "no", "bin": "no", "bus": "yes", "highway": "bus_stop", "lit": "no", "name": "Argyle Road", "naptan:AtcoCode": "030050120002", "naptan:Bearing": "E", "naptan:CommonName": "Argyle Road", "naptan:Indicator": "opp", "naptan:NaptanCode": "brkdwpg", "naptan:PlusbusZoneRef": "NEWBURY", "naptan:Street": "Pound Street", "naptan:verified": "no", "public_transport": "platform", "route_ref": "2", "shelter": "no", "tactile_paving": "no"}}, {"type": "node", "id": 2090989340, "lat": 51.3964286, "lon": -1.3306806, "tags": {"bench": "no", "bin": "no", "bus": "yes", "check_date:shelter": "2023-02-17", "highway": "bus_stop", "lit": "no", "name": "Lamb Inn", "naptan:AtcoCode": "030053580001", "naptan:NaptanCode": "brkgwtm", "public_transport": "platform", "shelter": "no", "tactile_paving": "no"}}, {"type": "node", "id": 2090992450, "lat": 51.3952, "lon": -1.334386, "tags": {"bench": "no", "bus": "yes", "highway": "bus_stop", "name": "St Barts School", "naptan:AtcoCode": "030055470001", "naptan:Bearing": "E", "naptan:CommonName": "St Barts School", "naptan:Indicator": "opp", "naptan:NaptanCode": "brkmjtw", "naptan:PlusbusZoneRef": "NEWBURY", "naptan:Street": "Enborne Road", "naptan:verified": "no", "public_transport": "platform", "shelter": "no"}}, {"type": "node", "id": 2090993670, "lat": 51.3950484, "lon": -1.3347721, "tags": {"bench": "no", "bus": "yes", "highway": "bus_stop", "name": "St Barts School", "naptan:AtcoCode": "030055470002", "naptan:Bearing": "W", "naptan:CommonName": "St Barts School", "naptan:Indicator": "adj", "naptan:NaptanCode": "brkdmam", "naptan:PlusbusZoneRef": "NEWBURY", "naptan:Street": "Enborne Road", "naptan:verified": "no", "public_transport": "platform", "shelter": "no"}}, {"type": "node", "id": 2090996938, "lat": 51.395044, "lon": -1.337107, "tags": {"bench": "no", "bus": "yes", "highway": "bus_stop", "name": "Westgate Road", "naptan:AtcoCode": "030056700001", "naptan:NaptanCode": "brkmwmt", "public_transport": "platform", "shelter": "no"}}, {"type": "node", "id": 2091003857, "lat": 51.394916, "lon": -1.337505, "tags": {"bench": "no", "bus": "yes", "highway": "bus_stop", "name": "Westgate Road", "naptan:AtcoCode": "030056700002", "naptan:NaptanCode": "brkmwmw", "public_transport": "platform", "shelter": "no"}}, {"type": "node", "id": 2091010700, "lat": 51.393338, "lon": -1.339758, "tags": {"bus": "yes", "highway": "bus_stop", "name": "Kingsbridge Road", "naptan:AtcoCode": "030053490001", "naptan:NaptanCode": "brkgwpa", "public_transport": "platform", "shelter": "no"}}, {"type": "node", "id": 2091012599, "lat": 51.3931367, "lon": -1.3396038, "tags": {"bus": "yes", "highway": "bus_stop", "name": "Kingsbridge Road", "naptan:AtcoCode": "030053490002", "naptan:NaptanCode": "brkgwpd", "public_transport": "platform", "shelter": "no"}}, {"type": "node", "id": 2091014891, "lat": 51.391534, "lon": -1.339484, "tags": {"bus": "yes", "highway": "bus_stop", "name": "Bartlemy Road", "naptan:AtcoCode": "030050370001", "naptan:NaptanCode": "brkgadj", "public_transport": "platform", "ref": "brkgadj", "shelter": "no"}}, {"type": "node", "id": 2091017755, "lat": 51.391255, "lon": -1.339137, "tags": {"bus": "yes", "highway": "bus_stop", "name": "Bartlemy Road", "naptan:AtcoCode": "030050370002", "naptan:NaptanCode": "brkgadm", "public_transport": "platform", "ref": "brkgadm", "shelter": "no"}}, {"type": "node", "id": 2091021057, "lat": 51.388198, "lon": -1.339816, "tags": {"bus": "yes", "highway": "bus_stop", "name": "Garford Crescent", "naptan:AtcoCode": "030052530002", "naptan:NaptanCode": "brkgpmt", "public_transport": "platform", "shelter": "yes"}}, {"type": "node", "id": 2091023727, "lat": 51.3874876, "lon": -1.3402631, "tags": {"bus": "yes", "highway": "bus_stop", "name": "Garford Crescent", "naptan:AtcoCode": "030052530001", "naptan:NaptanCode": "brkgpmp", "public_transport": "platform", "shelter": "no"}}, {"type": "node", "id": 2102728182, "lat": 51.40783, "lon": -1.310713, "tags": {"bus": "yes", "highway": "bus_stop", "name": "Walton Way", "naptan:AtcoCode": "030058570002", "naptan:Bearing": "SE", "naptan:CommonName": "Walton Way", "naptan:Indicator": "adj 80", "naptan:NaptanCode": "brkpmwa", "naptan:PlusbusZoneRef": "NEWBURY", "naptan:Street": "Walton Way", "naptan:verified": "no", "public_transport": "platform", "route_ref": "2", "shelter": "no"}}, {"type": "node", "id": 2102734351, "lat": 51.40864, "lon": -1.310403, "tags": {"bus": "yes", "highway": "bus_stop", "name": "Walton Way", "public_transport": "platform", "shelter": "no"}}, {"type": "node", "id": 2102740053, "lat": 51.412432, "lon": -1.313797, "tags": {"bench": "no", "bin": "no", "bus": "yes", "highway": "bus_stop", "lit": "yes", "name": "Kingsley Close", "naptan:AtcoCode": "030053500001", "naptan:NaptanCode": "brkgwpg", "public_transport": "platform", "shelter": "no", "tactile_paving": "no"}}, {"type": "node", "id": 2102955897, "lat": 51.4099472, "lon": -1.311391, "tags": {"bench": "no", "bin": "no", "bus": "yes", "check_date:shelter": "2024-02-15", "highway": "bus_stop", "name": "Mountbatten Close", "naptan:AtcoCode": "030058130002", "naptan:Bearing": "W", "naptan:CommonName": "Mountbatten Close", "naptan:Indicator": "adj", "naptan:NaptanCode": "brkpjdp", "naptan:PlusbusZoneRef": "NEWBURY", "naptan:Street": "Kiln Road", "naptan:verified": "no", "public_transport": "platform", "shelter": "no"}}, {"type": "node", "id": 2102971719, "lat": 51.41457, "lon": -1.323488, "tags": {"bench": "no", "bin": "no", "bus": "yes", "check_date:shelter": "2022-10-13", "highway": "bus_stop", "lit": "no", "name": "Northern Avenue", "naptan:AtcoCode": "030054370002", "naptan:Bearing": "W", "naptan:CommonName": "Northern Avenue", "naptan:Indicator": "Adj", "naptan:NaptanCode": "brkmdpg", "naptan:PlusbusZoneRef": "NEWBURY", "naptan:Street": "Love Lane", "naptan:verified": "no", "public_transport": "platform", "shelter": "no", "tactile_paving": "no"}}, {"type": "node", "id": 2102986045, "lat": 51.414876, "lon": -1.331245, "tags": {"bench": "no", "bin": "no", "bus": "yes", "check_date:shelter": "2022-10-13", "highway": "bus_stop", "lit": "no", "name": "Donnington Priory", "naptan:AtcoCode": "030051870002", "naptan:CommonName": "Donnington Priory", "naptan:Indicator": "Adj", "naptan:NaptanCode": "brkgmgj", "public_transport": "platform", "shelter": "no", "tactile_paving": "no"}}, {"type": "node", "id": 2102987705, "lat": 51.414706, "lon": -1.331282, "tags": {"bench": "no", "bin": "no", "bus": "yes", "check_date:shelter": "2022-02-14", "highway": "bus_stop", "lit": "no", "name": "Donnington Priory", "naptan:AtcoCode": "030051870001", "naptan:CommonName": "Donnington Priory", "naptan:Indicator": "Adj", "naptan:NaptanCode": "brkgmgd", "public_transport": "platform", "shelter": "no", "tactile_paving": "no"}}, {"type": "node", "id": 2102995570, "lat": 51.410853, "lon": -1.328338, "tags": {"bus": "yes", "highway": "bus_stop", "name": "Bennet Close", "public_transport": "platform", "shelter": "no"}}, {"type": "node", "id": 2103009173, "lat": 51.4078705, "lon": -1.3198753, "tags": {"bus": "yes", "highway": "bus_stop", "name": "Chestnut Crescent", "naptan:AtcoCode": "030051250002", "naptan:NaptanCode": "brkgdtp", "public_transport": "platform", "shelter": "no"}}, {"type": "node", "id": 2103907460, "lat": 51.4131209, "lon": -1.3246743, "tags": {"bus": "yes", "highway": "bus_stop", "name": "Dene Way", "naptan:AtcoCode": "030058600001", "naptan:Bearing": "W", "naptan:BusStopType": "CUS", "naptan:CommonName": "Dene Way", "naptan:Indicator": "On", "naptan:NaptanCode": "brkpmwp", "naptan:PlusbusZoneRef": "NEWBURY", "naptan:Street": "Dene Way", "naptan:verified": "no", "public_transport": "platform"}}, {"type": "node", "id": 2103907461, "lat": 51.4093556, "lon": -1.3231158, "tags": {"bus": "yes", "highway": "bus_stop", "name": "Dolman Road Shops", "naptan:AtcoCode": "030058620001", "naptan:CommonName": "Dolman Road Shops", "naptan:Indicator": "S-bound", "naptan:NaptanCode": "brkptad", "public_transport": "platform", "roof:shape": "round"}}, {"type": "node", "id": 2107125911, "lat": 51.383328, "lon": -1.3225655, "tags": {"bus": "yes", "highway": "bus_stop", "name": "Newbury College", "naptan:AtcoCode": "030057180001", "naptan:NaptanCode": "brkpajd", "public_transport": "platform", "shelter": "yes"}}, {"type": "node", "id": 2112129527, "lat": 51.4105672, "lon": -1.3307278, "tags": {"bench": "no", "bin": "no", "bus": "yes", "check_date:shelter": "2022-02-14", "highway": "bus_stop", "lit": "no", "name": "Donnington Square", "naptan:AtcoCode": "030051880002", "naptan:CommonName": "Donnington Square", "naptan:Indicator": "Adj", "naptan:NaptanCode": "brkgmgp", "public_transport": "platform", "shelter": "no", "tactile_paving": "no"}}, {"type": "node", "id": 2112135801, "lat": 51.41021, "lon": -1.330467, "tags": {"bench": "no", "bin": "no", "bus": "yes", "check_date:shelter": "2022-12-22", "highway": "bus_stop", "lit": "no", "name": "Donnington Square", "naptan:AtcoCode": "030051880001", "naptan:CommonName": "Donnington Square", "naptan:Indicator": "Opp", "naptan:NaptanCode": "brkgmgm", "public_transport": "platform", "shelter": "no", "tactile_paving": "no"}}, {"type": "node", "id": 2112152578, "lat": 51.4124129, "lon": -1.3377917, "tags": {"bench": "no", "bin": "no", "bus": "yes", "highway": "bus_stop", "lit": "no", "name": "Brummell Road", "naptan:AtcoCode": "030050940001", "naptan:CommonName": "Brummell Road", "naptan:Indicator": "Adj", "naptan:NaptanCode": "brkgdap", "public_transport": "platform", "shelter": "no", "tactile_paving": "no", "wheelchair": "yes"}}, {"type": "node", "id": 2112163819, "lat": 51.410743, "lon": -1.341547, "tags": {"bench": "no", "bin": "no", "bus": "yes", "highway": "bus_stop", "lit": "no", "name": "Sutton Road", "naptan:AtcoCode": "030055810001", "naptan:NaptanCode": "brkgjmw", "public_transport": "platform", "shelter": "no", "tactile_paving": "no"}}, {"type": "node", "id": 2112166752, "lat": 51.410654, "lon": -1.341689, "tags": {"bench": "no", "bin": "no", "bus": "yes", "highway": "bus_stop", "lit": "yes", "name": "Sutton Road", "naptan:AtcoCode": "030055810002", "naptan:NaptanCode": "brkgjpa", "public_transport": "platform", "shelter": "no", "tactile_paving": "no"}}, {"type": "node", "id": 2112178867, "lat": 51.409093, "lon": -1.337641, "tags": {"bench": "no", "bus": "yes", "highway": "bus_stop", "name": "Coxeter Road", "naptan:AtcoCode": "030051590001", "naptan:CommonName": "Coxeter Road", "naptan:Indicator": "W-bound", "naptan:NaptanCode": "brkgjpj", "public_transport": "platform", "shelter": "no"}}, {"type": "node", "id": 2112181392, "lat": 51.409157, "lon": -1.337356, "tags": {"bench": "no", "bus": "yes", "check_date:shelter": "2022-12-24", "highway": "bus_stop", "name": "Coxeter Road", "naptan:AtcoCode": "030051590002", "naptan:CommonName": "Coxeter Road", "naptan:Indicator": "E-bound", "naptan:NaptanCode": "brkgjpm", "public_transport": "platform", "shelter": "no"}}, {"type": "node", "id": 2113489022, "lat": 51.390336, "lon": -1.339106, "tags": {"bus": "yes", "highway": "bus_stop", "name": "Valley Road Crescent", "naptan:AtcoCode": "030058490001", "naptan:Bearing": "N", "naptan:CommonName": "Valley Road Crescent", "naptan:Indicator": "by", "naptan:NaptanCode": "brkptmp", "naptan:PlusbusZoneRef": "NEWBURY", "naptan:Street": "Valley Road", "naptan:verified": "no", "public_transport": "platform", "ref": "brkptmp", "shelter": "no"}}, {"type": "node", "id": 2496132289, "lat": 51.4047312, "lon": -1.3058462, "tags": {"bus": "yes", "highway": "bus_stop", "name": "Newbury Business Park", "naptan:AtcoCode": "030058150001", "naptan:Bearing": "E", "naptan:CommonName": "Newbury Business Park", "naptan:Indicator": "on", "naptan:NaptanCode": "brkpgwd", "naptan:PlusbusZoneRef": "NEWBURY", "naptan:Street": "Business Park Access Road", "naptan:verified": "no", "operator": "Vodafone", "public_transport": "platform", "shelter": "yes"}}, {"type": "node", "id": 3271387458, "lat": 51.4012378, "lon": -1.3208936, "tags": {"bench": "yes", "bin": "yes", "bus": "yes", "camera:type": "dome", "highway": "bus_stop", "lit": "yes", "local_ref": "A", "man_made": "surveillance", "name": "Newbury Wharf", "naptan:AtcoCode": "030059120001", "naptan:CommonName": "Newbury Wharf", "naptan:Indicator": "Bay A", "naptan:Landmark": "Newbury Library", "naptan:NaptanCode": "brkpwmp", "naptan:Street": "Wharf Road", "naptan:verified": "yes", "public_transport": "platform", "ref": "A", "shelter": "yes", "surveillance": "public", "surveillance:type": "camera", "surveillance:zone": "town", "tactile_paving": "no"}}, {"type": "node", "id": 6296295244, "lat": 51.4049002, "lon": -1.2960195, "tags": {"bus": "yes", "highway": "bus_stop", "name": "Hambridge Road", "naptan:AtcoCode": "030053730002", "naptan:Bearing": "N", "naptan:CommonName": "Hambridge Road", "naptan:Indicator": "Northbound", "naptan:NaptanCode": "brkmagm", "naptan:PlusbusZoneRef": "NEWBURY", "naptan:Street": "Fir Tree Lane", "naptan:verified": "no", "public_transport": "platform"}}, {"type": "node", "id": 6296295245, "lat": 51.4063969, "lon": -1.295269, "tags": {"bus": "yes", "highway": "bus_stop", "name": "Fir Tree Primary School", "naptan:AtcoCode": "030052350002", "naptan:Bearing": "N", "naptan:CommonName": "Fir Tree Primary School", "naptan:Indicator": "opp", "naptan:NaptanCode": "brkpdjp", "naptan:PlusbusZoneRef": "NEWBURY", "naptan:Street": "Fir Tree Lane", "naptan:verified": "no", "public_transport": "platform", "route_ref": "1"}}, {"type": "node", "id": 6296296260, "lat": 51.4064947, "lon": -1.2948937, "tags": {"bus": "yes", "highway": "bus_stop", "name": "Fir Tree Primary School", "naptan:AtcoCode": "030052350001", "naptan:Bearing": "S", "naptan:CommonName": "Fir Tree Primary School", "naptan:Indicator": "adj", "naptan:NaptanCode": "brkgpga", "naptan:PlusbusZoneRef": "NEWBURY", "naptan:Street": "Fir Tree Lane", "naptan:verified": "no", "public_transport": "platform", "route_ref": "1"}}, {"type": "node", "id": 6329722755, "lat": 51.398389, "lon": -1.304476, "tags": {"bus": "yes", "highway": "bus_stop", "name": "Grandstand", "naptan:AtcoCode": "030058760002", "naptan:Bearing": "W", "naptan:CommonName": "Grandstand", "naptan:Indicator": "adj", "naptan:NaptanCode": "brkptwa", "naptan:Street": "Northern Road", "naptan:verified": "no", "public_transport": "platform", "shelter": "yes"}}, {"type": "node", "id": 7249919075, "lat": 51.4163849, "lon": -1.3208967, "tags": {"bench": "yes", "bus": "yes", "highway": "bus_stop", "name": "7", "naptan:AtcoCode": "030058140001", "naptan:CommonName": "Clarke House", "naptan:Indicator": "Near", "naptan:NaptanCode": "brkpgtd", "passenger_information_display": "yes", "public_transport": "platform", "shelter": "yes"}}, {"type": "node", "id": 7249939090, "lat": 51.4156786, "lon": -1.3206186, "tags": {"bench": "yes", "bus": "yes", "highway": "bus_stop", "name": "6", "passenger_information_display": "yes", "public_transport": "platform", "shelter": "yes"}}, {"type": "node", "id": 7251627460, "lat": 51.4150018, "lon": -1.3203327, "tags": {"bench": "yes", "bin": "no", "bus": "yes", "highway": "bus_stop", "name": "5", "naptan:AtcoCode": "030058140002", "naptan:CommonName": "Babbage House", "naptan:Indicator": "Near", "naptan:NaptanCode": "brkpgtg", "passenger_information_display": "yes", "public_transport": "platform", "shelter": "yes", "tactile_paving": "no"}}, {"type": "node", "id": 7251729716, "lat": 51.414759, "lon": -1.3185874, "tags": {"bench": "yes", "bin": "no", "bus": "yes", "highway": "bus_stop", "lit": "no", "name": "4", "naptan:AtcoCode": "030058140003", "naptan:CommonName": "Baird House", "naptan:Indicator": "Near", "naptan:NaptanCode": "brkpgtj", "passenger_information_display": "yes", "public_transport": "platform", "shelter": "yes", "tactile_paving": "no"}}, {"type": "node", "id": 7277597363, "lat": 51.4172806, "lon": -1.3220436, "tags": {"bench": "yes", "bus": "yes", "highway": "bus_stop", "name": "Vodafone HQ Newbury Campus Exit (Near)", "naptan:AtcoCode": "030058140007", "naptan:CommonName": "Newbury Campus Exit", "naptan:Indicator": "Near", "naptan:NaptanCode": "brkpgwa", "passenger_information_display": "yes", "public_transport": "platform", "shelter": "yes"}}, {"type": "node", "id": 7277910563, "lat": 51.4154842, "lon": -1.3186781, "tags": {"bench": "yes", "bus": "yes", "highway": "bus_stop", "name": "3", "naptan:AtcoCode": "030058140004", "naptan:CommonName": "Kilby House", "naptan:Indicator": "Near", "naptan:NaptanCode": "brkpgtm", "passenger_information_display": "yes", "public_transport": "platform", "shelter": "yes"}}, {"type": "node", "id": 7280994861, "lat": 51.4160435, "lon": -1.3186383, "tags": {"bench": "yes", "bus": "yes", "highway": "bus_stop", "name": "2", "naptan:AtcoCode": "030058140005", "naptan:CommonName": "Bell House", "naptan:Indicator": "Near", "naptan:NaptanCode": "brkpgtp", "passenger_information_display": "yes", "public_transport": "platform", "shelter": "yes"}}, {"type": "node", "id": 8921705943, "lat": 51.4011928, "lon": -1.3208981, "tags": {"bench": "yes", "bin": "no", "bus": "yes", "highway": "bus_stop", "lit": "yes", "local_ref": "B", "name": "Newbury Wharf", "naptan:AtcoCode": "030059120002", "naptan:CommonName": "Newbury Wharf", "naptan:Indicator": "Bay B", "naptan:Landmark": "Newbury Library", "naptan:NaptanCode": "brkpwmt", "naptan:Street": "Wharf Road", "naptan:verified": "yes", "public_transport": "platform", "ref": "B", "shelter": "yes", "tactile_paving": "no"}}, {"type": "node", "id": 8921705944, "lat": 51.4011476, "lon": -1.3209021, "tags": {"bench": "yes", "bin": "no", "bus": "yes", "highway": "bus_stop", "lit": "yes", "local_ref": "C", "name": "Newbury Wharf", "naptan:AtcoCode": "030059120003", "naptan:CommonName": "Newbury Wharf", "naptan:Indicator": "Bay C", "naptan:Landmark": "Newbury Library", "naptan:NaptanCode": "brkpwmw", "naptan:Street": "Wharf Road", "naptan:verified": "yes", "public_transport": "platform", "ref": "C", "shelter": "yes", "tactile_paving": "no"}}, {"type": "node", "id": 8921705945, "lat": 51.4011041, "lon": -1.3209061, "tags": {"bench": "yes", "bin": "yes", "bus": "yes", "highway": "bus_stop", "lit": "yes", "local_ref": "D", "name": "Newbury Wharf", "naptan:AtcoCode": "030059120004", "naptan:CommonName": "Newbury Wharf", "naptan:Indicator": "Bay D", "naptan:Landmark": "Newbury Library", "naptan:NaptanCode": "brkpwpa", "naptan:Street": "Wharf Road", "naptan:verified": "yes", "public_transport": "platform", "ref": "D", "shelter": "yes", "tactile_paving": "no"}}, {"type": "node", "id": 8921705946, "lat": 51.4010648, "lon": -1.3209102, "tags": {"bench": "yes", "bin": "no", "bus": "yes", "highway": "bus_stop", "lit": "yes", "local_ref": "E", "name": "Newbury Wharf", "naptan:AtcoCode": "030059120005", "naptan:CommonName": "Newbury Wharf", "naptan:Indicator": "Bay E", "naptan:Landmark": "Newbury Library", "naptan:NaptanCode": "brkpwpd", "naptan:Street": "Wharf Road", "naptan:verified": "yes", "public_transport": "platform", "ref": "E", "shelter": "yes", "tactile_paving": "no"}}, {"type": "node", "id": 8921705947, "lat": 51.4009903, "lon": -1.3209169, "tags": {"bench": "yes", "bin": "yes", "bus": "yes", "highway": "bus_stop", "lit": "yes", "local_ref": "F", "name": "Newbury Wharf", "naptan:AtcoCode": "030059120006", "naptan:CommonName": "Newbury Wharf", "naptan:Indicator": "Bay F", "naptan:Landmark": "Newbury Library", "naptan:NaptanCode": "brkpwpg", "naptan:Street": "Wharf Road", "naptan:verified": "yes", "public_transport": "platform", "ref": "F", "shelter": "yes", "tactile_paving": "no"}}, {"type": "node", "id": 10261282570, "lat": 51.3973515, "lon": -1.321456, "tags": {"bench": "yes", "bin": "no", "bus": "yes", "highway": "bus_stop", "lit": "yes", "local_ref": "U", "name": "Newbury Station", "naptan:AtcoCode": "30054220004", "naptan:Bearing": "W", "naptan:CommonName": "Newbury Station", "naptan:Indicator": "Stop W", "naptan:Landmark": "Newbury Station", "naptan:NaptanCode": "brkmdja", "naptan:Street": "Station Road", "naptan:verified": "yes", "public_transport": "platform", "ref": "Stop W", "shelter": "yes", "tactile_paving": "no"}}, {"type": "node", "id": 11834624280, "lat": 51.4066886, "lon": -1.29914, "tags": {"bus": "yes", "highway": "bus_stop", "name": "Birchwood Road", "naptan:AtcoCode": "030050550002", "naptan:Bearing": "E", "naptan:CommonName": "Birchwood Road", "naptan:Indicator": "adj", "naptan:NaptanCode": "brkgamp", "naptan:PlusbusZoneRef": "NEWBURY", "naptan:Street": "Gaywood Drive", "naptan:verified": "no", "public_transport": "platform"}}, {"type": "node", "id": 11834624281, "lat": 51.4065196, "lon": -1.2982994, "tags": {"bus": "yes", "highway": "bus_stop", "name": "Birchwood Road", "naptan:AtcoCode": "030050550001", "naptan:Bearing": "W", "naptan:CommonName": "Birchwood Road", "naptan:Indicator": "Opp", "naptan:NaptanCode": "brkgamj", "naptan:PlusbusZoneRef": "NEWBURY", "naptan:Street": "Gaywood Drive", "naptan:verified": "no", "public_transport": "platform"}}, {"type": "node", "id": 11834624282, "lat": 51.408365, "lon": -1.3001388, "tags": {"bus": "yes", "highway": "bus_stop", "name": "Cresswell Road", "naptan:AtcoCode": "030051630002", "naptan:Bearing": "N", "naptan:CommonName": "Cresswell Road", "naptan:Indicator": "opp", "naptan:NaptanCode": "brkgjtd", "naptan:PlusbusZoneRef": "NEWBURY", "naptan:Street": "Avon Way", "naptan:verified": "no", "public_transport": "platform"}}, {"type": "node", "id": 11834624283, "lat": 51.4079772, "lon": -1.3000928, "tags": {"bus": "yes", "highway": "bus_stop", "name": "Cresswell Road", "naptan:AtcoCode": "030051630001", "naptan:Bearing": "S", "naptan:CommonName": "Cresswell Road", "naptan:Indicator": "adj", "naptan:NaptanCode": "brkgjta", "naptan:PlusbusZoneRef": "NEWBURY", "naptan:Street": "Avon Way", "naptan:verified": "no", "public_transport": "platform"}}, {"type": "node", "id": 11834624284, "lat": 51.4090136, "lon": -1.3034991, "tags": {"bus": "yes", "highway": "bus_stop", "name": "Stoney Lane", "naptan:AtcoCode": "030057130002", "naptan:Bearing": "E", "naptan:CommonName": "Stoney Lane", "naptan:Indicator": "adj", "naptan:NaptanCode": "brkpagm", "naptan:PlusbusZoneRef": "NEWBURY", "naptan:Street": "Kiln Road", "naptan:verified": "no", "public_transport": "platform"}}, {"type": "node", "id": 11834624285, "lat": 51.4089388, "lon": -1.3033589, "tags": {"bus": "yes", "highway": "bus_stop", "name": "Stoney Lane", "naptan:AtcoCode": "030057130001", "naptan:Bearing": "W", "naptan:CommonName": "Stoney Lane", "naptan:Indicator": "opp", "naptan:NaptanCode": "brkpagj", "naptan:PlusbusZoneRef": "NEWBURY", "naptan:Street": "Kiln Road", "naptan:verified": "no", "public_transport": "platform"}}, {"type": "node", "id": 11834624286, "lat": 51.4097541, "lon": -1.3087572, "tags": {"bench": "no", "bin": "no", "bus": "yes", "highway": "bus_stop", "lit": "yes", "name": "Cromwell Road", "naptan:AtcoCode": "030051650002", "naptan:Bearing": "E", "naptan:CommonName": "Cromwell Road", "naptan:Indicator": "adj", "naptan:NaptanCode": "brkpdtm", "naptan:PlusbusZoneRef": "NEWBURY", "naptan:Street": "Kiln Road", "naptan:verified": "no", "public_transport": "platform", "shelter": "no", "tactile_paving": "no"}}, {"type": "node", "id": 11834624287, "lat": 51.4099962, "lon": -1.3110916, "tags": {"bus": "yes", "highway": "bus_stop", "name": "Mountbatten Close", "naptan:AtcoCode": "030058130001", "naptan:Bearing": "E", "naptan:CommonName": "Mountbatten Close", "naptan:Indicator": "opp 12", "naptan:NaptanCode": "brkpgpm", "naptan:PlusbusZoneRef": "NEWBURY", "naptan:Street": "Kiln Road", "naptan:verified": "no", "public_transport": "platform"}}, {"type": "node", "id": 11979259604, "lat": 51.4015322, "lon": -1.3211225, "tags": {"bench": "yes", "bin": "yes", "bus": "yes", "highway": "bus_stop", "lit": "yes", "local_ref": "H", "name": "Newbury Wharf", "naptan:AtcoCode": "030059120008", "naptan:Bearing": "SE", "naptan:CommonName": "Newbury Wharf", "naptan:Indicator": "Stop H", "naptan:Landmark": "Newbury Library", "naptan:NaptanCode": "brkpwpm", "naptan:Street": "Wharf Road", "naptan:verified": "yes", "public_transport": "platform", "ref": "H", "shelter": "yes", "tactile_paving": "no"}}, {"type": "node", "id": 11981569087, "lat": 51.3839416, "lon": -1.3112725, "tags": {"bus": "yes", "highway": "bus_stop", "name": "Pinchington Grange", "naptan:AtcoCode": "030058650002", "naptan:Bearing": "NE", "naptan:CommonName": "Pinchington Grange", "naptan:Indicator": "opp", "naptan:NaptanCode": "brkptdp", "naptan:PlusbusZoneRef": "NEWBURY", "naptan:Street": "Pinchington Lane", "naptan:verified": "no", "public_transport": "platform"}}, {"type": "node", "id": 11981569091, "lat": 51.385485, "lon": -1.3021709, "tags": {"bus": "yes", "highway": "bus_stop", "name": "Marchant Close", "naptan:AtcoCode": "030058450001", "naptan:Bearing": "E", "naptan:CommonName": "Marchant Close", "naptan:Indicator": "adj", "naptan:Landmark": "Adjacent Marchant Close", "naptan:NaptanCode": "brkpmjg", "naptan:PlusbusZoneRef": "NEWBURY", "naptan:Street": "Pigeons Farm Road", "naptan:verified": "yes", "public_transport": "platform"}}, {"type": "node", "id": 11981569097, "lat": 51.3864506, "lon": -1.2998495, "tags": {"bus": "yes", "highway": "bus_stop", "name": "Water Tower", "naptan:AtcoCode": "030058460001", "naptan:Bearing": "NE", "naptan:CommonName": "Water Tower", "naptan:Indicator": "adj", "naptan:Landmark": "Adjacent Water Tower", "naptan:NaptanCode": "brkpmjm", "naptan:PlusbusZoneRef": "NEWBURY", "naptan:Street": "Pigeons Farm Road", "naptan:verified": "yes", "public_transport": "platform"}}, {"type": "node", "id": 11981569101, "lat": 51.3885797, "lon": -1.2993896, "tags": {"bus": "yes", "highway": "bus_stop", "name": "Greyberry Copse East", "naptan:AtcoCode": "030054710001", "naptan:Bearing": "W", "naptan:CommonName": "Greyberry Copse East", "naptan:Indicator": "adj 50", "naptan:Landmark": "Adjacent 50", "naptan:NaptanCode": "brkmgjm", "naptan:PlusbusZoneRef": "NEWBURY", "naptan:Street": "Greyberry Copse Road", "naptan:verified": "yes", "public_transport": "platform"}}, {"type": "node", "id": 11981569102, "lat": 51.3875391, "lon": -1.3018081, "tags": {"bus": "yes", "highway": "bus_stop", "name": "Greyberry Copse West", "naptan:AtcoCode": "030054710002", "naptan:Bearing": "SW", "naptan:CommonName": "Greyberry Copse West", "naptan:Indicator": "SW-bound", "naptan:Landmark": "nr New Road", "naptan:NaptanCode": "brkpmjd", "naptan:PlusbusZoneRef": "NEWBURY", "naptan:Street": "Greyberry Copse Road", "naptan:verified": "yes", "public_transport": "platform"}}, {"type": "node", "id": 11981569109, "lat": 51.3838172, "lon": -1.3113256, "tags": {"bus": "yes", "highway": "bus_stop", "name": "Pinchington Grange", "naptan:AtcoCode": "030058650001", "naptan:Bearing": "SW", "naptan:CommonName": "Pinchington Grange", "naptan:Indicator": "adj", "naptan:NaptanCode": "brkptdm", "naptan:PlusbusZoneRef": "NEWBURY", "naptan:Street": "Pinchington Lane", "naptan:verified": "yes", "public_transport": "platform"}}, {"type": "node", "id": 11981569113, "lat": 51.3991995, "lon": -1.3228984, "tags": {"bus": "yes", "highway": "bus_stop", "local_ref": "L", "name": "Market Street", "naptan:AtcoCode": "030059130001", "naptan:Bearing": "E", "naptan:CommonName": "Market Street", "naptan:Indicator": "Stop L", "naptan:NaptanCode": "brkpwpw", "naptan:PlusbusZoneRef": "NEWBURY", "naptan:Street": "Market Street", "naptan:verified": "yes", "public_transport": "platform"}}, {"type": "node", "id": 11981831587, "lat": 51.3953304, "lon": -1.3184103, "tags": {"bus": "yes", "highway": "bus_stop", "name": "Chapel Corner", "naptan:AtcoCode": "030058250002", "naptan:Bearing": "S", "naptan:CommonName": "Chapel Corner", "naptan:Indicator": "opp", "naptan:Landmark": "Chapel", "naptan:NaptanCode": "brkpjga", "naptan:PlusbusZoneRef": "NEWBURY", "naptan:Street": "Greenham Road", "naptan:verified": "no", "public_transport": "platform"}}, {"type": "node", "id": 11981831594, "lat": 51.3946768, "lon": -1.3149602, "tags": {"bench": "no", "bin": "no", "bus": "yes", "highway": "bus_stop", "lit": "no", "name": "Racecourse Road", "naptan:AtcoCode": "030054920001", "naptan:Bearing": "E", "naptan:CommonName": "Racecourse Road", "naptan:Indicator": "Adjacent Playing Fields", "naptan:Landmark": "Adjacent Playing Fields", "naptan:NaptanCode": "brkdjda", "naptan:PlusbusZoneRef": "NEWBURY", "naptan:Street": "Racecourse Road", "naptan:verified": "no", "public_transport": "platform", "shelter": "no", "tactile_paving": "no"}}, {"type": "node", "id": 11981831603, "lat": 51.3973201, "lon": -1.3107964, "tags": {"bus": "yes", "highway": "bus_stop", "name": "Rondetto Avenue", "naptan:AtcoCode": "030058750001", "naptan:Bearing": "N", "naptan:CommonName": "Rondetto Avenue", "naptan:Indicator": "adj", "naptan:NaptanCode": "brkptpm", "naptan:Street": "Racecourse Road", "naptan:verified": "no", "public_transport": "platform"}}, {"type": "node", "id": 11981831608, "lat": 51.3984792, "lon": -1.3031195, "tags": {"bus": "yes", "highway": "bus_stop", "name": "Grandstand", "naptan:AtcoCode": "030058760001", "naptan:Bearing": "E", "naptan:CommonName": "Grandstand", "naptan:Indicator": "opp", "naptan:NaptanCode": "brkptpw", "naptan:Street": "Northern Road", "naptan:verified": "no", "public_transport": "platform"}}, {"type": "node", "id": 11981831620, "lat": 51.3969975, "lon": -1.2959443, "tags": {"bus": "yes", "highway": "bus_stop", "name": "Home Straight", "naptan:AtcoCode": "030059380001", "naptan:Bearing": "E", "naptan:CommonName": "Home Straight", "naptan:Indicator": "Stop", "naptan:NaptanCode": "brktamd", "naptan:verified": "no", "public_transport": "platform"}}, {"type": "node", "id": 11981831623, "lat": 51.3968922, "lon": -1.3107598, "tags": {"bus": "yes", "highway": "bus_stop", "name": "Rondetto Avenue", "naptan:AtcoCode": "030058750002", "naptan:Bearing": "S", "naptan:CommonName": "Rondetto Avenue", "naptan:Indicator": "opp", "naptan:NaptanCode": "brkptpt", "naptan:Street": "Racecourse Road", "naptan:verified": "no", "public_transport": "platform"}}, {"type": "node", "id": 11981831624, "lat": 51.3945839, "lon": -1.3146798, "tags": {"bench": "no", "bin": "no", "bus": "yes", "highway": "bus_stop", "lit": "yes", "name": "Racecourse Road", "naptan:AtcoCode": "030054920002", "naptan:Bearing": "W", "naptan:CommonName": "Racecourse Road", "naptan:Indicator": "Westbound", "naptan:NaptanCode": "brkpgpj", "naptan:PlusbusZoneRef": "NEWBURY", "naptan:Street": "Racecourse Road", "naptan:verified": "no", "public_transport": "platform", "shelter": "no", "tactile_paving": "no"}}, {"type": "node", "id": 11981831625, "lat": 51.3952173, "lon": -1.3185405, "tags": {"bus": "yes", "highway": "bus_stop", "name": "Chapel Corner", "naptan:AtcoCode": "030058250001", "naptan:Bearing": "N", "naptan:CommonName": "Chapel Corner", "naptan:Indicator": "adj", "naptan:NaptanCode": "brkpjdw", "naptan:PlusbusZoneRef": "NEWBURY", "naptan:Street": "Greenham Road", "naptan:verified": "no", "public_transport": "platform"}}, {"type": "node", "id": 11988933162, "lat": 51.3941458, "lon": -1.3104107, "tags": {"bus": "yes", "highway": "bus_stop", "name": "New Road", "naptan:AtcoCode": "030058480001", "naptan:Bearing": "SE", "naptan:CommonName": "New Road", "naptan:Indicator": "on", "naptan:Landmark": "opposite house 4", "naptan:NaptanCode": "brkpmpa", "naptan:PlusbusZoneRef": "NEWBURY", "naptan:Street": "New Road", "naptan:verified": "yes", "public_transport": "platform"}}, {"type": "node", "id": 11988933166, "lat": 51.3911789, "lon": -1.3101678, "tags": {"bus": "yes", "highway": "bus_stop", "name": "Aintree Close", "naptan:AtcoCode": "030050050001", "naptan:Bearing": "SE", "naptan:CommonName": "Aintree Close", "naptan:Indicator": "adj", "naptan:Landmark": "Adjacent 47 Westwood Road", "naptan:NaptanCode": "brkdwjt", "naptan:PlusbusZoneRef": "NEWBURY", "naptan:Street": "Westwood Road", "naptan:verified": "yes", "public_transport": "platform"}}, {"type": "node", "id": 11988933973, "lat": 51.3897583, "lon": -1.3122203, "tags": {"bus": "yes", "highway": "bus_stop", "name": "Porter End", "naptan:AtcoCode": "030054780001", "naptan:Bearing": "W", "naptan:CommonName": "Porter End", "naptan:Indicator": "opp", "naptan:Landmark": "Adjacent 9 Westwood Road", "naptan:NaptanCode": "brkpdad", "naptan:PlusbusZoneRef": "NEWBURY", "naptan:Street": "Westwood Road", "naptan:verified": "yes", "public_transport": "platform"}}, {"type": "node", "id": 11988933974, "lat": 51.3883563, "lon": -1.3148543, "tags": {"bus": "yes", "highway": "bus_stop", "name": "The Nightingales", "naptan:AtcoCode": "030056090001", "naptan:Bearing": "SW", "naptan:CommonName": "The Nightingales", "naptan:Indicator": "on", "naptan:Landmark": "Adjacent Playing Field", "naptan:NaptanCode": "brkdmtg", "naptan:PlusbusZoneRef": "NEWBURY", "naptan:Street": "The Nightingales", "naptan:verified": "yes", "public_transport": "platform"}}, {"type": "node", "id": 11988933978, "lat": 51.3901275, "lon": -1.3177897, "tags": {"bus": "yes", "highway": "bus_stop", "name": "Westlands Road", "naptan:AtcoCode": "030056710001", "naptan:Bearing": "N", "naptan:CommonName": "Westlands Road", "naptan:Indicator": "N-bound", "naptan:Landmark": "N-bound", "naptan:NaptanCode": "brkdpgw", "naptan:PlusbusZoneRef": "NEWBURY", "naptan:Street": "The Nightingales", "naptan:verified": "yes", "public_transport": "platform"}}, {"type": "node", "id": 11988933979, "lat": 51.3914829, "lon": -1.3154585, "tags": {"bus": "yes", "highway": "bus_stop", "name": "Cheriton Close", "naptan:AtcoCode": "030051220001", "naptan:Bearing": "E", "naptan:CommonName": "Cheriton Close", "naptan:Indicator": "Opp", "naptan:Landmark": "Opposite Cheriton Close", "naptan:NaptanCode": "brkgdtg", "naptan:PlusbusZoneRef": "NEWBURY", "naptan:Street": "Greenlands Road", "naptan:verified": "yes", "public_transport": "platform"}}, {"type": "node", "id": 11988933980, "lat": 51.3861872, "lon": -1.308323, "tags": {"bench": "no", "bin": "no", "bus": "yes", "highway": "bus_stop", "lit": "no", "name": "Water Lane", "naptan:AtcoCode": "030058660001", "naptan:Bearing": "SE", "naptan:CommonName": "Water Lane", "naptan:Indicator": "adj", "naptan:NaptanCode": "brkptdt", "naptan:PlusbusZoneRef": "NEWBURY", "naptan:Street": "Greenham Road", "naptan:verified": "yes", "public_transport": "platform", "shelter": "no", "tactile_paving": "no"}}, {"type": "node", "id": 11988933982, "lat": 51.3846938, "lon": -1.3247098, "tags": {"bus": "yes", "highway": "bus_stop", "name": "Monks Lane East", "naptan:AtcoCode": "030057180003", "naptan:Bearing": "W", "naptan:CommonName": "Monks Lane east", "naptan:Indicator": "W-bound", "naptan:Landmark": "west of footpath to College", "naptan:NaptanCode": "brkpwtj", "naptan:Street": "Monks Lane", "naptan:verified": "yes", "public_transport": "platform"}}, {"type": "node", "id": 11988933985, "lat": 51.384795, "lon": -1.324129, "tags": {"bus": "yes", "highway": "bus_stop", "name": "Monks Lane East", "naptan:AtcoCode": "030057180002", "naptan:Bearing": "E", "naptan:CommonName": "Monks Lane East", "naptan:Indicator": "E-bound", "naptan:NaptanCode": "brkpajg", "naptan:PlusbusZoneRef": "NEWBURY", "naptan:Street": "Monks Lane", "naptan:verified": "yes", "public_transport": "platform"}}, {"type": "node", "id": 11988933986, "lat": 51.3861581, "lon": -1.3085515, "tags": {"bench": "no", "bin": "no", "bus": "yes", "highway": "bus_stop", "lit": "yes", "name": "Water Lane", "naptan:AtcoCode": "030058660002", "naptan:Bearing": "NW", "naptan:CommonName": "Water Lane", "naptan:Indicator": "opp", "naptan:NaptanCode": "brkptdw", "naptan:PlusbusZoneRef": "NEWBURY", "naptan:Street": "Greenham Road", "naptan:verified": "yes", "public_transport": "platform", "shelter": "no", "tactile_paving": "no"}}, {"type": "node", "id": 11988933987, "lat": 51.3898547, "lon": -1.3120929, "tags": {"bus": "yes", "highway": "bus_stop", "name": "Porter End", "naptan:AtcoCode": "030054780002", "naptan:Bearing": "E", "naptan:CommonName": "Porter End", "naptan:Indicator": "adj", "naptan:NaptanCode": "brkpgpd", "naptan:PlusbusZoneRef": "NEWBURY", "naptan:Street": "Westwood Road", "naptan:verified": "yes", "public_transport": "platform"}}, {"type": "node", "id": 11988933988, "lat": 51.3911845, "lon": -1.3103414, "tags": {"bus": "yes", "highway": "bus_stop", "name": "Aintree Close", "naptan:AtcoCode": "030050050002", "naptan:Bearing": "NW", "naptan:CommonName": "Aintree Close", "naptan:Indicator": "opp", "naptan:NaptanCode": "brkpgpg", "naptan:PlusbusZoneRef": "NEWBURY", "naptan:Street": "Westwood Road", "naptan:verified": "yes", "public_transport": "platform"}}, {"type": "node", "id": 11988933989, "lat": 51.3941762, "lon": -1.3107035, "tags": {"bus": "yes", "highway": "bus_stop", "name": "New Road", "naptan:AtcoCode": "030058480002", "naptan:Bearing": "NW", "naptan:CommonName": "New Road", "naptan:Indicator": "on", "naptan:NaptanCode": "brkptam", "naptan:PlusbusZoneRef": "NEWBURY", "naptan:Street": "New Road", "naptan:verified": "yes", "public_transport": "platform"}}, {"type": "node", "id": 11990134973, "lat": 51.4008593, "lon": -1.3209345, "tags": {"bench": "yes", "bin": "yes", "bus": "yes", "highway": "bus_stop", "lit": "yes", "local_ref": "G", "name": "Newbury Wharf", "naptan:AtcoCode": "030059120007", "naptan:CommonName": "Newbury Wharf", "naptan:Indicator": "Bay G", "naptan:Landmark": "Newbury Library", "naptan:NaptanCode": "brkpwpj", "naptan:Street": "Wharf Road", "naptan:verified": "yes", "public_transport": "platform", "ref": "G", "shelter": "yes", "tactile_paving": "no"}}, {"type": "node", "id": 11990134974, "lat": 51.4009769, "lon": -1.3213991, "tags": {"bench": "yes", "bin": "yes", "bus": "yes", "highway": "bus_stop", "lit": "yes", "local_ref": "J", "name": "Newbury Wharf", "naptan:AtcoCode": "030059120009", "naptan:Bearing": "E", "naptan:CommonName": "Newbury Wharf", "naptan:Indicator": "Stop J", "naptan:Landmark": "Newbury Library", "naptan:NaptanCode": "brkpwpt", "naptan:Street": "Wharf Road", "naptan:verified": "yes", "public_transport": "platform", "ref": "J", "shelter": "yes", "tactile_paving": "no"}}, {"type": "node", "id": 12300218258, "lat": 51.3989782, "lon": -1.3239126, "tags": {"bench": "yes", "bin": "no", "bus": "yes", "highway": "bus_stop", "lit": "no", "local_ref": "M", "name": "Market Street", "naptan:AtcoCode": "030059130002", "naptan:Bearing": "W", "naptan:CommonName": "Market Street", "naptan:Indicator": "Stop M", "naptan:NaptanCode": "brkpwta", "naptan:PlusbusZoneRef": "NEWBURY", "naptan:Street": "Market Street", "naptan:verified": "yes", "public_transport": "platform", "ref": "brkpwta", "shelter": "yes", "tactile_paving": "yes"}}]}