{"version": 0.6, "generator": "Overpass API 0.7.62.10 2d4cfc48", "osm3s": {"timestamp_osm_base": "2026-02-27T18:18:43Z", "copyright": "The data included in this document is from www.openstreetmap.org. The data is made available under ODbL."}, "elements": [{"type": "node", "id": 1029694465, "lat": 51.0739533, "lon": -1.3370038, "tags": {"amenity": "doctors", "healthcare": "doctor", "layer": "1", "name": "Friarsgate Medical Centre"}}, {"type": "node", "id": 1029714863, "lat": 51.0659003, "lon": -1.321463, "tags": {"amenity": "doctors", "healthcare": "doctor", "name": "St Paul's Surgery", "website": "https://www.stpaulssurgery-winchester.nhs.uk/"}}, {"type": "node", "id": 3161963237, "lat": 51.0626399, "lon": -1.3104795}, {"type": "node", "id": 3161963247, "lat": 51.0625009, "lon": -1.3105859}, {"type": "node", "id": 3161963258, "lat": 51.0624303, "lon": -1.3103523}, {"type": "node", "id": 3161963570, "lat": 51.0625693, "lon": -1.3102459}, {"type": "way", "id": 310737501, "nodes": [3161963237, 3161963570, 3161963258, 3161963247, 3161963237], "tags": {"addr:city": "Winchester", "addr:postcode": "SO23 8AD", "addr:street": "Tanner Street", "amenity": "doctors", "building": "yes", "healthcare": "doctor", "name": "Saint Clements Surgery", "website": "https://www.stclementspractice.co.uk/"}}]}