{"version": 0.6, "generator": "Overpass API 0.7.62.10 2d4cfc48", "osm3s": {"timestamp_osm_base": "2026-03-01T06:20:10Z", "copyright": "The data included in this document is from www.openstreetmap.org. The data is made available under ODbL."}, "elements": [{"type": "node", "id": 21263989, "lat": 50.9520183, "lon": 0.7313699, "tags": {"bench": "yes", "bin": "no", "bus": "yes", "highway": "bus_stop", "lit": "yes", "local_ref": "D", "name": "Rye Railway Station", "naptan:AtcoCode": "1400RR0224", "naptan:NaptanCode": "esuapwtd", "public_transport": "platform", "shelter": "no", "tactile_paving": "no"}}, {"type": "node", "id": 2552533039, "lat": 50.9504416, "lon": 0.7292931, "tags": {"bus": "yes", "highway": "bus_stop", "name": "Wish Street", "naptan:AtcoCode": "1400RR0230", "naptan:Bearing": "SW", "naptan:CommonName": "Wish Street", "naptan:Indicator": "SW-bound", "naptan:NaptanCode": "esuatada", "naptan:PlusbusZoneRef": "RYEE", "naptan:Street": "Wish Street", "naptan:verified": "no", "public_transport": "platform"}}, {"type": "node", "id": 3252619737, "lat": 50.9620766, "lon": 0.7318021, "tags": {"bus": "yes", "highway": "bus_stop", "naptan:AtcoCode": "1400RR0313", "naptan:NaptanCode": "esuatdjp", "public_transport": "platform", "shelter": "yes"}}, {"type": "node", "id": 3252622574, "lat": 50.9621663, "lon": 0.7315819, "tags": {"bus": "yes", "highway": "bus_stop", "naptan:AtcoCode": "1400RR0314", "naptan:NaptanCode": "esuatdjt", "public_transport": "platform"}}, {"type": "node", "id": 4418934918, "lat": 50.9422781, "lon": 0.748386, "tags": {"bus": "yes", "highway": "bus_stop", "name": "Rye Harbour Industrial Park", "naptan:AtcoCode": "1400RR10041", "naptan:Bearing": "NW", "naptan:CommonName": "Industrial Park", "naptan:Indicator": "NW-bound", "naptan:NaptanCode": "esudjmgj", "naptan:PlusbusZoneRef": "RYEE", "naptan:Street": "Harbour Road", "naptan:verified": "no", "public_transport": "platform", "shelter": "no"}}, {"type": "node", "id": 4418934919, "lat": 50.9423334, "lon": 0.7484714, "tags": {"bus": "yes", "highway": "bus_stop", "name": "Rye Harbour Industrial Park", "naptan:AtcoCode": "1400RR10040", "naptan:Bearing": "SE", "naptan:CommonName": "Industrial Park", "naptan:Indicator": "SE-bound", "naptan:NaptanCode": "esudjmgd", "naptan:PlusbusZoneRef": "RYEE", "naptan:Street": "Harbour Road", "naptan:verified": "no", "public_transport": "platform", "shelter": "no"}}, {"type": "node", "id": 4418934920, "lat": 50.9495968, "lon": 0.7280382, "tags": {"bus": "yes", "highway": "bus_stop", "name": "Tillingham Bridge", "naptan:AtcoCode": "1400RR0219", "naptan:NaptanCode": "esuapwpj", "public_transport": "platform"}}, {"type": "node", "id": 4418959084, "lat": 50.9497036, "lon": 0.7292454, "tags": {"bus": "yes", "highway": "bus_stop", "name": "The Deals", "naptan:AtcoCode": "1400RR0220", "naptan:NaptanCode": "esuapwpm", "public_transport": "platform"}}, {"type": "node", "id": 4418959085, "lat": 50.9529341, "lon": 0.734924, "tags": {"bench": "no", "bin": "no", "bus": "yes", "highway": "bus_stop", "lit": "yes", "name": "Landgate", "naptan:AtcoCode": "1400RR0231", "naptan:Bearing": "NE", "naptan:CommonName": "The Landgate", "naptan:Indicator": "opp", "naptan:NaptanCode": "esuatadg", "naptan:PlusbusZoneRef": "RYEE", "naptan:Street": "Tower Street", "naptan:verified": "no", "public_transport": "platform", "shelter": "no", "tactile_paving": "no"}}, {"type": "node", "id": 4418959086, "lat": 50.9489447, "lon": 0.73429, "tags": {"bus": "yes", "highway": "bus_stop", "name": "Shipyard Lane", "naptan:AtcoCode": "1400WE10034", "naptan:Bearing": "SW", "naptan:CommonName": "Shipyard Lane", "naptan:Indicator": "adj", "naptan:NaptanCode": "esudgjpw", "naptan:PlusbusZoneRef": "RYEE", "naptan:Street": "South Undercliff", "naptan:verified": "no", "public_transport": "platform"}}, {"type": "node", "id": 4418959087, "lat": 50.9518389, "lon": 0.7357701, "tags": {"bench": "no", "bin": "yes", "bus": "yes", "highway": "bus_stop", "lit": "yes", "name": "Bowling Green", "naptan:AtcoCode": "1400RR0222", "naptan:NaptanCode": "esuapwpw", "public_transport": "platform", "shelter": "no", "tactile_paving": "no"}}, {"type": "node", "id": 6657229667, "lat": 50.9553995, "lon": 0.7356716, "tags": {"bus": "yes", "departures_board": "no", "highway": "bus_stop", "name": "Military Road", "naptan:AtcoCode": "1400RR10123", "naptan:NaptanCode": "esudmdwj", "public_transport": "platform"}}, {"type": "node", "id": 11018172399, "lat": 50.9519349, "lon": 0.7314818, "tags": {"bench": "yes", "bin": "no", "bus": "yes", "highway": "bus_stop", "lit": "yes", "local_ref": "C", "name": "Rye Railway Station", "naptan:AtcoCode": "1400RR0225", "naptan:NaptanCode": "esuapwtg", "public_transport": "platform", "shelter": "no", "tactile_paving": "no"}}, {"type": "node", "id": 11018172400, "lat": 50.9518621, "lon": 0.7315694, "tags": {"bench": "no", "bin": "no", "bus": "yes", "highway": "bus_stop", "lit": "yes", "local_ref": "B", "name": "Rye Railway Station", "naptan:AtcoCode": "1400RR0226", "naptan:NaptanCode": "esuapwtj", "public_transport": "platform", "shelter": "no", "tactile_paving": "no"}}, {"type": "node", "id": 11018172401, "lat": 50.9517819, "lon": 0.7316453, "tags": {"bench": "yes", "bin": "no", "bus": "yes", "highway": "bus_stop", "lit": "yes", "local_ref": "A", "name": "Rye Railway Station", "naptan:AtcoCode": "1400RR0227", "naptan:NaptanCode": "esuapwtm", "public_transport": "platform", "shelter": "no", "tactile_paving": "no"}}]}