{"version": 0.6, "generator": "Overpass API 0.7.62.10 2d4cfc48", "osm3s": {"timestamp_osm_base": "2026-02-27T18:16:42Z", "copyright": "The data included in this document is from www.openstreetmap.org. The data is made available under ODbL."}, "elements": [{"type": "node", "id": 132468952, "lat": 51.2522836, "lon": -0.5771275, "tags": {"amenity": "doctors", "name": "Jarvis Screening Centre", "postal_code": "GU1 1LJ"}}, {"type": "node", "id": 146406329, "lat": 51.2523661, "lon": -0.573435, "tags": {"addr:city": "Guildford", "addr:housenumber": "2", "addr:postcode": "GU1 1LL", "addr:street": "Stoughton Road", "amenity": "doctors", "email": "guildowns.practice@nhs.net", "healthcare": "doctor", "name": "Guildowns Stoughton Road Surgery", "operator": "Guildowns", "website": "https://www.guildowns.nhs.uk/stoughton-road-surgery"}}, {"type": "node", "id": 300916073, "lat": 51.2414857, "lon": -0.5840291}, {"type": "node", "id": 300916074, "lat": 51.2416232, "lon": -0.5840705}, {"type": "node", "id": 300916076, "lat": 51.2416089, "lon": -0.5841918}, {"type": "node", "id": 300916078, "lat": 51.2415351, "lon": -0.5841696}, {"type": "node", "id": 300916079, "lat": 51.2415231, "lon": -0.5842711}, {"type": "node", "id": 300916080, "lat": 51.2413688, "lon": -0.5842247}, {"type": "node", "id": 300916082, "lat": 51.2414743, "lon": -0.5841255}, {"type": "node", "id": 300916084, "lat": 51.2413837, "lon": -0.5840982}, {"type": "node", "id": 762531301, "lat": 51.2489014, "lon": -0.5884684}, {"type": "node", "id": 762531525, "lat": 51.2490435, "lon": -0.5882533}, {"type": "node", "id": 762531613, "lat": 51.2488776, "lon": -0.5882188}, {"type": "node", "id": 762531639, "lat": 51.2490652, "lon": -0.5884348}, {"type": "node", "id": 1942691858, "lat": 51.2359611, "lon": -0.5584157}, {"type": "node", "id": 1942692076, "lat": 51.2360401, "lon": -0.5583591}, {"type": "node", "id": 1942692080, "lat": 51.2360997, "lon": -0.5585716}, {"type": "node", "id": 1948977113, "lat": 51.2360651, "lon": -0.5581874}, {"type": "node", "id": 1948977114, "lat": 51.2359252, "lon": -0.5582875}, {"type": "node", "id": 1948996277, "lat": 51.2361965, "lon": -0.5585023}, {"type": "node", "id": 2618867627, "lat": 51.2361113, "lon": -0.5581982}, {"type": "node", "id": 2618867630, "lat": 51.2360899, "lon": -0.5582135, "tags": {"door": "automatic", "entrance": "main"}}, {"type": "node", "id": 5131682562, "lat": 51.2317715, "lon": -0.5768519, "tags": {"addr:city": "Guildford", "addr:housename": "2nd Floor, Buryfields", "addr:housenumber": "61", "addr:postcode": "GU2 4AX", "addr:street": "Lawn Road", "amenity": "doctors", "healthcare": "doctor", "name": "Buryfields Sexual Health Clinic", "phone": "+44 1483 783340", "toilets:wheelchair": "yes", "website": "https://www.sexualhealth.cnwl.nhs.uk/clinics/buryfields-clinic/", "wheelchair": "yes", "wheelchair:description": "Ramp from footway to entrance, automatic sliding door. Accessible toilet just inside on ground floor. Lift to 2nd floor clinic. Reception has high counter and hearing loop. Dedicated Blue Badge space with dipped kerb near entrance."}}, {"type": "node", "id": 7228363362, "lat": 51.2414808, "lon": -0.5840707}, {"type": "way", "id": 27411726, "nodes": [300916073, 300916074, 300916076, 300916078, 300916079, 300916080, 300916084, 300916082, 7228363362, 300916073], "tags": {"amenity": "doctors", "building": "yes", "healthcare": "doctor", "name": "Guildowns University Medical Centre", "source:shape": "os_street_view"}}, {"type": "way", "id": 60914546, "nodes": [762531639, 762531301, 762531613, 762531525, 762531639], "tags": {"addr:housenumber": "1", "addr:street": "Deerbarn Road", "amenity": "doctors", "building": "yes", "name": "Woodbridge Hill Surgery", "phone": "+44 844 477 8663", "postal_code": "GU2 8YB", "source": "sas", "source:name": "local_knowledge"}}, {"type": "way", "id": 184421767, "nodes": [1948996277, 1942692080, 1942692076, 1942691858, 1948977114, 1948977113, 2618867630, 2618867627, 1948996277], "tags": {"addr:city": "Guildford", "addr:postcode": "GU1 3JH", "addr:street": "Warren Road", "amenity": "doctors", "building": "commercial", "healthcare": "doctor", "name": "St Lukes Surgery"}}]}