{"version": 0.6, "generator": "Overpass API 0.7.62.10 2d4cfc48", "osm3s": {"timestamp_osm_base": "2026-03-01T06:15:49Z", "copyright": "The data included in this document is from www.openstreetmap.org. The data is made available under ODbL."}, "elements": [{"type": "node", "id": 2739767409, "lat": 51.4211365, "lon": -1.730752}, {"type": "node", "id": 2739767485, "lat": 51.4212299, "lon": -1.7305844}, {"type": "node", "id": 2739767557, "lat": 51.4213511, "lon": -1.7310597}, {"type": "node", "id": 2739767574, "lat": 51.4213945, "lon": -1.7309765}, {"type": "node", "id": 2739809279, "lat": 51.4193944, "lon": -1.7332435}, {"type": "node", "id": 2739809285, "lat": 51.4194058, "lon": -1.733265}, {"type": "node", "id": 2739809353, "lat": 51.4193116, "lon": -1.7330661}, {"type": "node", "id": 2739809614, "lat": 51.4192136, "lon": -1.7331649}, {"type": "node", "id": 2995635111, "lat": 51.4176007, "lon": -1.7298237}, {"type": "node", "id": 2995635112, "lat": 51.4175089, "lon": -1.7297002}, {"type": "node", "id": 2995635113, "lat": 51.4174033, "lon": -1.7299021}, {"type": "node", "id": 2995635114, "lat": 51.4174952, "lon": -1.7300256}, {"type": "node", "id": 4608347060, "lat": 51.4193189, "lon": -1.7333987}, {"type": "node", "id": 4608705415, "lat": 51.4214101, "lon": -1.7308403}, {"type": "node", "id": 4609596188, "lat": 51.4213063, "lon": -1.730999}, {"type": "node", "id": 4609597189, "lat": 51.4212392, "lon": -1.7309032}, {"type": "node", "id": 4609597201, "lat": 51.4214411, "lon": -1.7308834}, {"type": "node", "id": 4609597206, "lat": 51.4214356, "lon": -1.7308978}, {"type": "way", "id": 295802535, "nodes": [2995635111, 2995635112, 2995635113, 2995635114, 2995635111], "tags": {"addr:city": "Marlborough", "addr:housenumber": "55", "addr:postcode": "SN8 4BY", "addr:street": "George Lane", "amenity": "pharmacy", "building": "yes", "dispensing": "yes", "drive_through": "no", "healthcare": "pharmacy", "name": "Kennet Pharmacy"}}, {"type": "way", "id": 465934871, "nodes": [2739809279, 2739809285, 4608347060, 2739809614, 2739809353, 2739809279], "tags": {"addr:housenumber": "102-103", "addr:postcode": "SN8 1LT", "addr:street": "High Street", "amenity": "pharmacy", "brand": "Boots", "brand:wikidata": "Q6123139", "brand:wikipedia": "en:Boots (company)", "building": "yes", "fhrs:id": "262919", "healthcare": "pharmacy", "name": "Boots", "website": "https://www.boots.com/stores/452-marlborough-high-street-sn8-1lt", "wheelchair": "yes"}}, {"type": "way", "id": 466073786, "nodes": [2739767574, 2739767557, 4609596188, 4609597189, 2739767409, 2739767485, 4608705415, 4609597201, 4609597206, 2739767574], "tags": {"amenity": "pharmacy", "brand": "Superdrug", "brand:wikidata": "Q7643261", "building": "yes", "contact:website": "https://www.superdrug.com/store/marlborough", "healthcare": "pharmacy", "name": "Superdrug", "opening_hours": "Mo-Sa 09:00-17:30; Su 10:30-16:30"}}]}