{"version": 0.6, "generator": "Overpass API 0.7.62.10 2d4cfc48", "osm3s": {"timestamp_osm_base": "2026-03-01T06:03:43Z", "copyright": "The data included in this document is from www.openstreetmap.org. The data is made available under ODbL."}, "elements": [{"type": "node", "id": 335904739, "lat": 53.2391865, "lon": -1.426567, "tags": {"amenity": "pharmacy", "dispensing": "yes", "healthcare": "pharmacy"}}, {"type": "node", "id": 499182314, "lat": 53.2347856, "lon": -1.4398501, "tags": {"addr:city": "Chesterfield", "addr:housename": "Wheatbridge Surgery", "addr:postcode": "S40 2AB", "addr:street": "Wheatbridge Road", "amenity": "pharmacy", "brand": "Peak Pharmacy", "brand:wikidata": "Q122829165", "check_date": "2024-05-28", "dispensing": "yes", "fhrs:id": "214653", "healthcare": "pharmacy", "name": "Peak Pharmacy"}}, {"type": "node", "id": 1741962330, "lat": 53.2199135, "lon": -1.4364769, "tags": {"addr:city": "Chesterfield", "addr:postcode": "S40 2HP", "addr:street": "Stubbing Road", "amenity": "pharmacy", "fhrs:id": "589142", "healthcare": "pharmacy", "name": "Cohens"}}, {"type": "node", "id": 2987234031, "lat": 53.2355232, "lon": -1.4280293}, {"type": "node", "id": 2987236133, "lat": 53.235499, "lon": -1.4282356}, {"type": "node", "id": 2987236151, "lat": 53.2355268, "lon": -1.4279101}, {"type": "node", "id": 2987236152, "lat": 53.2354565, "lon": -1.4278902}, {"type": "node", "id": 2987236153, "lat": 53.2354418, "lon": -1.4282172}, {"type": "node", "id": 3855435564, "lat": 53.2205924, "lon": -1.4084472, "tags": {"addr:city": "Chesterfield", "addr:housenumber": "18-20", "addr:postcode": "S41 0LJ", "addr:street": "The Green", "amenity": "pharmacy", "check_date": "2025-05-12", "dispensing": "yes", "healthcare": "pharmacy", "name": "Hasland Pharmacy", "phone": "+44 1246 275825"}}, {"type": "node", "id": 4586122352, "lat": 53.2377288, "lon": -1.4336249}, {"type": "node", "id": 4586122359, "lat": 53.2376503, "lon": -1.4336386}, {"type": "node", "id": 4906807615, "lat": 53.2383672, "lon": -1.4378039, "tags": {"addr:city": "Chesterfield", "addr:housename": "Ashgate Medical Practice", "addr:postcode": "S40 4AA", "addr:street": "Ashgate Road", "amenity": "pharmacy", "brand": "Peak Pharmacy", "brand:wikidata": "Q122829165", "fhrs:id": "643744", "healthcare": "pharmacy", "name": "Peak Pharmacy"}}, {"type": "node", "id": 7503213562, "lat": 53.2349848, "lon": -1.4287295}, {"type": "node", "id": 7923824004, "lat": 53.2350742, "lon": -1.4283448}, {"type": "node", "id": 8225674420, "lat": 53.2349894, "lon": -1.4287805}, {"type": "node", "id": 8225674421, "lat": 53.2347749, "lon": -1.4288351}, {"type": "node", "id": 8225674422, "lat": 53.2347379, "lon": -1.4284288}, {"type": "node", "id": 8227496617, "lat": 53.2350945, "lon": -1.4285722}, {"type": "node", "id": 8227496618, "lat": 53.2350396, "lon": -1.4285857}, {"type": "node", "id": 8227496619, "lat": 53.2350508, "lon": -1.4287134}, {"type": "node", "id": 8237018359, "lat": 53.2347974, "lon": -1.428414}, {"type": "node", "id": 11414414056, "lat": 53.2380771, "lon": -1.4338345, "tags": {"amenity": "pharmacy", "healthcare": "pharmacy", "name": "Dents"}}, {"type": "node", "id": 11479352327, "lat": 53.2376648, "lon": -1.4337334}, {"type": "node", "id": 11479352333, "lat": 53.2376563, "lon": -1.4337349}, {"type": "node", "id": 11479352334, "lat": 53.2377348, "lon": -1.4337212}, {"type": "node", "id": 11875190392, "lat": 53.2355214, "lon": -1.4280507}, {"type": "node", "id": 11875190401, "lat": 53.2355266, "lon": -1.4279816}, {"type": "node", "id": 11875190403, "lat": 53.2354574, "lon": -1.428036}, {"type": "node", "id": 11875190404, "lat": 53.2354451, "lon": -1.4280334}, {"type": "node", "id": 11875190405, "lat": 53.2355602, "lon": -1.4280419}, {"type": "node", "id": 11875190406, "lat": 53.2355663, "lon": -1.4279941}, {"type": "node", "id": 11875190407, "lat": 53.2355189, "lon": -1.4279796}, {"type": "way", "id": 295050515, "nodes": [2987236133, 11875190392, 2987234031, 11875190405, 11875190406, 11875190401, 11875190407, 2987236151, 2987236152, 11875190404, 11875190403, 2987236153, 2987236133], "tags": {"addr:city": "Chesterfield", "addr:housenumber": "25", "addr:postcode": "S40 1PJ", "addr:street": "Market Place", "amenity": "pharmacy", "brand": "Peak Pharmacy", "brand:wikidata": "Q122829165", "building": "commercial", "dispensing": "yes", "fhrs:id": "780596", "healthcare": "pharmacy", "name": "Peak Pharmacy", "source:addr": "fhrs"}}, {"type": "way", "id": 884706324, "nodes": [8227496619, 8227496618, 8227496617, 7923824004, 8237018359, 8225674422, 8225674421, 8225674420, 7503213562, 8227496619], "tags": {"addr:city": "Chesterfield", "addr:housenumber": "35-37", "addr:postcode": "S40 1PB", "addr:street": "Low Pavement", "amenity": "pharmacy", "brand": "Boots", "brand:wikidata": "Q6123139", "brand:wikipedia": "en:Boots (company)", "building:levels": "2", "building:part": "yes", "fhrs:id": "932645", "healthcare": "pharmacy", "indoor": "yes", "level": "1", "name": "Boots", "source:addr": "FHRS Open Data", "website": "https://www.boots.com/stores/55-chesterfield-low-pavement-s40-1pb"}}, {"type": "way", "id": 1236342303, "nodes": [11479352334, 4586122352, 4586122359, 11479352333, 11479352327, 11479352334], "tags": {"addr:city": "Chesterfield", "addr:housenumber": "92", "addr:postcode": "S40 1LG", "addr:street": "Saltergate", "amenity": "pharmacy", "brand": "Peak Pharmacy", "brand:wikidata": "Q122829165", "building": "house", "building:use": "commercial", "fhrs:id": "768430", "healthcare": "pharmacy", "house": "terraced", "name": "Peak Pharmacy"}}]}