{"version": 0.6, "generator": "Overpass API 0.7.62.10 2d4cfc48", "osm3s": {"timestamp_osm_base": "2026-03-01T06:25:14Z", "copyright": "The data included in this document is from www.openstreetmap.org. The data is made available under ODbL."}, "elements": [{"type": "node", "id": 9467336174, "lat": 51.9957381, "lon": -2.1371207}, {"type": "node", "id": 9467336175, "lat": 51.9956637, "lon": -2.1370728}, {"type": "node", "id": 9467336176, "lat": 51.9955631, "lon": -2.1372125}, {"type": "node", "id": 9467336177, "lat": 51.9955723, "lon": -2.1371748}, {"type": "node", "id": 9467336178, "lat": 51.995557, "lon": -2.137165}, {"type": "node", "id": 9467336179, "lat": 51.9955586, "lon": -2.1371586}, {"type": "node", "id": 9467336180, "lat": 51.9956723, "lon": -2.1370376}, {"type": "node", "id": 9467336181, "lat": 51.9955453, "lon": -2.1369557}, {"type": "node", "id": 9467336182, "lat": 51.9956949, "lon": -2.1372975}, {"type": "node", "id": 9467336183, "lat": 51.9955505, "lon": -2.1369345}, {"type": "node", "id": 9467336184, "lat": 51.995451, "lon": -2.1368703}, {"type": "node", "id": 9467336185, "lat": 51.9954047, "lon": -2.1370594}, {"type": "node", "id": 9552933134, "lat": 51.9999023, "lon": -2.1316211}, {"type": "node", "id": 9552933135, "lat": 51.9999048, "lon": -2.1312177}, {"type": "node", "id": 9625219186, "lat": 51.999807, "lon": -2.1312168}, {"type": "node", "id": 9625219187, "lat": 51.9998057, "lon": -2.1316209}, {"type": "way", "id": 1026861941, "nodes": [9467336185, 9467336179, 9467336178, 9467336177, 9467336176, 9467336182, 9467336174, 9467336175, 9467336180, 9467336181, 9467336183, 9467336184, 9467336185], "tags": {"addr:city": "Tewkesbury", "addr:housenumber": "13", "addr:postcode": "GL20 8DP", "addr:street": "Ashchurch Road", "building": "yes", "contact:facebook": "https://www.facebook.com/targetactivefit", "email": "info@targetactivefitness.com", "fhrs:id": "105075", "leisure": "fitness_centre", "name": "Target Active Fitness", "personal_trainer": "yes", "phone": "+44 1684 292340", "website": "https://targetactivepersonaltraining.com/"}}, {"type": "way", "id": 1046702706, "nodes": [9625219186, 9552933135, 9552933134, 9625219187, 9625219186], "tags": {"addr:housename": "Unit 7", "addr:postcode": "GL20 8HD", "addr:street": "Green Lane", "building": "yes", "check_date": "2024-04-07", "contact:facebook": "https://www.facebook.com/Realsteelfitnesstewkesbury", "contact:instagram": "https://www.instagram.com/realsteelfitness_tewkesbury", "email": "realsteelfitness@hotmail.co.uk", "leisure": "fitness_centre", "name": "Real Steel Fitness", "opening_hours": "Mo-Fr 05:30-21:30;Sa 08:00-17:00;Su 10:00-17:00", "phone": "+44 1684 439505", "website": "https://realsteelfitness.co.uk"}}]}