{"version": 0.6, "generator": "Overpass API 0.7.62.10 2d4cfc48", "osm3s": {"timestamp_osm_base": "2026-02-26T10:33:06Z", "copyright": "The data included in this document is from www.openstreetmap.org. The data is made available under ODbL."}, "elements": [{"type": "node", "id": 9187931958, "lat": 50.7208193, "lon": -1.8841403, "tags": {"brand": "PureGym", "brand:wikidata": "Q18345898", "brand:wikipedia": "en:PureGym", "contact:website": "https://www.puregym.com/gyms/bournemouth/", "leisure": "fitness_centre", "name": "PureGym", "opening_hours": "24/7"}}, {"type": "node", "id": 10110983140, "lat": 50.7354433, "lon": -1.867059}, {"type": "node", "id": 10110983141, "lat": 50.7354232, "lon": -1.8669832}, {"type": "node", "id": 10110983142, "lat": 50.735431, "lon": -1.8670874}, {"type": "node", "id": 10110983143, "lat": 50.7354083, "lon": -1.8669946}, {"type": "node", "id": 10110983235, "lat": 50.7367213, "lon": -1.8647485}, {"type": "node", "id": 10110983238, "lat": 50.7366838, "lon": -1.86465}, {"type": "node", "id": 10110983239, "lat": 50.7367342, "lon": -1.8647824}, {"type": "node", "id": 10110983240, "lat": 50.7366964, "lon": -1.8648184}, {"type": "node", "id": 10110983241, "lat": 50.7366459, "lon": -1.8646861}, {"type": "node", "id": 11403376432, "lat": 50.7271657, "lon": -1.8567588, "tags": {"addr:housename": "10 Bournemouth Central Business Park", "addr:street": "Southcote Road", "leisure": "fitness_centre", "name": "HIIT Fitness"}}, {"type": "node", "id": 12367529804, "lat": 50.719499, "lon": -1.881232, "tags": {"addr:housenumber": "4", "addr:street": "Terrace Road", "leisure": "fitness_centre", "name": "Ippon Gym", "sport": "martial_arts"}}, {"type": "way", "id": 1104908242, "nodes": [10110983140, 10110983142, 10110983143, 10110983141, 10110983140], "tags": {"building": "yes", "leisure": "fitness_centre", "name": "BourneFit"}}, {"type": "way", "id": 1104908271, "nodes": [10110983235, 10110983239, 10110983240, 10110983241, 10110983238, 10110983235], "tags": {"building": "yes", "leisure": "fitness_centre", "name": "Hit 4 Fitness"}}]}