{"version": 0.6, "generator": "Overpass API 0.7.62.10 2d4cfc48", "osm3s": {"timestamp_osm_base": "2026-03-01T06:04:44Z", "copyright": "The data included in this document is from www.openstreetmap.org. The data is made available under ODbL."}, "elements": [{"type": "node", "id": 2622817154, "lat": 54.6659572, "lon": -3.3686285}, {"type": "node", "id": 2622817156, "lat": 54.6660379, "lon": -3.3681752}, {"type": "node", "id": 2622817157, "lat": 54.6659293, "lon": -3.3681161}, {"type": "node", "id": 2622817159, "lat": 54.6658626, "lon": -3.3684541}, {"type": "node", "id": 2622817161, "lat": 54.6658005, "lon": -3.3684192}, {"type": "node", "id": 2622817162, "lat": 54.6657788, "lon": -3.3685346}, {"type": "node", "id": 4059580549, "lat": 54.6659249, "lon": -3.3587082, "tags": {"addr:city": "Cockermouth", "addr:housename": "Cockermouth Community Hospital", "addr:postcode": "CA13 9HT", "addr:street": "Isel Road", "amenity": "doctors", "healthcare": "doctor", "name": "Castlegate & Derwent Surgery", "phone": "+44 1900 705350;+44 1900 705750", "ref:GB:nhs_ods": "A82021", "website": "https://derwentsurgery.co.uk/"}}, {"type": "way", "id": 256638534, "nodes": [2622817154, 2622817156, 2622817157, 2622817159, 2622817161, 2622817162, 2622817154], "tags": {"amenity": "doctors", "building": "yes", "healthcare": "doctor", "name": "Derwent House Surgery", "wheelchair": "yes"}}]}