{"version": 0.6, "generator": "Overpass API 0.7.62.10 2d4cfc48", "osm3s": {"timestamp_osm_base": "2026-03-01T06:09:57Z", "copyright": "The data included in this document is from www.openstreetmap.org. The data is made available under ODbL."}, "elements": [{"type": "node", "id": 582876002, "lat": 50.8682746, "lon": 0.5564863, "tags": {"bus": "yes", "highway": "bus_stop", "name": "Chatham Road", "naptan:AtcoCode": "1400HA10025", "naptan:Bearing": "E", "naptan:CommonName": "Chatham Road", "naptan:Indicator": "on", "naptan:NaptanCode": "esudgmgj", "naptan:PlusbusZoneRef": "HASTING", "naptan:Street": "Chatham Road", "naptan:verified": "no", "public_transport": "platform"}}, {"type": "node", "id": 745491607, "lat": 50.8577743, "lon": 0.5932073, "tags": {"bench": "yes", "bin": "yes", "bus": "yes", "highway": "bus_stop", "name": "Roebuck Street", "naptan:AtcoCode": "1400HA0428", "naptan:NaptanCode": "esuajpdw", "public_transport": "platform", "route_ref": "100;20;20A", "shelter": "yes", "tactile_paving": "yes", "towards": "Lydd;Ore"}}, {"type": "node", "id": 1725455668, "lat": 50.861158, "lon": 0.5497945, "tags": {"bench": "no", "bin": "no", "bus": "yes", "highway": "bus_stop", "lit": "yes", "name": "Filsham Road Top", "naptan:AtcoCode": "1400HA0127", "naptan:Bearing": "N", "naptan:CommonName": "Filsham Road Top", "naptan:Indicator": "adj", "naptan:NaptanCode": "esuagtjp", "naptan:PlusbusZoneRef": "HASTING", "naptan:Street": "The Green", "naptan:verified": "no", "public_transport": "platform", "ref": "esuagtjp", "shelter": "no", "tactile_paving": "no"}}, {"type": "node", "id": 1725455689, "lat": 50.8630015, "lon": 0.5505258, "tags": {"bus": "yes", "highway": "bus_stop", "name": "Springfield Road", "naptan:AtcoCode": "1400HA0128", "naptan:Bearing": "NE", "naptan:CommonName": "Springfield Road", "naptan:Indicator": "opp", "naptan:NaptanCode": "esuagtjt", "naptan:PlusbusZoneRef": "HASTING", "naptan:Street": "The Green", "naptan:verified": "no", "public_transport": "platform", "ref": "esuagtjt", "shelter": "yes"}}, {"type": "node", "id": 1725455703, "lat": 50.8667898, "lon": 0.5549239, "tags": {"bench": "no", "bin": "no", "bus": "yes", "highway": "bus_stop", "lit": "yes", "name": "Ponswood Road", "naptan:AtcoCode": "1400HA0154", "naptan:Bearing": "SW", "naptan:CommonName": "Ponswood Road", "naptan:Indicator": "opp", "naptan:NaptanCode": "esuagwam", "naptan:PlusbusZoneRef": "HASTING", "naptan:Street": "Sedlescombe Road South", "naptan:verified": "no", "public_transport": "platform", "ref": "esuagwam", "shelter": "no", "tactile_paving": "yes"}}, {"type": "node", "id": 1725455789, "lat": 50.858746, "lon": 0.5464673, "tags": {"bench": "no", "bin": "no", "bus": "yes", "highway": "bus_stop", "naptan:AtcoCode": "1400HA0027", "naptan:NaptanCode": "esuagmpw", "public_transport": "platform", "shelter": "no"}}, {"type": "node", "id": 1725455796, "lat": 50.8642137, "lon": 0.5520776, "tags": {"bench": "no", "bin": "no", "bus": "yes", "highway": "bus_stop", "lit": "yes", "name": "St Matthew's Gardens", "naptan:AtcoCode": "1400HA10028", "naptan:Bearing": "NE", "naptan:CommonName": "St Matthew's Gardens", "naptan:Indicator": "opp", "naptan:NaptanCode": "esudgmgt", "naptan:PlusbusZoneRef": "HASTING", "naptan:Street": "Sedlescombe Road South", "naptan:verified": "no", "public_transport": "platform", "ref": "esudgmgt", "shelter": "no", "tactile_paving": "yes"}}, {"type": "node", "id": 1725455824, "lat": 50.8667306, "lon": 0.5547361, "tags": {"bench": "no", "bin": "no", "bus": "yes", "highway": "bus_stop", "lit": "yes", "name": "Ponswood Road", "naptan:AtcoCode": "1400HA0131", "naptan:Bearing": "NE", "naptan:CommonName": "Ponswood Road", "naptan:Indicator": "adj", "naptan:NaptanCode": "esuagtmd", "naptan:PlusbusZoneRef": "HASTING", "naptan:Street": "Sedlescombe Road South", "naptan:verified": "no", "public_transport": "platform", "ref": "esuagtmd", "shelter": "no", "tactile_paving": "yes"}}, {"type": "node", "id": 1725455878, "lat": 50.8646884, "lon": 0.5528419, "tags": {"bench": "no", "bin": "no", "bus": "yes", "highway": "bus_stop", "lit": "yes", "name": "St Matthew's Gardens", "naptan:AtcoCode": "1400HA0130", "naptan:Bearing": "SW", "naptan:CommonName": "St Matthew's Gardens", "naptan:Indicator": "adj", "naptan:NaptanCode": "esuagtma", "naptan:PlusbusZoneRef": "HASTING", "naptan:Street": "Sedlescombe Road South", "naptan:verified": "no", "public_transport": "platform", "ref": "esuagtma", "shelter": "no", "tactile_paving": "no"}}, {"type": "node", "id": 1725455880, "lat": 50.862958, "lon": 0.550568, "tags": {"bus": "yes", "highway": "bus_stop", "name": "Springfield Road", "naptan:AtcoCode": "1400HA0129", "naptan:NaptanCode": "esuagtjw", "public_transport": "platform", "ref": "esuagtjw", "shelter": "yes"}}, {"type": "node", "id": 1725455898, "lat": 50.8585586, "lon": 0.5459908, "tags": {"bench": "no", "bin": "no", "bus": "yes", "highway": "bus_stop", "name": "Gresham Way", "naptan:AtcoCode": "1400HA0026", "naptan:Bearing": "NE", "naptan:CommonName": "Gresham Way", "naptan:Indicator": "adj", "naptan:NaptanCode": "esuagmpt", "naptan:PlusbusZoneRef": "HASTING", "naptan:Street": "Filsham Road", "naptan:verified": "no", "public_transport": "platform", "shelter": "no"}}, {"type": "node", "id": 1725455936, "lat": 50.8605311, "lon": 0.5500371, "tags": {"bench": "yes", "bin": "no", "bus": "yes", "highway": "bus_stop", "lit": "yes", "name": "Filsham Road Top", "naptan:AtcoCode": "1400HA0126", "naptan:NaptanCode": "esuagtjm", "public_transport": "platform", "ref": "esuagtjm", "shelter": "yes", "tactile_paving": "no"}}, {"type": "node", "id": 1725564277, "lat": 50.8702075, "lon": 0.5515671, "tags": {"bus": "yes", "highway": "bus_stop", "public_transport": "platform"}}, {"type": "node", "id": 1725564328, "lat": 50.8686323, "lon": 0.5507094, "tags": {"bus": "yes", "highway": "bus_stop", "public_transport": "platform"}}, {"type": "node", "id": 1725564352, "lat": 50.8689012, "lon": 0.5510842, "tags": {"bus": "yes", "highway": "bus_stop", "name": "Howdens", "naptan:AtcoCode": "1400HA10026", "naptan:Bearing": "NE", "naptan:CommonName": "Howdens", "naptan:Indicator": "opp", "naptan:NaptanCode": "esudgmgm", "naptan:PlusbusZoneRef": "HASTING", "naptan:Street": "Drury Lane", "naptan:verified": "no", "public_transport": "platform"}}, {"type": "node", "id": 1725564414, "lat": 50.8677683, "lon": 0.5500476, "tags": {"bench": "no", "bin": "no", "bus": "yes", "highway": "bus_stop", "lit": "yes", "name": "Conveyancing Direct", "naptan:AtcoCode": "1400HA0132", "naptan:NaptanCode": "esuagtmg", "public_transport": "platform", "shelter": "no", "tactile_paving": "no"}}, {"type": "node", "id": 1725564440, "lat": 50.8707221, "lon": 0.5521598, "tags": {"bench": "no", "bin": "no", "bus": "yes", "highway": "bus_stop", "naptan:AtcoCode": "1400HA0134", "naptan:NaptanCode": "esuagtmp", "public_transport": "platform", "shelter": "no"}}, {"type": "node", "id": 3574484893, "lat": 50.8568346, "lon": 0.5818062, "tags": {"bench": "yes", "bin": "yes", "bus": "yes", "highway": "bus_stop", "lit": "yes", "local_ref": "M", "name": "Priory Meadow", "naptan:AtcoCode": "1400HA84359", "naptan:NaptanCode": "esudgajp", "public_transport": "platform", "ref": "esudgajp", "shelter": "yes", "tactile_paving": "yes"}}, {"type": "node", "id": 7636057639, "lat": 50.8574281, "lon": 0.593106, "tags": {"bus": "yes", "highway": "bus_stop", "name": "Roebuck Street", "naptan:AtcoCode": "1400HA0429", "naptan:NaptanCode": "esuajpga", "public_transport": "platform"}}, {"type": "node", "id": 8479890751, "lat": 50.8582105, "lon": 0.5507262, "tags": {"bench": "yes", "bin": "yes", "bus": "yes", "highway": "bus_stop", "lit": "yes", "name": "Albany Mansions", "naptan:AtcoCode": "1400HA0125", "naptan:NaptanCode": "esuagtjg", "public_transport": "platform", "ref": "esuagtjg", "shelter": "yes", "tactile_paving": "no"}}, {"type": "node", "id": 8479890752, "lat": 50.8580485, "lon": 0.5510215, "tags": {"bench": "yes", "bin": "yes", "bus": "yes", "highway": "bus_stop", "lit": "yes", "name": "Albany Mansions", "naptan:AtcoCode": "1400HA0124", "naptan:NaptanCode": "esuagtjd", "public_transport": "platform", "ref": "esuagtjd", "shelter": "yes", "tactile_paving": "no"}}, {"type": "node", "id": 8479890753, "lat": 50.8557638, "lon": 0.5530932, "tags": {"bench": "no", "bin": "yes", "bus": "yes", "highway": "bus_stop", "lit": "yes", "name": "St John's Church", "naptan:AtcoCode": "1400HA0116", "naptan:NaptanCode": "esuagtgj", "public_transport": "platform", "ref": "esuagtgj", "shelter": "yes", "tactile_paving": "no"}}, {"type": "node", "id": 8479890754, "lat": 50.8556688, "lon": 0.5532667, "tags": {"bench": "yes", "bin": "yes", "bus": "yes", "highway": "bus_stop", "lit": "yes", "name": "St John's Church", "naptan:AtcoCode": "1400HA0115", "naptan:NaptanCode": "esuagtgd", "public_transport": "platform", "ref": "esuagtgd", "shelter": "no", "tactile_paving": "no"}}, {"type": "node", "id": 8479890755, "lat": 50.8556185, "lon": 0.5566696, "tags": {"bench": "yes", "bin": "yes", "bus": "yes", "highway": "bus_stop", "lit": "yes", "name": "Charles Road", "naptan:AtcoCode": "1400HA0114", "naptan:NaptanCode": "esuagtga", "public_transport": "platform", "ref": "esuagtga", "shelter": "yes", "tactile_paving": "no"}}, {"type": "node", "id": 8479890756, "lat": 50.8554644, "lon": 0.5567599, "tags": {"bench": "yes", "bin": "no", "bus": "yes", "highway": "bus_stop", "lit": "yes", "name": "Charles Road", "naptan:AtcoCode": "1400HA0113", "naptan:NaptanCode": "esuagtdw", "public_transport": "platform", "ref": "esuagtdw", "shelter": "no", "tactile_paving": "no"}}, {"type": "node", "id": 8480053334, "lat": 50.853963, "lon": 0.5597752, "tags": {"bench": "yes", "bin": "yes", "bus": "yes", "highway": "bus_stop", "lit": "yes", "name": "Christ Church", "naptan:AtcoCode": "1400HA0142", "naptan:Bearing": "S", "naptan:CommonName": "Christ Church", "naptan:Indicator": "opp", "naptan:NaptanCode": "esuagtpt", "naptan:PlusbusZoneRef": "HASTING", "naptan:Street": "London Road", "naptan:verified": "no", "public_transport": "platform", "ref": "esuagtpt", "shelter": "yes", "tactile_paving": "no"}}, {"type": "node", "id": 8480053335, "lat": 50.8535999, "lon": 0.5597416, "tags": {"bench": "yes", "bin": "yes", "bus": "yes", "departures_board": "yes", "highway": "bus_stop", "lit": "yes", "name": "Christ Church", "naptan:AtcoCode": "1400HA0112", "naptan:Bearing": "N", "naptan:CommonName": "Christ Church", "naptan:Indicator": "adj", "naptan:NaptanCode": "esuagtdt", "naptan:PlusbusZoneRef": "HASTING", "naptan:Street": "London Road", "naptan:verified": "no", "public_transport": "platform", "ref": "esuagtdt", "shelter": "yes", "tactile_paving": "no"}}, {"type": "node", "id": 8480053336, "lat": 50.8521781, "lon": 0.5638986, "tags": {"bench": "yes", "bin": "yes", "bus": "yes", "highway": "bus_stop", "lit": "yes", "name": "Warrior Square", "naptan:AtcoCode": "1400HA0108", "naptan:Bearing": "E", "naptan:CommonName": "Warrior Square", "naptan:Indicator": "adj", "naptan:NaptanCode": "esuagtdg", "naptan:PlusbusZoneRef": "HASTING", "naptan:Street": "Grand Parade", "naptan:verified": "no", "public_transport": "platform", "ref": "esuagtdg", "shelter": "yes", "tactile_paving": "no"}}, {"type": "node", "id": 8480053337, "lat": 50.8519869, "lon": 0.5635193, "tags": {"bench": "yes", "bin": "yes", "bus": "yes", "highway": "bus_stop", "lit": "yes", "name": "Warrior Square", "naptan:AtcoCode": "1400HA0109", "naptan:NaptanCode": "esuagtdj", "public_transport": "platform", "ref": "esuagtdj", "shelter": "yes", "tactile_paving": "yes"}}, {"type": "node", "id": 8480053338, "lat": 50.8528769, "lon": 0.5682112, "tags": {"bench": "no", "bin": "no", "bus": "yes", "highway": "bus_stop", "lit": "yes", "name": "Eversfield Place", "naptan:AtcoCode": "1400HA0110", "naptan:NaptanCode": "esuagtdm", "public_transport": "platform", "ref": "esuagtdm", "shelter": "no", "tactile_paving": "yes"}}, {"type": "node", "id": 8480053339, "lat": 50.8527943, "lon": 0.5684577, "tags": {"bench": "yes", "bin": "no", "bus": "yes", "highway": "bus_stop", "lit": "yes", "name": "Eversfield Place", "naptan:AtcoCode": "1400HA0111", "naptan:NaptanCode": "esuagtdp", "public_transport": "platform", "ref": "esuagtdp", "shelter": "yes", "tactile_paving": "yes"}}, {"type": "node", "id": 8480053340, "lat": 50.8540518, "lon": 0.5751836, "tags": {"bus": "yes", "highway": "bus_stop", "local_ref": "T", "name": "Robertson Street (Stop T)", "naptan:AtcoCode": "1400HA0432", "naptan:NaptanCode": "esuajpgm", "public_transport": "platform", "ref": "esuajpgm", "shelter": "yes"}}, {"type": "node", "id": 8480053341, "lat": 50.8544165, "lon": 0.5773203, "tags": {"bus": "yes", "highway": "bus_stop", "local_ref": "L", "name": "Robertson Street (Stop L)", "naptan:AtcoCode": "1400HA0419", "naptan:NaptanCode": "esuajpdm", "public_transport": "platform", "ref": "esuajpdm", "shelter": "yes"}}, {"type": "node", "id": 8480053342, "lat": 50.8551964, "lon": 0.5800671, "tags": {"bench": "no", "bin": "yes", "bus": "yes", "highway": "bus_stop", "lit": "yes", "name": "Harold Place (Stop P)", "naptan:AtcoCode": "1400HA0444", "naptan:NaptanCode": "esuajpmd", "public_transport": "platform", "ref": "esuajpmd", "shelter": "no", "tactile_paving": "no"}}, {"type": "node", "id": 8480053343, "lat": 50.8553676, "lon": 0.5802057, "tags": {"bench": "yes", "bin": "yes", "bus": "yes", "highway": "bus_stop", "lit": "yes", "local_ref": "Q", "name": "Harold Place", "naptan:AtcoCode": "1400HA0443", "naptan:NaptanCode": "esuajpma", "public_transport": "platform", "ref": "esuajpma", "shelter": "yes", "tactile_paving": "no"}}, {"type": "node", "id": 8480053344, "lat": 50.8558285, "lon": 0.5795895, "tags": {"bench": "yes", "bin": "yes", "bus": "yes", "highway": "bus_stop", "lit": "yes", "local_ref": "G", "name": "Havelock Road", "naptan:AtcoCode": "1400HA0442", "naptan:Bearing": "SE", "naptan:CommonName": "Havelock Road", "naptan:Indicator": "Stop G", "naptan:NaptanCode": "esuajpjw", "naptan:PlusbusZoneRef": "HASTING", "naptan:Street": "Havelock Road", "naptan:verified": "no", "public_transport": "platform", "ref": "esuajpjw", "shelter": "yes", "tactile_paving": "yes"}}, {"type": "node", "id": 8483327207, "lat": 50.8569648, "lon": 0.5816985, "tags": {"bench": "yes", "bin": "yes", "bus": "yes", "highway": "bus_stop", "lit": "yes", "local_ref": "H", "name": "Priory Meadow", "naptan:AtcoCode": "1400HA84363", "naptan:NaptanCode": "esudgajw", "public_transport": "platform", "ref": "esudgajw", "shelter": "yes", "tactile_paving": "yes"}}, {"type": "node", "id": 8483327208, "lat": 50.8569483, "lon": 0.5819435, "tags": {"bench": "yes", "bin": "no", "bus": "yes", "highway": "bus_stop", "lit": "yes", "local_ref": "N", "name": "Priory Meadow", "naptan:AtcoCode": "1400HA84369", "naptan:NaptanCode": "esudgamg", "public_transport": "platform", "ref": "esudgamg", "shelter": "yes", "tactile_paving": "yes"}}, {"type": "node", "id": 8483327209, "lat": 50.856814, "lon": 0.5815198, "tags": {"bench": "yes", "bin": "yes", "bus": "yes", "highway": "bus_stop", "lit": "yes", "local_ref": "J", "name": "Priory Meadow", "naptan:AtcoCode": "1400HA84365", "naptan:NaptanCode": "esudgama", "public_transport": "platform", "ref": "esudgama", "shelter": "yes", "tactile_paving": "yes"}}, {"type": "node", "id": 8483327210, "lat": 50.856719, "lon": 0.5816779, "tags": {"bench": "yes", "bin": "yes", "bus": "yes", "highway": "bus_stop", "lit": "yes", "local_ref": "W", "name": "Priory Meadow", "naptan:AtcoCode": "1400HA84361", "naptan:NaptanCode": "esudgajt", "public_transport": "platform", "ref": "esudgajt", "shelter": "yes", "tactile_paving": "yes"}}, {"type": "node", "id": 8483327211, "lat": 50.8566682, "lon": 0.5813506, "tags": {"bench": "yes", "bin": "yes", "bus": "yes", "highway": "bus_stop", "lit": "yes", "local_ref": "K", "name": "Priory Meadow", "naptan:AtcoCode": "1400HA84367", "naptan:NaptanCode": "esudgamd", "public_transport": "platform", "ref": "esudgamd", "shelter": "yes", "tactile_paving": "yes"}}, {"type": "node", "id": 8483367225, "lat": 50.8593226, "lon": 0.5836107, "tags": {"bench": "no", "bin": "no", "bus": "yes", "highway": "bus_stop", "lit": "yes", "name": "Morrisons", "naptan:AtcoCode": "1400HA0445", "naptan:NaptanCode": "esuajpmg", "public_transport": "platform", "ref": "esuajpmg", "shelter": "no", "tactile_paving": "yes"}}, {"type": "node", "id": 8483367226, "lat": 50.8601932, "lon": 0.5840508, "tags": {"bench": "yes", "bin": "yes", "bus": "yes", "highway": "bus_stop", "lit": "yes", "name": "Morrisons", "naptan:AtcoCode": "1400HA0446", "naptan:Bearing": "N", "naptan:CommonName": "Morrisons", "naptan:Indicator": "adj", "naptan:NaptanCode": "esuajpmj", "naptan:PlusbusZoneRef": "HASTING", "naptan:Street": "Queen's Road", "naptan:verified": "no", "public_transport": "platform", "ref": "esuajpmj", "shelter": "yes", "tactile_paving": "no"}}, {"type": "node", "id": 8483367227, "lat": 50.862089, "lon": 0.5838831, "tags": {"bench": "yes", "bin": "no", "bus": "yes", "highway": "bus_stop", "name": "Stonefield Road", "naptan:AtcoCode": "1400HA0447", "naptan:Bearing": "SE", "naptan:CommonName": "Stonefield Road", "naptan:Indicator": "adj", "naptan:NaptanCode": "esuajpmp", "naptan:PlusbusZoneRef": "HASTING", "naptan:Street": "Queen's Road", "naptan:verified": "no", "public_transport": "platform", "ref": "esuajpmp", "shelter": "yes", "tactile_paving": "no"}}, {"type": "node", "id": 8483367228, "lat": 50.8627517, "lon": 0.5820282, "tags": {"bench": "yes", "bus": "yes", "highway": "bus_stop", "name": "Park Gates", "naptan:AtcoCode": "1400HA0218", "naptan:NaptanCode": "esuajajm", "public_transport": "platform", "ref": "esuajajm", "shelter": "yes"}}, {"type": "node", "id": 8483367229, "lat": 50.8643513, "lon": 0.5799575, "tags": {"bench": "no", "bus": "yes", "highway": "bus_stop", "name": "Pavilion", "naptan:AtcoCode": "1400HA0219", "naptan:NaptanCode": "esuajajp", "public_transport": "platform", "ref": "esuajajp", "shelter": "no"}}, {"type": "node", "id": 8483367231, "lat": 50.8647381, "lon": 0.5795851, "tags": {"bench": "no", "bus": "yes", "highway": "bus_stop", "name": "Pavilion", "naptan:AtcoCode": "1400HA0220", "naptan:NaptanCode": "esuajajt", "public_transport": "platform", "ref": "esuajajt", "shelter": "no"}}, {"type": "node", "id": 8483367232, "lat": 50.8652834, "lon": 0.577382, "tags": {"bench": "yes", "bus": "yes", "highway": "bus_stop", "name": "St Helen's Park Road", "naptan:AtcoCode": "1400HA0222", "naptan:NaptanCode": "esuajajw", "public_transport": "platform", "ref": "esuajajw", "shelter": "no"}}, {"type": "node", "id": 8483367233, "lat": 50.8653298, "lon": 0.577598, "tags": {"bench": "no", "bin": "no", "bus": "yes", "highway": "bus_stop", "name": "St Helen's Park Road", "naptan:AtcoCode": "1400HA0221", "naptan:Bearing": "E", "naptan:CommonName": "St Helen's Park Road", "naptan:Indicator": "adj", "naptan:NaptanCode": "esudgdmt", "naptan:PlusbusZoneRef": "HASTING", "naptan:Street": "St Helen's Road", "naptan:verified": "no", "public_transport": "platform", "ref": "esudgdmt", "shelter": "no"}}, {"type": "node", "id": 8483367234, "lat": 50.8654234, "lon": 0.5721937, "tags": {"bench": "no", "bus": "yes", "highway": "bus_stop", "name": "Dordrecht Way", "naptan:AtcoCode": "1400HA10007", "naptan:NaptanCode": "esudgjwj", "public_transport": "platform", "ref": "esudgjwj", "shelter": "no"}}, {"type": "node", "id": 8483367235, "lat": 50.8654934, "lon": 0.5723676, "tags": {"bin": "yes", "bus": "yes", "check_date:shelter": "2023-06-16", "highway": "bus_stop", "name": "Dordrecht Way", "naptan:AtcoCode": "1400HA0224", "naptan:NaptanCode": "esuajama", "public_transport": "platform", "ref": "esuajama", "shelter": "yes"}}, {"type": "node", "id": 8483367236, "lat": 50.8657944, "lon": 0.5711854, "tags": {"bench": "no", "bin": "no", "bus": "yes", "highway": "bus_stop", "lit": "yes", "name": "Helenshurst Court", "naptan:AtcoCode": "1400HA0225", "naptan:Bearing": "NE", "naptan:CommonName": "Helenshurst Court", "naptan:Indicator": "opp", "naptan:NaptanCode": "esuajamd", "naptan:PlusbusZoneRef": "HASTING", "naptan:Street": "Ashford Road", "naptan:verified": "no", "public_transport": "platform", "ref": "esuajamd", "shelter": "no", "tactile_paving": "no"}}, {"type": "node", "id": 8483367237, "lat": 50.8659616, "lon": 0.5715744, "tags": {"bench": "no", "bin": "no", "bus": "yes", "highway": "bus_stop", "lit": "yes", "name": "Helenshurst Court", "naptan:AtcoCode": "1400HA0226", "naptan:Bearing": "SW", "naptan:CommonName": "Helenshurst Court", "naptan:Indicator": "adj", "naptan:NaptanCode": "esuajamg", "naptan:PlusbusZoneRef": "HASTING", "naptan:Street": "Ashford Road", "naptan:verified": "no", "public_transport": "platform", "ref": "esuajamg", "shelter": "no", "tactile_paving": "no"}}, {"type": "node", "id": 8483367238, "lat": 50.8680296, "lon": 0.5689737, "tags": {"bench": "no", "bin": "no", "bus": "yes", "highway": "bus_stop", "name": "Park View", "naptan:AtcoCode": "1400HA0228", "naptan:NaptanCode": "esuajamp", "public_transport": "platform", "ref": "esuajamp", "shelter": "no"}}, {"type": "node", "id": 8483367239, "lat": 50.8678675, "lon": 0.5692994, "tags": {"bench": "no", "bin": "no", "bus": "yes", "highway": "bus_stop", "name": "Park View", "naptan:AtcoCode": "1400HA0227", "naptan:NaptanCode": "esuajamj", "public_transport": "platform", "ref": "esuajamj", "shelter": "no"}}, {"type": "node", "id": 8483367240, "lat": 50.870825, "lon": 0.5676918, "tags": {"bus": "yes", "highway": "bus_stop", "name": "Park Way", "naptan:AtcoCode": "1400HA0217", "naptan:NaptanCode": "esuajajg", "public_transport": "platform", "ref": "esuajajg", "shelter": "no"}}, {"type": "node", "id": 8483367241, "lat": 50.8709223, "lon": 0.5679108, "tags": {"bench": "yes", "bin": "yes", "bus": "yes", "check_date:shelter": "2023-06-16", "highway": "bus_stop", "name": "Park Way", "naptan:AtcoCode": "1400HA0216", "naptan:Bearing": "S", "naptan:CommonName": "Park Way", "naptan:Indicator": "adj", "naptan:NaptanCode": "esuajajd", "naptan:PlusbusZoneRef": "HASTING", "naptan:Street": "Park View", "naptan:verified": "no", "public_transport": "platform", "ref": "esuajajd", "shelter": "yes", "tactile_paving": "no"}}, {"type": "node", "id": 8483367272, "lat": 50.8717569, "lon": 0.5582581, "tags": {"bench": "no", "bin": "no", "bus": "yes", "highway": "bus_stop", "name": "Burry Road", "naptan:AtcoCode": "1400WE10021", "naptan:NaptanCode": "esudgjma", "public_transport": "platform", "ref": "esudgjma", "shelter": "no", "tactile_paving": "no"}}, {"type": "node", "id": 8483367273, "lat": 50.8708507, "lon": 0.5582325, "tags": {"bus": "yes", "highway": "bus_stop", "name": "Burry Road", "naptan:AtcoCode": "1400HA0159", "naptan:Bearing": "S", "naptan:CommonName": "Burry Road", "naptan:Indicator": "adj", "naptan:NaptanCode": "esuagwdg", "naptan:PlusbusZoneRef": "HASTING", "naptan:Street": "Sedlescombe Road North", "naptan:verified": "no", "public_transport": "platform", "ref": "esuagwdg"}}, {"type": "node", "id": 8483367274, "lat": 50.8688608, "lon": 0.5564194, "tags": {"bin": "yes", "bus": "yes", "highway": "bus_stop", "name": "Filling Station", "naptan:AtcoCode": "1400HA0158", "naptan:NaptanCode": "esuagwda", "public_transport": "platform", "ref": "esuagwda", "shelter": "yes"}}, {"type": "node", "id": 8483367275, "lat": 50.8684361, "lon": 0.5559685, "tags": {"bench": "yes", "bin": "yes", "bus": "yes", "departures_board": "realtime", "highway": "bus_stop", "name": "Filling Station", "naptan:AtcoCode": "1400HA0157", "naptan:Bearing": "NE", "naptan:CommonName": "Filling Station", "naptan:Indicator": "adj", "naptan:NaptanCode": "esuagwaw", "naptan:PlusbusZoneRef": "HASTING", "naptan:Street": "Sedlescombe Road North", "naptan:verified": "no", "public_transport": "platform", "ref": "esuagwaw", "shelter": "yes", "tactile_paving": "no"}}, {"type": "node", "id": 9431038568, "lat": 50.855091, "lon": 0.5852452, "tags": {"bench": "yes", "bus": "yes", "departures_board": "realtime", "highway": "bus_stop", "local_ref": "Z", "name": "Pelham Place", "naptan:AtcoCode": "1400HA0431", "naptan:NaptanCode": "esuajpgj", "operator": "Stagecoach", "public_transport": "platform", "ref": "esuajpgj", "shelter": "yes"}}, {"type": "node", "id": 9455386398, "lat": 50.8557786, "lon": 0.5896206}, {"type": "node", "id": 9455386399, "lat": 50.8557657, "lon": 0.5896332}, {"type": "node", "id": 9455386400, "lat": 50.855788, "lon": 0.5896904}, {"type": "node", "id": 9455386401, "lat": 50.8558009, "lon": 0.5896777}, {"type": "node", "id": 9455585271, "lat": 50.8560606, "lon": 0.5910572}, {"type": "node", "id": 9455585272, "lat": 50.8560484, "lon": 0.5910598}, {"type": "node", "id": 9455585273, "lat": 50.8560445, "lon": 0.5910141}, {"type": "node", "id": 9455585275, "lat": 50.8560566, "lon": 0.5910115}, {"type": "node", "id": 10222316419, "lat": 50.8506501, "lon": 0.5487607, "tags": {"bus": "yes", "highway": "bus_stop", "name": "Athlone Court", "naptan:AtcoCode": "1400HA0101", "naptan:NaptanCode": "esuagtag", "public_transport": "platform"}}, {"type": "node", "id": 10222316420, "lat": 50.8507399, "lon": 0.5482002, "tags": {"bus": "yes", "highway": "bus_stop", "name": "Athlone Court", "naptan:AtcoCode": "1400HA0100", "naptan:NaptanCode": "esuagtad", "public_transport": "platform"}}, {"type": "node", "id": 10222316421, "lat": 50.8518982, "lon": 0.5487527, "tags": {"bus": "yes", "highway": "bus_stop", "name": "Highlands Inn", "naptan:AtcoCode": "1400HA0122", "naptan:NaptanCode": "esuagtgw", "public_transport": "platform"}}, {"type": "node", "id": 10222316422, "lat": 50.8517678, "lon": 0.5474706, "tags": {"bus": "yes", "highway": "bus_stop", "name": "Highlands Inn", "naptan:AtcoCode": "1400HA10035", "naptan:Bearing": "E", "naptan:CommonName": "The Highlands Inn", "naptan:Indicator": "E-bound", "naptan:NaptanCode": "esudgmjt", "naptan:PlusbusZoneRef": "HASTING", "naptan:Street": "West Hill Road", "naptan:verified": "no", "public_transport": "platform"}}, {"type": "node", "id": 10222316423, "lat": 50.8508449, "lon": 0.5525722, "tags": {"bus": "yes", "highway": "bus_stop", "name": "Greeba Court", "naptan:AtcoCode": "1400HA0102", "naptan:NaptanCode": "esuagtaj", "public_transport": "platform"}}, {"type": "node", "id": 10222316424, "lat": 50.8507509, "lon": 0.5529168, "tags": {"bus": "yes", "highway": "bus_stop", "name": "Greeba Court", "naptan:AtcoCode": "1400HA0103", "naptan:NaptanCode": "esuagtam", "public_transport": "platform"}}, {"type": "node", "id": 10222316425, "lat": 50.8508246, "lon": 0.5561771, "tags": {"bus": "yes", "highway": "bus_stop", "name": "Marina Pavilion", "naptan:AtcoCode": "1400HA0104", "naptan:NaptanCode": "esuagtap", "public_transport": "platform"}}, {"type": "node", "id": 10222316426, "lat": 50.8509753, "lon": 0.5567698, "tags": {"bus": "yes", "highway": "bus_stop", "name": "Marina Pavilion", "naptan:AtcoCode": "1400HA0105", "naptan:NaptanCode": "esuagtat", "public_transport": "platform"}}, {"type": "node", "id": 10222316427, "lat": 50.8513546, "lon": 0.5589934, "tags": {"bus": "yes", "highway": "bus_stop", "name": "Market Street", "naptan:AtcoCode": "1400HA0106", "naptan:NaptanCode": "esuagtaw", "public_transport": "platform"}}, {"type": "node", "id": 10222316428, "lat": 50.8512885, "lon": 0.5593904, "tags": {"bus": "yes", "highway": "bus_stop", "name": "Market Street", "naptan:AtcoCode": "1400HA0107", "naptan:NaptanCode": "esuagtda", "public_transport": "platform"}}, {"type": "node", "id": 10655336766, "lat": 50.8553744, "lon": 0.5717781, "tags": {"bus": "yes", "departures_board": "timetable", "highway": "bus_stop", "name": "White Rock Gardens", "naptan:AtcoCode": "1400HA0410", "naptan:NaptanCode": "esuajpaj", "public_transport": "platform", "shelter": "yes"}}, {"type": "node", "id": 10655336767, "lat": 50.8552303, "lon": 0.5728293, "tags": {"bus": "yes", "highway": "bus_stop", "name": "White Rock Gardens", "naptan:AtcoCode": "1400HA0409", "naptan:NaptanCode": "esuajpag", "public_transport": "platform"}}, {"type": "node", "id": 10655336768, "lat": 50.8563986, "lon": 0.5691976, "tags": {"bench": "yes", "bin": "yes", "bus": "yes", "highway": "bus_stop", "lit": "yes", "name": "Summerfields Leisure Centre", "naptan:AtcoCode": "1400HA0408", "naptan:Bearing": "NW", "naptan:CommonName": "Summerfields Leisure Centre", "naptan:Indicator": "opp", "naptan:NaptanCode": "esuajpad", "naptan:PlusbusZoneRef": "HASTING", "naptan:Street": "Bohemia Road", "naptan:verified": "no", "public_transport": "platform", "shelter": "yes", "tactile_paving": "no"}}, {"type": "node", "id": 10655336769, "lat": 50.8568625, "lon": 0.5687818, "tags": {"bench": "yes", "bin": "no", "bus": "yes", "highway": "bus_stop", "name": "Summerfields Leisure Centre", "naptan:AtcoCode": "1400HA0407", "naptan:Bearing": "SE", "naptan:CommonName": "Summerfields Leisure Centre", "naptan:Indicator": "o/s", "naptan:NaptanCode": "esuajmwt", "naptan:PlusbusZoneRef": "HASTING", "naptan:Street": "Bohemia Road", "naptan:verified": "no", "public_transport": "platform", "shelter": "yes"}}, {"type": "node", "id": 10655336770, "lat": 50.8591717, "lon": 0.5646172, "tags": {"bench": "yes", "bus": "yes", "departures_board": "timetable", "highway": "bus_stop", "name": "Fire Station", "naptan:AtcoCode": "1400HA0405", "naptan:NaptanCode": "esuajmwm", "public_transport": "platform", "shelter": "yes"}}, {"type": "node", "id": 10655336771, "lat": 50.8594102, "lon": 0.5638701, "tags": {"bench": "yes", "bin": "no", "bus": "yes", "departures_board": "timetable", "highway": "bus_stop", "lit": "yes", "name": "Fire Station", "naptan:AtcoCode": "1400HA0404", "naptan:NaptanCode": "esuajmwj", "public_transport": "platform", "shelter": "yes", "tactile_paving": "no"}}, {"type": "node", "id": 10655336772, "lat": 50.8608887, "lon": 0.5621058, "tags": {"bench": "yes", "bin": "yes", "bus": "yes", "highway": "bus_stop", "lit": "no", "name": "St Peter's Church", "naptan:AtcoCode": "1400HA0403", "naptan:Bearing": "SE", "naptan:CommonName": "St Peter's Church", "naptan:Indicator": "opp", "naptan:NaptanCode": "esuajmwg", "naptan:PlusbusZoneRef": "HASTING", "naptan:Street": "Bohemia Road", "naptan:verified": "no", "public_transport": "platform", "shelter": "yes", "tactile_paving": "no"}}, {"type": "node", "id": 10655336773, "lat": 50.861295, "lon": 0.5609846, "tags": {"bench": "no", "bin": "no", "bus": "yes", "highway": "bus_stop", "lit": "yes", "name": "St Peter's Church", "naptan:AtcoCode": "1400HA0402", "naptan:Bearing": "NW", "naptan:CommonName": "St Peter's Church", "naptan:Indicator": "adj", "naptan:NaptanCode": "esuajmwd", "naptan:PlusbusZoneRef": "HASTING", "naptan:Street": "Bohemia Road", "naptan:verified": "no", "public_transport": "platform", "shelter": "no", "tactile_paving": "no"}}, {"type": "node", "id": 10655336774, "lat": 50.8633475, "lon": 0.5589637, "tags": {"bench": "yes", "bin": "yes", "bus": "yes", "highway": "bus_stop", "lit": "yes", "name": "Bohemia Road Top", "naptan:AtcoCode": "1400HA0449", "naptan:Bearing": "SE", "naptan:CommonName": "Bohemia Road Top", "naptan:Indicator": "o/s 53", "naptan:NaptanCode": "esuajpmw", "naptan:PlusbusZoneRef": "HASTING", "naptan:Street": "Bohemia Road", "naptan:verified": "no", "public_transport": "platform", "shelter": "yes", "tactile_paving": "no"}}, {"type": "node", "id": 10655336775, "lat": 50.8634339, "lon": 0.5587008, "tags": {"bench": "no", "bin": "yes", "bus": "yes", "highway": "bus_stop", "lit": "yes", "name": "Bohemia Road Top", "naptan:AtcoCode": "1400HA0450", "naptan:NaptanCode": "esuajpta", "public_transport": "platform", "shelter": "no", "tactile_paving": "no"}}, {"type": "node", "id": 10655336776, "lat": 50.8679964, "lon": 0.5551733, "tags": {"bus": "yes", "highway": "bus_stop", "name": "Asda", "naptan:AtcoCode": "1400HA0155", "naptan:Bearing": "N", "naptan:CommonName": "Asda", "naptan:Indicator": "o/s", "naptan:NaptanCode": "esuagwap", "naptan:PlusbusZoneRef": "HASTING", "naptan:Street": "Battle Road", "naptan:verified": "no", "public_transport": "platform"}}, {"type": "node", "id": 10655336777, "lat": 50.8687911, "lon": 0.555301, "tags": {"bus": "yes", "highway": "bus_stop", "name": "Asda", "naptan:AtcoCode": "1400HA10052", "naptan:Bearing": "S", "naptan:CommonName": "Asda", "naptan:Indicator": "opp", "naptan:NaptanCode": "esudjawd", "naptan:PlusbusZoneRef": "HASTING", "naptan:Street": "Battle Road", "naptan:verified": "no", "public_transport": "platform"}}, {"type": "node", "id": 10661202589, "lat": 50.8551956, "lon": 0.5837432, "tags": {"bench": "yes", "bus": "yes", "highway": "bus_stop", "name": "Pelham Place", "naptan:AtcoCode": "1400HA0420", "naptan:NaptanCode": "esuajpdp", "public_transport": "platform", "ref": "U", "shelter": "yes"}}, {"type": "node", "id": 10661202590, "lat": 50.8557252, "lon": 0.5901909, "tags": {"bus": "yes", "highway": "bus_stop", "name": "The Stade", "naptan:AtcoCode": "1400HA0430", "naptan:Bearing": "SW", "naptan:CommonName": "The Stade", "naptan:Indicator": "adj", "naptan:NaptanCode": "esuajpgd", "naptan:PlusbusZoneRef": "HASTING", "naptan:Street": "East Parade", "naptan:verified": "no", "public_transport": "platform"}}, {"type": "node", "id": 10661202591, "lat": 50.8560598, "lon": 0.5910487}, {"type": "node", "id": 12400693978, "lat": 50.8598617, "lon": 0.596125, "tags": {"bus": "yes", "highway": "bus_stop", "name": "Market Cross Harold Road", "naptan:AtcoCode": "1400WE10025", "naptan:Bearing": "SW", "naptan:CommonName": "Market Cross Harold Road", "naptan:Indicator": "opp", "naptan:NaptanCode": "esudgjmp", "naptan:PlusbusZoneRef": "HASTING", "naptan:Street": "Harold Road", "naptan:verified": "no", "public_transport": "platform", "shelter": "yes"}}, {"type": "node", "id": 12400693979, "lat": 50.8601486, "lon": 0.596113, "tags": {"bus": "yes", "highway": "bus_stop", "public_transport": "platform", "shelter": "yes"}}, {"type": "node", "id": 12444510258, "lat": 50.8540669, "lon": 0.549056, "tags": {"bus": "yes", "highway": "bus_stop", "name": "Highland Mansions", "naptan:AtcoCode": "1400HA0119", "naptan:Bearing": "W", "naptan:CommonName": "Highland Mansions", "naptan:Indicator": "o/s", "naptan:NaptanCode": "esuagtgp", "naptan:PlusbusZoneRef": "HASTING", "naptan:Street": "Pevensey Road", "naptan:verified": "no", "public_transport": "platform", "shelter": "no"}}, {"type": "node", "id": 13415897885, "lat": 50.8715854, "lon": 0.554547, "tags": {"bus": "yes", "highway": "bus_stop", "public_transport": "platform"}}, {"type": "node", "id": 13415897886, "lat": 50.870907, "lon": 0.5549262, "tags": {"bus": "yes", "highway": "bus_stop", "public_transport": "platform"}}, {"type": "way", "id": 1025509752, "nodes": [9455386401, 9455386398, 9455386399, 9455386400, 9455386401], "tags": {"amenity": "shelter", "bench": "yes", "bin": "yes", "building": "yes", "bus": "yes", "highway": "bus_stop", "name": "The Stade", "public_transport": "platform", "shelter": "yes", "shelter_type": "public_transport"}}, {"type": "way", "id": 1025528483, "nodes": [9455585275, 10661202591, 9455585271, 9455585272, 9455585273, 9455585275], "tags": {"addr:city": "Hastings", "addr:postcode": "TN34 3AR", "amenity": "shelter", "building": "yes", "bus": "yes", "highway": "bus_stop", "name": "The Stade", "naptan:AtcoCode": "1400HA0427", "naptan:NaptanCode": "esuajpdt", "public_transport": "platform", "ref:GB:uprn": "10025359214", "shelter_type": "public_transport"}}]}