{"version": 0.6, "generator": "Overpass API 0.7.62.10 2d4cfc48", "osm3s": {"timestamp_osm_base": "2026-03-01T06:18:02Z", "copyright": "The data included in this document is from www.openstreetmap.org. The data is made available under ODbL."}, "elements": [{"type": "node", "id": 1312371136, "lat": 52.257705, "lon": -0.8829776}, {"type": "node", "id": 1312371139, "lat": 52.2576225, "lon": -0.8830458}, {"type": "node", "id": 1312371141, "lat": 52.2576445, "lon": -0.883117}, {"type": "node", "id": 1312371144, "lat": 52.2576775, "lon": -0.8834233}, {"type": "node", "id": 1312371145, "lat": 52.2575953, "lon": -0.8831577}, {"type": "node", "id": 1427180479, "lat": 52.2461943, "lon": -0.8977696}, {"type": "node", "id": 1427180480, "lat": 52.2460777, "lon": -0.8980164}, {"type": "node", "id": 1427180481, "lat": 52.2460395, "lon": -0.8979204}, {"type": "node", "id": 1427180482, "lat": 52.2460575, "lon": -0.897735}, {"type": "node", "id": 1427180483, "lat": 52.2458954, "lon": -0.8979734}, {"type": "node", "id": 1427180484, "lat": 52.2458856, "lon": -0.8980915}, {"type": "node", "id": 1427180485, "lat": 52.2460728, "lon": -0.8981344}, {"type": "node", "id": 1427180486, "lat": 52.2461787, "lon": -0.897892}, {"type": "node", "id": 1427180487, "lat": 52.2461417, "lon": -0.8981505}, {"type": "node", "id": 1460560931, "lat": 52.2460853, "lon": -0.8979297}, {"type": "node", "id": 4557388554, "lat": 52.2488176, "lon": -0.8735965, "tags": {"addr:city": "Northampton", "addr:country": "GB", "addr:housenumber": "202-204", "addr:postcode": "NN1 4QA", "addr:street": "Abington Avenue", "amenity": "doctors", "healthcare": "doctor", "name": "County Surgery", "opening_hours": "08:00-18:30", "phone": "+44 1604 632918", "ref:GB:cqc_location": "1-13647492355", "ref:GB:nhs_ods": "K83056", "website": "https://www.countysurgery.co.uk"}}, {"type": "node", "id": 4736537404, "lat": 52.2425093, "lon": -0.8978185}, {"type": "node", "id": 4736537405, "lat": 52.2425011, "lon": -0.8977353}, {"type": "node", "id": 4736537406, "lat": 52.242437, "lon": -0.8977622}, {"type": "node", "id": 4736537407, "lat": 52.2423795, "lon": -0.8975181}, {"type": "node", "id": 4736537408, "lat": 52.242414, "lon": -0.8973357}, {"type": "node", "id": 4736537409, "lat": 52.2425027, "lon": -0.8973759}, {"type": "node", "id": 4736537410, "lat": 52.2425553, "lon": -0.897797}, {"type": "node", "id": 4780121097, "lat": 52.2578093, "lon": -0.8833145}, {"type": "node", "id": 5633571739, "lat": 52.2367508, "lon": -0.8909896, "tags": {"addr:city": "Northampton", "addr:country": "GB", "addr:housename": "Maple House", "addr:housenumber": "17-19", "addr:postcode": "NN1 1LG", "addr:street": "Hazelwood Road", "amenity": "doctors", "healthcare": "doctor", "name": "Maple Access Practice", "phone": "+44 1604 250969", "ref:GB:cqc_location": "1-585078956", "ref:GB:nhs_ods": "K83621", "website": "https://www.mapleaccess.org.uk"}}, {"type": "node", "id": 5846095742, "lat": 52.2305299, "lon": -0.8892488, "tags": {"amenity": "doctors", "healthcare": "doctor", "name": "Health Centre"}}, {"type": "node", "id": 5857298814, "lat": 52.2500554, "lon": -0.8781713, "tags": {"addr:city": "Northampton", "addr:country": "GB", "addr:housenumber": "1", "addr:postcode": "NN1 4SB", "addr:street": "The Crescent", "amenity": "doctors", "healthcare": "doctor", "name": "The Crescent Medical Centre", "phone": "+44 1604 713434", "ref:GB:cqc_location": "1-2724505415", "ref:GB:nhs_ods": "K83050"}}, {"type": "node", "id": 5859231276, "lat": 52.2580089, "lon": -0.8922046, "tags": {"addr:city": "Northampton", "addr:country": "GB", "addr:postcode": "NN2 7JN", "addr:street": "Eastern Avenue South", "amenity": "doctors", "healthcare": "doctor", "name": "Kingsthorpe Medical Centre", "phone": "+44 1604 713823", "ref:GB:cqc_location": "1-674894176", "ref:GB:nhs_ods": "K83035"}}, {"type": "node", "id": 5859231277, "lat": 52.254937, "lon": -0.8984207, "tags": {"addr:city": "Northampton", "addr:country": "GB", "addr:housenumber": "14", "addr:postcode": "NN2 6NZ", "addr:street": "Clarence Avenue", "amenity": "doctors", "healthcare": "doctor", "name": "Clarence Avenue Surgery", "phone": "+44 1604 718464"}}, {"type": "node", "id": 5859231278, "lat": 52.2537663, "lon": -0.9018606, "tags": {"addr:city": "Northampton", "addr:country": "GB", "addr:postcode": "NN2 6LS", "addr:street": "Thornton Road", "amenity": "doctors", "healthcare": "doctor", "name": "Queensview Medical Centre", "phone": "+44 1604 713315", "ref:GB:cqc_location": "1-572178932", "ref:GB:nhs_ods": "K83003", "website": "https://www.Queensviewmedicalcentre.co.uk"}}, {"type": "node", "id": 5859231279, "lat": 52.2474181, "lon": -0.8974564, "tags": {"addr:city": "Northampton", "addr:country": "GB", "addr:housenumber": "11", "addr:postcode": "NN2 6AA", "addr:street": "Langham Place", "amenity": "doctors", "healthcare": "doctor", "name": "Langham Place Surgery", "phone": "+44 1604 638 162", "ref:GB:cqc_location": "1-566461560", "ref:GB:nhs_ods": "K83027", "website": "https://www.langhamplacesurgery.co.uk/"}}, {"type": "node", "id": 5859343947, "lat": 52.2560256, "lon": -0.9209526, "tags": {"addr:city": "Northampton", "addr:country": "GB", "addr:postcode": "NN5 7LN", "addr:street": "North Oval", "amenity": "doctors", "healthcare": "doctor", "name": "Kings Heath & Lings Brook Practice", "phone": "+44 1604 589897", "ref:GB:nhs_ods": "K83042002", "website": "https://www.kingsheathpractice.nhs.uk"}}, {"type": "way", "id": 116409724, "nodes": [1312371144, 1312371145, 1312371141, 1312371139, 1312371136, 4780121097, 1312371144], "tags": {"addr:city": "Northampton", "addr:country": "GB", "addr:postcode": "NN2 7PB", "addr:street": "Hazeldene Road", "amenity": "doctors", "building": "yes", "emergency": "no", "healthcare": "doctor", "name": "Greenview Surgery", "phone": "+44 1604 791002", "ref:GB:cqc_location": "1-547757487", "ref:GB:nhs_ods": "K83077", "website": "https://www.greenviewsurgery.co.uk"}}, {"type": "way", "id": 129339277, "nodes": [1427180479, 1427180482, 1427180481, 1460560931, 1427180480, 1427180483, 1427180484, 1427180485, 1427180487, 1427180486, 1427180479], "tags": {"addr:city": "Northampton", "addr:country": "GB", "addr:housenumber": "7-8", "addr:postcode": "NN2 6AL", "addr:street": "Leicester Terrace", "amenity": "doctors", "building": "yes", "healthcare": "doctor", "name": "Leicester Terrace Health Centre", "phone": "+44 1604 633682", "ref:GB:cqc_location": "1-554492716", "ref:GB:nhs_ods": "K83014", "website": "https://www.leicesterterrace.co.uk/", "wheelchair": "yes"}}, {"type": "way", "id": 480687012, "nodes": [4736537410, 4736537409, 4736537408, 4736537407, 4736537406, 4736537405, 4736537404, 4736537410], "tags": {"addr:city": "Northampton", "addr:country": "GB", "addr:postcode": "NN1 3DS", "addr:street": "Campbell Street", "amenity": "doctors", "building": "yes", "healthcare": "doctor", "name": "Mounts Medical Centre", "phone": "+44 1604 632117", "ref:GB:cqc_location": "1-547995872", "ref:GB:nhs_ods": "K83025", "website": "https://www.themountsmedicalcentre.nhs.uk"}}]}