{"version": 0.6, "generator": "Overpass API 0.7.62.10 2d4cfc48", "osm3s": {"timestamp_osm_base": "2026-02-24T20:00:00Z", "copyright": "The data included in this document is from www.openstreetmap.org. The data is made available under ODbL."}, "elements": [{"type": "node", "id": 251978503, "lat": 52.707221, "lon": -2.7832124, "tags": {"addr:city": "Shrewsbury", "addr:housenumber": "37", "addr:postcode": "SY3 8UG", "addr:street": "Mytton Oak Road", "amenity": "pharmacy", "brand": "Boots", "brand:wikidata": "Q6123139", "brand:wikipedia": "en:Boots (company)", "dispensing": "yes", "healthcare": "pharmacy", "name": "Boots", "opening_hours": "Mo-Fr 09:00-18:00; Sa 09:00-13:00", "website": "https://www.boots.com/stores/5359-shrewsbury-mytton-sy3-8ug"}}, {"type": "node", "id": 1968524278, "lat": 52.696976, "lon": -2.7760271, "tags": {"addr:housenumber": "Adjacent to Radbrook Green Surgery", "addr:street": "Bank Farm Lane", "amenity": "pharmacy", "healthcare": "pharmacy", "name": "Radbrook Green Pharmacy", "opening_hours": "Mo-Fr 09:00-18:00; Sa 09:00-13:00", "phone": "+44 1743 249 931", "website": "http://www.dudleytaylor.co.uk/", "wheelchair": "yes"}}, {"type": "node", "id": 4691463104, "lat": 52.7051857, "lon": -2.7422816, "tags": {"amenity": "pharmacy", "brand": "Asda", "brand:wikidata": "Q297410", "brand:wikipedia": "en:Asda", "check_date": "2024-08-18", "check_date:opening_hours": "2024-08-18", "contact:phone": "+44 1743 276810", "contact:website": "https://storelocator.asda.com/west-midlands/shrewsbury/old-potts-way/pharmacy", "healthcare": "pharmacy", "name": "Asda", "opening_hours": "Mo-Sa 09:00-20:00; Su 10:00-16:00", "operator": "Asda Stores Ltd"}}, {"type": "node", "id": 7868019651, "lat": 52.6965963, "lon": -2.7506424, "tags": {"addr:city": "Shrewsbury", "addr:housenumber": "1", "addr:street": "Hereford Road", "amenity": "pharmacy", "dispensing": "yes", "healthcare": "pharmacy", "name": "Lunts Pharmacies"}}, {"type": "node", "id": 8764247836, "lat": 52.7086288, "lon": -2.7538787, "tags": {"amenity": "pharmacy", "branch": "Counter", "brand": "Boots", "brand:wikidata": "Q6123139", "brand:wikipedia": "en:Boots (company)", "healthcare": "pharmacy", "level": "1", "name": "Boots", "website": "https://www.boots.com/stores/274-shrewsbury-pride-hill-sy1-1dd"}}, {"type": "node", "id": 10276129241, "lat": 52.7078681, "lon": -2.7572732, "tags": {"addr:city": "Shrewsbury", "addr:housenumber": "28", "addr:postcode": "SY1 1RD", "addr:street": "Claremont Hill", "amenity": "pharmacy", "drive_through": "no", "healthcare": "pharmacy", "level": "0", "name": "Rhodes Pharmacy", "opening_hours": "Mo-Fr 09:00-17:30; Sa 09:00-13:00; PH, Su off", "operator": "MSN & Lunts Pharmacy Group"}}]}