{"version": 0.6, "generator": "Overpass API 0.7.62.10 2d4cfc48", "osm3s": {"timestamp_osm_base": "2026-02-27T18:16:42Z", "copyright": "The data included in this document is from www.openstreetmap.org. The data is made available under ODbL."}, "elements": [{"type": "node", "id": 627991625, "lat": 54.3232979, "lon": -2.7480664, "tags": {"addr:city": "Kendal", "addr:housename": "The Dean Gibson Memorial Schools", "addr:postcode": "LA9 4JE", "addr:street": "Gillinggate", "amenity": "doctors", "healthcare": "doctor", "healthcare:speciality": "general", "name": "Captain French Surgery", "opening_hours": "Mo-Fr 08:00-18:30", "phone": "+44 1539 720241", "wheelchair": "yes"}}, {"type": "node", "id": 628645974, "lat": 54.3319581, "lon": -2.739878, "tags": {"addr:city": "Kendal", "addr:housename": "Station House", "addr:postcode": "LA9 6SA", "addr:street": "Station Road", "amenity": "doctors", "check_date": "2025-06-13", "name": "Station House Surgery", "phone": "+44 1539 722660", "website": "https://www.stationhousesurgery.nhs.uk/"}}, {"type": "node", "id": 909669417, "lat": 54.330233, "lon": -2.748061, "tags": {"addr:city": "Kendal", "addr:postcode": "LA9 4QE", "addr:street": "Maude Street", "alt_name": "Maude Street Surgery", "amenity": "doctors", "check_date": "2025-06-15", "healthcare": "doctor", "name": "James Cochrane Practice", "opening_hours": "Mo-Fr 08:00-17:00; Sa,Su,PH off", "phone": "+44 1539 718080", "website": "https://www.jamescochranepractice.co.uk/contact1.aspx?p=A82026", "wheelchair": "yes"}}, {"type": "node", "id": 3878848099, "lat": 54.3125493, "lon": -2.7372262}, {"type": "node", "id": 3878848100, "lat": 54.3126487, "lon": -2.7369644}, {"type": "node", "id": 3878848101, "lat": 54.3127004, "lon": -2.7370184}, {"type": "node", "id": 3878848102, "lat": 54.3127295, "lon": -2.7369256}, {"type": "node", "id": 3878848103, "lat": 54.312761, "lon": -2.7369118}, {"type": "node", "id": 3878848104, "lat": 54.3128369, "lon": -2.7369976}, {"type": "node", "id": 3878848105, "lat": 54.3128402, "lon": -2.7370489}, {"type": "node", "id": 3878848106, "lat": 54.3127182, "lon": -2.7373966}, {"type": "node", "id": 3878848120, "lat": 54.3126624, "lon": -2.7373403}, {"type": "node", "id": 3878848130, "lat": 54.3126181, "lon": -2.7372956}, {"type": "way", "id": 384575913, "nodes": [3878848099, 3878848100, 3878848101, 3878848102, 3878848103, 3878848104, 3878848105, 3878848106, 3878848120, 3878848130, 3878848099], "tags": {"amenity": "doctors", "building": "yes", "healthcare": "doctor", "name": "Helme Chase Surgery", "note": "Former maternity hospital", "opening_hours": "Mo-Fr 08:00-19:30"}}]}