{"version": 0.6, "generator": "Overpass API 0.7.62.10 2d4cfc48", "osm3s": {"timestamp_osm_base": "2026-03-01T05:58:44Z", "copyright": "The data included in this document is from www.openstreetmap.org. The data is made available under ODbL."}, "elements": [{"type": "node", "id": 3736006553, "lat": 53.6185895, "lon": -3.0112888}, {"type": "node", "id": 3736006554, "lat": 53.6187776, "lon": -3.0115612}, {"type": "node", "id": 3736006555, "lat": 53.6189006, "lon": -3.0113091}, {"type": "node", "id": 3736006556, "lat": 53.6188524, "lon": -3.01124}, {"type": "node", "id": 3736006557, "lat": 53.6187824, "lon": -3.011366}, {"type": "node", "id": 3736006558, "lat": 53.6186908, "lon": -3.0112441}, {"type": "node", "id": 3736006559, "lat": 53.6187366, "lon": -3.0111587}, {"type": "node", "id": 3736006560, "lat": 53.6186788, "lon": -3.0110814}, {"type": "node", "id": 3739143629, "lat": 53.6283894, "lon": -3.0114302}, {"type": "node", "id": 3739143630, "lat": 53.6283973, "lon": -3.0116124}, {"type": "node", "id": 3739143631, "lat": 53.62828, "lon": -3.0116269}, {"type": "node", "id": 3739143632, "lat": 53.6282679, "lon": -3.0113476}, {"type": "node", "id": 3739143633, "lat": 53.6283409, "lon": -3.0113385}, {"type": "node", "id": 3739143634, "lat": 53.6283451, "lon": -3.0114356}, {"type": "node", "id": 3742558667, "lat": 53.6362371, "lon": -3.0138122}, {"type": "node", "id": 3742558668, "lat": 53.6363216, "lon": -3.0139866}, {"type": "node", "id": 3742558669, "lat": 53.6362541, "lon": -3.0140795}, {"type": "node", "id": 3742558670, "lat": 53.6361697, "lon": -3.0139051}, {"type": "node", "id": 3742661277, "lat": 53.6395933, "lon": -2.9848049}, {"type": "node", "id": 3742661278, "lat": 53.6397123, "lon": -2.9852299}, {"type": "node", "id": 3742661279, "lat": 53.6396654, "lon": -2.9852672}, {"type": "node", "id": 3742661280, "lat": 53.6396822, "lon": -2.9853271}, {"type": "node", "id": 3742661281, "lat": 53.6396255, "lon": -2.9853723}, {"type": "node", "id": 3742661282, "lat": 53.6395347, "lon": -2.9850478}, {"type": "node", "id": 3742661283, "lat": 53.6394711, "lon": -2.9850984}, {"type": "node", "id": 3742661284, "lat": 53.6395385, "lon": -2.9853393}, {"type": "node", "id": 3742661285, "lat": 53.6394497, "lon": -2.9854101}, {"type": "node", "id": 3742661286, "lat": 53.6394376, "lon": -2.9853667}, {"type": "node", "id": 3742661287, "lat": 53.6394612, "lon": -2.9853478}, {"type": "node", "id": 3742661288, "lat": 53.6393611, "lon": -2.9849899}, {"type": "node", "id": 3797951232, "lat": 53.6485136, "lon": -2.9704469, "tags": {"addr:city": "Southport", "addr:housenumber": "90-92", "addr:postcode": "PR9 7BW", "addr:street": "Poulton Road", "amenity": "doctors", "healthcare": "doctor", "name": "Poulton Road Clinic", "phone": "+44 1704 383200"}}, {"type": "node", "id": 3799152021, "lat": 53.6617392, "lon": -2.9652956, "tags": {"addr:city": "Southport", "addr:housenumber": "137", "addr:postcode": "PR9 7LT", "addr:street": "Cambridge Road", "amenity": "doctors", "healthcare": "doctor", "name": "Churchtown Medical Centre", "phone": "+44 1704 224411", "website": "https://www.churchtownmedicalcentre.nhs.uk/"}}, {"type": "node", "id": 3799324250, "lat": 53.6719144, "lon": -2.9638565, "tags": {"addr:city": "Southport", "addr:street": "Fylde Road", "amenity": "doctors", "healthcare": "doctor", "name": "The Corner Surgery"}}, {"type": "node", "id": 5567987121, "lat": 53.6316562, "lon": -2.9835653}, {"type": "node", "id": 5567987122, "lat": 53.6318057, "lon": -2.9836565}, {"type": "node", "id": 5567987123, "lat": 53.6317919, "lon": -2.983721}, {"type": "node", "id": 5567987124, "lat": 53.6319051, "lon": -2.9837901}, {"type": "node", "id": 5567987125, "lat": 53.6320078, "lon": -2.9833112}, {"type": "node", "id": 5567987126, "lat": 53.6318946, "lon": -2.9832422}, {"type": "node", "id": 5567987127, "lat": 53.6318479, "lon": -2.98346}, {"type": "node", "id": 5567987128, "lat": 53.6316984, "lon": -2.9833688}, {"type": "way", "id": 369855347, "nodes": [3736006553, 3736006554, 3736006555, 3736006556, 3736006557, 3736006558, 3736006559, 3736006560, 3736006553], "tags": {"addr:city": "Southport", "addr:housenumber": "33", "addr:postcode": "PR8 4PR", "addr:street": "Lincoln Road", "amenity": "doctors", "building": "yes", "healthcare": "doctor", "name": "Lincoln House Surgery", "phone": "+44 1704 566277", "website": "https://www.lincolnhousesurgerysouthport.nhs.uk/"}}, {"type": "way", "id": 370190662, "nodes": [3739143629, 3739143630, 3739143631, 3739143632, 3739143633, 3739143634, 3739143629], "tags": {"addr:city": "Southport", "addr:housenumber": "107", "addr:postcode": "PR8 4DB", "addr:street": "Liverpool Road", "amenity": "doctors", "building": "yes", "healthcare": "doctor", "name": "The Family Surgery", "phone": "+44 1704 566646", "website": "http://www.familysurgerybirkdale.co.uk/"}}, {"type": "way", "id": 370560927, "nodes": [3742558667, 3742558668, 3742558669, 3742558670, 3742558667], "tags": {"addr:city": "Southport", "addr:housenumber": "41", "addr:postcode": "PR8 2AD", "addr:street": "York Road", "amenity": "doctors", "building": "yes", "healthcare": "doctor", "name": "Grange Surgery", "phone": "+44 1704 565837", "website": "https://www.thegrangesurgerybirkdale.nhs.uk/"}}, {"type": "way", "id": 370570079, "nodes": [3742661277, 3742661278, 3742661279, 3742661280, 3742661281, 3742661282, 3742661283, 3742661284, 3742661285, 3742661286, 3742661287, 3742661288, 3742661277], "tags": {"addr:city": "Southport", "addr:housenumber": "5", "addr:postcode": "PR8 6PL", "addr:street": "Curzon Road", "amenity": "doctors", "building": "yes", "healthcare": "doctor", "name": "Curzon Road Medical Practice", "phone": "+44 1704 531114", "website": "http://www.curzonroadmedicalpractice.co.uk/"}}, {"type": "way", "id": 582088527, "nodes": [5567987121, 5567987122, 5567987123, 5567987124, 5567987125, 5567987126, 5567987127, 5567987128, 5567987121], "tags": {"addr:city": "Southport", "addr:postcode": "PR8 6RG", "addr:street": "Town Lane Kew", "amenity": "doctors", "building": "yes", "fax": "+44 1704 540486", "healthcare": "doctor", "name": "Kew Surgery", "phone": "+44 1704 546800", "website": "https://www.kewsurgery-southport.nhs.uk/"}}]}