{"version": 0.6, "generator": "Overpass API 0.7.62.10 2d4cfc48", "osm3s": {"timestamp_osm_base": "2026-03-01T06:26:16Z", "copyright": "The data included in this document is from www.openstreetmap.org. The data is made available under ODbL."}, "elements": [{"type": "node", "id": 3187723244, "lat": 51.1354596, "lon": 0.2675317, "tags": {"addr:place": "Market Square", "amenity": "community_centre", "name": "Camden Centre"}}, {"type": "node", "id": 4730593677, "lat": 51.1213888, "lon": 0.2491548, "tags": {"addr:city": "Tunbridge Wells", "addr:postcode": "TN2 5PR", "addr:street": "Showfields Road", "amenity": "community_centre", "name": "Showfields Hall"}}, {"type": "node", "id": 5323523075, "lat": 51.1346649, "lon": 0.2338867, "tags": {"amenity": "community_centre", "name": "Sunnyside Community Hall"}}, {"type": "node", "id": 12041580955, "lat": 51.127158, "lon": 0.2620392}, {"type": "node", "id": 12041580956, "lat": 51.1272372, "lon": 0.2621215}, {"type": "node", "id": 12041580957, "lat": 51.1271682, "lon": 0.2622965}, {"type": "node", "id": 12041580958, "lat": 51.1270817, "lon": 0.2622104}, {"type": "node", "id": 12041580959, "lat": 51.1271574, "lon": 0.2621712, "tags": {"amenity": "community_centre", "name": "The Village Community Hall", "operator": "Toc H Ltd"}}, {"type": "way", "id": 1299986652, "nodes": [12041580955, 12041580956, 12041580957, 12041580958, 12041580955], "tags": {"addr:city": "Tunbridge Wells", "addr:housename": "The Village Community Hall", "addr:postcode": "TN1 1YS", "addr:street": "Little Mount Sion", "amenity": "community_centre", "building": "yes", "name": "The Village Community Hall (Toc H)", "operator": "TOC H HALL LTD", "ref:GB:uprn": "100062542121;10000070519"}}]}