{"version": 0.6, "generator": "Overpass API 0.7.62.10 2d4cfc48", "osm3s": {"timestamp_osm_base": "2026-03-01T06:25:14Z", "copyright": "The data included in this document is from www.openstreetmap.org. The data is made available under ODbL."}, "elements": [{"type": "node", "id": 502538620, "lat": 51.0668133, "lon": 0.6922233, "tags": {"bus": "yes", "flag": "no", "highway": "bus_stop", "name": "Leisure Centre", "naptan:AtcoCode": "240096585", "naptan:Bearing": "NE", "naptan:BusStopType": "CUS", "naptan:CommonName": "Leisure Centre", "naptan:Indicator": "o/s", "naptan:Landmark": "Leisure Centre", "naptan:NaptanCode": "kntgmagj", "naptan:Street": "Oaks Road", "naptan:verified": "no", "public_transport": "platform", "source": "naptan_import"}}, {"type": "node", "id": 502539266, "lat": 51.0765478, "lon": 0.6940736, "tags": {"bus": "yes", "flag": "no", "highway": "bus_stop", "local_ref": "AT", "name": "Homewood School Grounds", "naptan:AtcoCode": "240097130", "naptan:Bearing": "N", "naptan:BusStopType": "CUS", "naptan:CommonName": "Homewood School Grounds", "naptan:Indicator": "at", "naptan:Landmark": "School", "naptan:NaptanCode": "kntgmjgd", "naptan:Street": "Grounds", "naptan:verified": "no", "public_transport": "platform", "source": "naptan_import"}}, {"type": "node", "id": 502540768, "lat": 51.0636898, "lon": 0.6585715, "tags": {"bus": "yes", "flag": "no", "highway": "bus_stop", "name": "KESR Station", "naptan:AtcoCode": "240099367", "naptan:Bearing": "NE", "naptan:BusStopType": "CUS", "naptan:CommonName": "KESR Station", "naptan:Indicator": "opp", "naptan:Landmark": "Level Crossing", "naptan:NaptanCode": "kntgpdpm", "naptan:Street": "Rolvenden Road", "naptan:verified": "no", "public_transport": "platform", "source": "naptan_import"}}, {"type": "node", "id": 502540770, "lat": 51.0634809, "lon": 0.658598, "tags": {"bus": "yes", "flag": "no", "highway": "bus_stop", "name": "KESR Station", "naptan:AtcoCode": "240099369", "naptan:Bearing": "SW", "naptan:BusStopType": "CUS", "naptan:CommonName": "KESR Station", "naptan:Indicator": "adj", "naptan:Landmark": "Level Crossing", "naptan:NaptanCode": "kntgpdpj", "naptan:Street": "Rolvenden Road", "naptan:verified": "no", "public_transport": "platform", "source": "naptan_import"}}, {"type": "node", "id": 502549699, "lat": 51.0819492, "lon": 0.6940969, "tags": {"bus": "yes", "highway": "bus_stop", "name": "Wayside Avenue", "naptan:AtcoCode": "2400A022700A", "naptan:Bearing": "S", "naptan:CommonName": "Wayside Avenue", "naptan:Indicator": "adj", "naptan:Landmark": "Wayside Avenue", "naptan:NaptanCode": "kntawpmt", "naptan:Street": "Ashford Road", "naptan:verified": "no", "public_transport": "platform", "source": "naptan_import"}}, {"type": "node", "id": 502549703, "lat": 51.0789294, "lon": 0.6956044, "tags": {"bus": "yes", "highway": "bus_stop", "name": "Fat Ox", "naptan:AtcoCode": "2400A022710A", "naptan:Bearing": "S", "naptan:CommonName": "Fat Ox", "naptan:Indicator": "adj", "naptan:Landmark": "Ox Lane", "naptan:NaptanCode": "kntawpmw", "naptan:Street": "Silver Hill", "naptan:verified": "no", "public_transport": "platform", "source": "naptan_import"}}, {"type": "node", "id": 502549718, "lat": 51.0763679, "lon": 0.6942022, "tags": {"bus": "yes", "highway": "bus_stop", "name": "Homewood School", "naptan:AtcoCode": "2400A022720A", "naptan:Bearing": "S", "naptan:CommonName": "Homewood School", "naptan:Indicator": "opp", "naptan:Landmark": "Homewood School", "naptan:NaptanCode": "kntawpta", "naptan:Street": "Ashford Road", "naptan:verified": "no", "public_transport": "platform", "source": "naptan_import"}}, {"type": "node", "id": 502549722, "lat": 51.0739216, "lon": 0.6934001, "tags": {"bus": "yes", "highway": "bus_stop", "name": "Turner's Avenue", "naptan:AtcoCode": "2400A022730A", "naptan:Bearing": "SW", "naptan:CommonName": "Turner's Avenue", "naptan:Indicator": "opp", "naptan:Landmark": "Church", "naptan:NaptanCode": "kntawptd", "naptan:Street": "Ashford Road", "naptan:verified": "no", "public_transport": "platform", "source": "naptan_import"}}, {"type": "node", "id": 502549728, "lat": 51.0711509, "lon": 0.6906837, "tags": {"bus": "yes", "highway": "bus_stop", "name": "Old Post Office", "naptan:AtcoCode": "2400A022740A", "naptan:Bearing": "SW", "naptan:CommonName": "Old Post Office", "naptan:Indicator": "opp", "naptan:NaptanCode": "kntawptg", "naptan:Street": "Ashford Road", "naptan:verified": "no", "public_transport": "platform", "source": "naptan_import"}}, {"type": "node", "id": 502549735, "lat": 51.0684181, "lon": 0.6878842, "tags": {"bench": "no", "bin": "no", "bus": "yes", "highway": "bus_stop", "lit": "yes", "name": "Town Hall", "naptan:AtcoCode": "2400A022750A", "naptan:Bearing": "SW", "naptan:CommonName": "Town Hall", "naptan:Indicator": "opp", "naptan:Landmark": "Town Hall", "naptan:NaptanCode": "kntawptj", "naptan:Street": "High Street", "naptan:verified": "no", "public_transport": "platform", "shelter": "no", "source": "naptan_import", "tactile_paving": "no"}}, {"type": "node", "id": 502549742, "lat": 51.0676516, "lon": 0.6856728, "tags": {"bench": "yes", "bin": "yes", "bus": "yes", "highway": "bus_stop", "name": "The Vine", "naptan:AtcoCode": "2400A022760A", "naptan:Bearing": "SW", "naptan:CommonName": "The Vine", "naptan:Indicator": "opp", "naptan:Landmark": "Highbury Lane", "naptan:NaptanCode": "kntawptm", "naptan:PlusbusZoneRef": "RYEE", "naptan:Street": "High Street", "naptan:verified": "no", "public_transport": "platform", "shelter": "yes", "source": "naptan_import", "tactile_paving": "no"}}, {"type": "node", "id": 502549749, "lat": 51.0664499, "lon": 0.6814663, "tags": {"bench": "no", "bin": "yes", "bus": "yes", "highway": "bus_stop", "lit": "yes", "name": "The William Caxton", "naptan:AtcoCode": "2400A022770A", "naptan:Bearing": "SW", "naptan:CommonName": "The William Caxton", "naptan:Indicator": "adj", "naptan:Landmark": "The William Caxton PH", "naptan:NaptanCode": "kntawptp", "naptan:PlusbusZoneRef": "RYEE", "naptan:Street": "West Cross", "naptan:verified": "no", "public_transport": "platform", "shelter": "no", "source": "naptan_import", "tactile_paving": "no"}}, {"type": "node", "id": 502549752, "lat": 51.0662519, "lon": 0.6730802, "tags": {"bench": "no", "bin": "yes", "bus": "yes", "highway": "bus_stop", "name": "Isemonger Farm", "naptan:AtcoCode": "2400A022780A", "naptan:Bearing": "W", "naptan:CommonName": "Isemonger Farm", "naptan:Indicator": "opp", "naptan:Landmark": "Cranbrook Road", "naptan:NaptanCode": "kntawptw", "naptan:Street": "Rolvenden Road", "naptan:verified": "no", "public_transport": "platform", "shelter": "no", "source": "naptan_import"}}, {"type": "node", "id": 502549756, "lat": 51.0660721, "lon": 0.6682433, "tags": {"bench": "no", "bus": "yes", "highway": "bus_stop", "name": "Esso Garage", "naptan:AtcoCode": "2400A022790A", "naptan:Bearing": "W", "naptan:CommonName": "Esso Garage", "naptan:Indicator": "adj", "naptan:Landmark": "Isemonger Farm", "naptan:NaptanCode": "kntawpwa", "naptan:Street": "Rolvenden Road", "naptan:verified": "no", "public_transport": "platform", "shelter": "no", "source": "naptan_import"}}, {"type": "node", "id": 502549810, "lat": 51.0614432, "lon": 0.6558219, "tags": {"bus": "yes", "highway": "bus_stop", "name": "The Bungalows", "naptan:AtcoCode": "2400A022900A", "naptan:Bearing": "SW", "naptan:CommonName": "The Bungalows", "naptan:Indicator": "opp", "naptan:Landmark": "Folly Farm", "naptan:NaptanCode": "kntawtap", "naptan:Street": "Rolvenden Hill", "naptan:verified": "no", "public_transport": "platform", "shelter": "no", "source": "naptan_import"}}, {"type": "node", "id": 502549816, "lat": 51.061501, "lon": 0.6556539, "tags": {"bus": "yes", "flag": "no", "highway": "bus_stop", "name": "The Bungalows", "naptan:AtcoCode": "2400A022910A", "naptan:Bearing": "NE", "naptan:BusStopType": "CUS", "naptan:CommonName": "The Bungalows", "naptan:Indicator": "adj", "naptan:Landmark": "Folly Farm", "naptan:NaptanCode": "kntawtat", "naptan:Street": "Rolvenden Hill", "naptan:verified": "no", "public_transport": "platform", "source": "naptan_import"}}, {"type": "node", "id": 502549822, "lat": 51.0661551, "lon": 0.6688612, "tags": {"bench": "no", "bin": "no", "bus": "yes", "highway": "bus_stop", "name": "Esso Garage", "naptan:AtcoCode": "2400A022920A", "naptan:Bearing": "E", "naptan:CommonName": "Esso Garage", "naptan:Indicator": "opp", "naptan:Landmark": "Isemonger Farm", "naptan:NaptanCode": "kntawtaw", "naptan:Street": "Rolvenden Road", "naptan:verified": "no", "public_transport": "platform", "shelter": "no", "source": "naptan_import", "tactile_paving": "no"}}, {"type": "node", "id": 502549828, "lat": 51.0663805, "lon": 0.6730316, "tags": {"bench": "no", "bin": "no", "bus": "yes", "highway": "bus_stop", "name": "Isemonger Farm", "naptan:AtcoCode": "2400A022930A", "naptan:Bearing": "E", "naptan:CommonName": "Isemonger Farm", "naptan:Indicator": "adj", "naptan:Landmark": "Cranbrook Road", "naptan:NaptanCode": "kntawtda", "naptan:Street": "Rolvenden Road", "naptan:verified": "no", "public_transport": "platform", "shelter": "no", "source": "naptan_import"}}, {"type": "node", "id": 502549833, "lat": 51.0663315, "lon": 0.6804403, "tags": {"bench": "no", "bus": "yes", "highway": "bus_stop", "name": "The William Caxton", "naptan:AtcoCode": "2400A022940A", "naptan:Bearing": "NE", "naptan:CommonName": "The William Caxton", "naptan:Indicator": "opp", "naptan:Landmark": "The William Caxton PH", "naptan:NaptanCode": "kntawtdg", "naptan:PlusbusZoneRef": "RYEE", "naptan:Street": "West Cross", "naptan:verified": "no", "public_transport": "platform", "shelter": "no", "source": "naptan_import"}}, {"type": "node", "id": 502549837, "lat": 51.0679403, "lon": 0.6858771, "tags": {"bench": "no", "bin": "yes", "bus": "yes", "highway": "bus_stop", "lit": "yes", "name": "The Vine", "naptan:AtcoCode": "2400A022950A", "naptan:Bearing": "NE", "naptan:CommonName": "The Vine", "naptan:Indicator": "o/s", "naptan:Landmark": "The Vine PH", "naptan:NaptanCode": "kntawtdj", "naptan:PlusbusZoneRef": "RYEE", "naptan:Street": "High Street", "naptan:verified": "no", "public_transport": "platform", "shelter": "no", "source": "naptan_import", "tactile_paving": "no"}}, {"type": "node", "id": 502549858, "lat": 51.0686534, "lon": 0.6882119, "tags": {"bench": "no", "bin": "no", "bus": "yes", "highway": "bus_stop", "lit": "yes", "name": "Town Hall", "naptan:AtcoCode": "2400A022960A", "naptan:Bearing": "NE", "naptan:CommonName": "Town Hall", "naptan:Indicator": "o/s", "naptan:Landmark": "Town Hall", "naptan:NaptanCode": "kntawtdm", "naptan:Street": "High Street", "naptan:verified": "no", "public_transport": "platform", "shelter": "no", "source": "naptan_import", "tactile_paving": "no"}}, {"type": "node", "id": 502549861, "lat": 51.0704582, "lon": 0.6903009, "tags": {"bus": "yes", "highway": "bus_stop", "name": "Old Post Office", "naptan:AtcoCode": "2400A022970A", "naptan:Bearing": "NE", "naptan:CommonName": "Old Post Office", "naptan:Indicator": "adj", "naptan:NaptanCode": "kntawtdp", "naptan:Street": "East Cross", "naptan:verified": "no", "public_transport": "platform", "source": "naptan_import"}}, {"type": "node", "id": 502549865, "lat": 51.0734995, "lon": 0.6925904, "tags": {"bus": "yes", "highway": "bus_stop", "name": "Turner's Avenue", "naptan:AtcoCode": "2400A022980A", "naptan:Bearing": "NE", "naptan:CommonName": "Turner's Avenue", "naptan:Indicator": "adj", "naptan:Landmark": "Church", "naptan:NaptanCode": "kntawtdt", "naptan:Street": "Ashford Road", "naptan:verified": "no", "public_transport": "platform", "source": "naptan_import"}}, {"type": "node", "id": 502549871, "lat": 51.0768795, "lon": 0.6944166, "tags": {"bus": "yes", "highway": "bus_stop", "name": "Homewood School", "naptan:AtcoCode": "2400A022990A", "naptan:Bearing": "N", "naptan:CommonName": "Homewood School", "naptan:Indicator": "adj", "naptan:Landmark": "O/S Homewood School", "naptan:NaptanCode": "kntawtdw", "naptan:Street": "Silver Hill", "naptan:verified": "no", "public_transport": "platform", "source": "naptan_import"}}, {"type": "node", "id": 502549873, "lat": 51.0800855, "lon": 0.6948435, "tags": {"bus": "yes", "highway": "bus_stop", "name": "Fat Ox", "naptan:AtcoCode": "2400A023000A", "naptan:Bearing": "N", "naptan:CommonName": "Fat Ox", "naptan:Indicator": "opp", "naptan:Landmark": "Chalk Avenue", "naptan:NaptanCode": "kntawtga", "naptan:Street": "Ashford Road", "naptan:verified": "no", "public_transport": "platform", "source": "naptan_import"}}, {"type": "node", "id": 502549877, "lat": 51.0817774, "lon": 0.6941822, "tags": {"bus": "yes", "highway": "bus_stop", "name": "Wayside Avenue", "naptan:AtcoCode": "2400A023010A", "naptan:Bearing": "N", "naptan:CommonName": "Wayside Avenue", "naptan:Indicator": "opp", "naptan:Landmark": "Wayside Avenue", "naptan:NaptanCode": "kntawtgd", "naptan:Street": "Ashford Road", "naptan:verified": "no", "public_transport": "platform", "source": "naptan_import"}}, {"type": "node", "id": 502550162, "lat": 51.0698245, "lon": 0.6994436, "tags": {"bus": "yes", "highway": "bus_stop", "name": "Appledore Road", "naptan:AtcoCode": "2400A023690A", "naptan:Bearing": "NW", "naptan:CommonName": "Appledore Road", "naptan:Indicator": "NW-bound", "naptan:Landmark": "Shrubscote", "naptan:NaptanCode": "kntdadpj", "naptan:Street": "Appledore Rd", "naptan:verified": "no", "public_transport": "platform", "source": "naptan_import"}}, {"type": "node", "id": 502550525, "lat": 51.0660317, "lon": 0.6809654, "tags": {"bus": "yes", "highway": "bus_stop", "name": "West Cross", "naptan:AtcoCode": "2400A024410A", "naptan:Bearing": "NW", "naptan:CommonName": "West Cross", "naptan:Indicator": "NW-bound", "naptan:Landmark": "High Street", "naptan:NaptanCode": "kntdajat", "naptan:PlusbusZoneRef": "RYEE", "naptan:Street": "Smallhythe Rd", "naptan:verified": "no", "public_transport": "platform", "source": "naptan_import"}}, {"type": "node", "id": 502550544, "lat": 51.0701542, "lon": 0.6913403, "tags": {"bus": "yes", "highway": "bus_stop", "name": "East Cross", "naptan:AtcoCode": "2400A024420A", "naptan:Bearing": "SW", "naptan:CommonName": "East Cross", "naptan:Indicator": "SW-bound", "naptan:Landmark": "East Cross", "naptan:NaptanCode": "kntdajaw", "naptan:Street": "Oaks Rd", "naptan:verified": "no", "public_transport": "platform", "source": "naptan_import"}}, {"type": "node", "id": 502550549, "lat": 51.0720617, "lon": 0.6964329, "tags": {"bus": "yes", "highway": "bus_stop", "name": "Woodchurch Road Lime Hill", "naptan:AtcoCode": "2400A024430A", "naptan:Bearing": "NE", "naptan:CommonName": "Woodchurch Road Lime Hill", "naptan:Indicator": "NE-bound", "naptan:Landmark": "Lime Hill", "naptan:NaptanCode": "kntdajda", "naptan:Street": "Woodchurch Rd", "naptan:verified": "no", "public_transport": "platform", "shelter": "no", "source": "naptan_import", "source_1": "survey", "survey:date": "2023-05-29"}}, {"type": "node", "id": 502556814, "lat": 51.0687505, "lon": 0.6988243, "tags": {"bus": "yes", "highway": "bus_stop", "name": "Shrubcote", "naptan:AtcoCode": "2400A037280A", "naptan:Bearing": "NW", "naptan:CommonName": "Shrubcote", "naptan:Indicator": "NW-bound", "naptan:Landmark": "O/S 27", "naptan:NaptanCode": "kntdpadj", "naptan:Street": "Shrubcote", "naptan:verified": "no", "public_transport": "platform", "source": "naptan_import"}}, {"type": "node", "id": 502556818, "lat": 51.0670445, "lon": 0.6740577, "tags": {"bench": "no", "bus": "yes", "highway": "bus_stop", "lit": "no", "name": "Isemonger Farm", "naptan:AtcoCode": "2400A037290A", "naptan:Bearing": "NW", "naptan:CommonName": "Isemonger Farm", "naptan:Indicator": "NW-bound", "naptan:Landmark": "Hurst Close", "naptan:NaptanCode": "kntdpadm", "naptan:PlusbusZoneRef": "RYEE", "naptan:Street": "Cranbrook Rd", "naptan:verified": "no", "public_transport": "platform", "shelter": "no", "source": "naptan_import"}}, {"type": "node", "id": 502556819, "lat": 51.0671208, "lon": 0.674262, "tags": {"bench": "no", "bus": "yes", "highway": "bus_stop", "lit": "no", "name": "Isemonger Farm", "naptan:AtcoCode": "2400A037300A", "naptan:Bearing": "SE", "naptan:CommonName": "Isemonger Farm", "naptan:Indicator": "SE-bound", "naptan:Landmark": "Hurst Close", "naptan:NaptanCode": "kntdpadp", "naptan:PlusbusZoneRef": "RYEE", "naptan:Street": "Cranbrook Rd", "naptan:verified": "no", "public_transport": "platform", "shelter": "no", "source": "naptan_import"}}]}