{"version": 0.6, "generator": "Overpass API 0.7.62.10 2d4cfc48", "osm3s": {"timestamp_osm_base": "2026-03-01T06:23:12Z", "copyright": "The data included in this document is from www.openstreetmap.org. The data is made available under ODbL."}, "elements": [{"type": "node", "id": 28345924, "lat": 53.9605642, "lon": -2.0140262, "tags": {"addr:city": "Skipton", "addr:housenumber": "36", "addr:postcode": "BD23 2JB", "addr:street": "Newmarket Street", "amenity": "pharmacy", "check_date": "2015-08-06", "healthcare": "pharmacy", "old_name": "Lloyds Pharmacy"}}, {"type": "node", "id": 28345939, "lat": 53.9603093, "lon": -2.0168744, "tags": {"addr:city": "Skipton", "addr:housenumber": "75-79", "addr:postcode": "BD23 1DA", "addr:street": "High Street", "amenity": "pharmacy", "brand:wikidata": "Q7428189", "healthcare": "pharmacy", "name": "Savers", "opening_hours": "Mo-Sa 09:00-17:30; Su 10:30-16:30"}}, {"type": "node", "id": 28345983, "lat": 53.9602087, "lon": -2.0174375, "tags": {"addr:city": "Skipton", "addr:housenumber": "93", "addr:postcode": "BD23 1DA", "addr:street": "High Street", "amenity": "pharmacy", "check_date": "2025-08-28", "healthcare": "pharmacy", "name": "Skipton Pharmacy", "old_name": "Lloyds Pharmacy"}}, {"type": "node", "id": 28346018, "lat": 53.9616511, "lon": -2.0170367, "tags": {"addr:city": "Skipton", "addr:housenumber": "54-56", "addr:postcode": "BD23 1JP", "addr:street": "High Street", "amenity": "pharmacy", "brand": "Boots", "brand:wikidata": "Q6123139", "brand:wikipedia": "en:Boots (company)", "fhrs:id": "292833", "healthcare": "pharmacy", "name": "Boots", "opening_hours": "Mo-Fr 09:00-18:00; Sa 09:00-17:30; Su 10:30-16:30", "phone": "+44 1756 792091", "website": "https://www.boots.com/stores/526-skipton-high-street-bd23-1jp"}}, {"type": "node", "id": 11942322476, "lat": 53.9574078, "lon": -2.0214657, "tags": {"addr:city": "Skipton", "addr:postcode": "BD23 2AG", "addr:street": "Craven Street", "amenity": "pharmacy", "brand": "Tesco", "brand:wikidata": "Q487494", "healthcare": "pharmacy", "name": "Tesco Pharmacy", "opening_hours": "Mo-Sa 08:00-08:00; Su 10:00:16:00", "website": "https://www.tesco.com/store-locator/skipton/craven-st/pharmacy"}}]}