{"version": 0.6, "generator": "Overpass API 0.7.62.10 2d4cfc48", "osm3s": {"timestamp_osm_base": "2026-03-01T06:04:44Z", "copyright": "The data included in this document is from www.openstreetmap.org. The data is made available under ODbL."}, "elements": [{"type": "node", "id": 474889991, "lat": 51.8034215, "lon": 1.1305981, "tags": {"highway": "bus_stop", "layby": "yes", "name": "Waterworks Drive", "naptan:AtcoCode": "150032007041", "naptan:Bearing": "S", "naptan:CommonName": "Waterworks Drive", "naptan:Crossing": "Waterworks Drive", "naptan:Indicator": "Opp", "naptan:Landmark": "Waterworks Drive", "naptan:NaptanCode": "esxgmadm", "naptan:PlusbusZoneRef": "CLACTON", "naptan:Street": "Cloes Lane", "public_transport": "platform", "source": "naptan_import; survey"}}, {"type": "node", "id": 474889993, "lat": 51.8032956, "lon": 1.1304122, "tags": {"flag": "sometimes", "highway": "bus_stop", "kerb": "raised", "name": "Waterworks Drive", "naptan:AtcoCode": "150032007042", "naptan:NaptanCode": "esxgmadp", "naptan:PlusbusZoneRef": "CLACTON", "note": "Mapillary shows there was a flag but was missing in early 2025 (probable car collision)", "public_transport": "platform"}}, {"type": "node", "id": 474892691, "lat": 51.8068397, "lon": 1.1281739, "tags": {"highway": "bus_stop", "name": "Purley Way", "naptan:AtcoCode": "150044001003", "naptan:NaptanCode": "esxajtjm", "naptan:PlusbusZoneRef": "CLACTON", "public_transport": "platform"}}, {"type": "node", "id": 474892692, "lat": 51.8073034, "lon": 1.1298633, "tags": {"highway": "bus_stop", "name": "Mayford Way", "naptan:AtcoCode": "150044001004", "naptan:NaptanCode": "esxajtjp", "naptan:PlusbusZoneRef": "CLACTON", "naptan:verified": "no", "public_transport": "platform", "source": "naptan_import"}}, {"type": "node", "id": 474892693, "lat": 51.8071548, "lon": 1.1382833, "tags": {"highway": "bus_stop", "kerb": "raised", "name": "Cann Hall School", "naptan:AtcoCode": "150044001006", "naptan:NaptanCode": "esxajmwj", "naptan:PlusbusZoneRef": "CLACTON", "public_transport": "platform", "shelter": "yes", "timetable_case": "yes"}}, {"type": "node", "id": 474892694, "lat": 51.8060031, "lon": 1.1418023, "tags": {"highway": "bus_stop", "kerb": "raised", "name": "Hunt Drive", "naptan:AtcoCode": "150044001007", "naptan:NaptanCode": "esxajtjt", "naptan:PlusbusZoneRef": "CLACTON", "public_transport": "platform"}}, {"type": "node", "id": 474892697, "lat": 51.8070462, "lon": 1.1382298, "tags": {"highway": "bus_stop", "name": "Cann Hall School", "naptan:AtcoCode": "1500440010Y6", "naptan:NaptanCode": "esxgwpwd", "naptan:PlusbusZoneRef": "CLACTON", "public_transport": "platform"}}, {"type": "node", "id": 474892698, "lat": 51.8061285, "lon": 1.1416758, "tags": {"highway": "bus_stop", "name": "Hunt Drive", "naptan:AtcoCode": "1500440010Y7", "naptan:NaptanCode": "esxgwpwg", "naptan:PlusbusZoneRef": "CLACTON", "public_transport": "platform"}}, {"type": "node", "id": 474892699, "lat": 51.8042883, "lon": 1.1430023, "tags": {"highway": "bus_stop", "name": "Constable Avenue", "naptan:AtcoCode": "150044002002", "naptan:Bearing": "W", "naptan:CommonName": "Constable Avenue", "naptan:Crossing": "Constable Avenue", "naptan:Indicator": "Adj", "naptan:Landmark": "Constable Avenue", "naptan:NaptanCode": "esxajmwp", "naptan:PlusbusZoneRef": "CLACTON", "naptan:Street": "St. John's Road", "public_transport": "platform", "route_ref": "17;18;602", "source": "naptan_import; survey"}}, {"type": "node", "id": 474892700, "lat": 51.804544, "lon": 1.1424451, "tags": {"highway": "bus_stop", "name": "Constable Avenue", "naptan:AtcoCode": "150044002003", "naptan:Bearing": "E", "naptan:CommonName": "Constable Avenue", "naptan:Crossing": "Constable Avenue", "naptan:Indicator": "Opp", "naptan:Landmark": "Constable Avenue", "naptan:NaptanCode": "esxajmwt", "naptan:PlusbusZoneRef": "CLACTON", "naptan:Street": "St. John's Road", "public_transport": "platform", "route_ref": "17;18;135;602", "shelter": "yes", "source": "naptan_import; survey"}}, {"type": "node", "id": 474892701, "lat": 51.804457, "lon": 1.1346442, "tags": {"highway": "bus_stop", "name": "Cottage Grove", "naptan:AtcoCode": "150044002004", "naptan:Bearing": "E", "naptan:CommonName": "Cottage Grove", "naptan:Crossing": "Cottage Grove", "naptan:Indicator": "Adj", "naptan:Landmark": "Cottage Grove", "naptan:NaptanCode": "esxajpad", "naptan:PlusbusZoneRef": "CLACTON", "naptan:Street": "St. John's Road", "public_transport": "platform", "route_ref": "18;602", "source": "naptan_import; survey"}}, {"type": "node", "id": 474892702, "lat": 51.8041374, "lon": 1.1337659, "tags": {"highway": "bus_stop", "name": "Cottage Grove", "naptan:AtcoCode": "150044002005", "naptan:Bearing": "W", "naptan:CommonName": "Cottage Grove", "naptan:Crossing": "Cottage Grove", "naptan:Indicator": "Opp", "naptan:Landmark": "Cottage Grove", "naptan:NaptanCode": "esxajpag", "naptan:PlusbusZoneRef": "CLACTON", "naptan:Street": "St. John's Road", "public_transport": "platform", "source": "naptan_import; survey"}}, {"type": "node", "id": 474892703, "lat": 51.8020651, "lon": 1.1217803, "tags": {"highway": "bus_stop", "name": "Clacton Garden Centre", "naptan:AtcoCode": "150044002008", "naptan:Bearing": "E", "naptan:CommonName": "Clacton Garden Centre", "naptan:Indicator": "o/s", "naptan:Landmark": "Clacton Garden Centre", "naptan:NaptanCode": "esxajpap", "naptan:PlusbusZoneRef": "CLACTON", "naptan:Street": "St. John's Road", "public_transport": "platform", "route_ref": "17;18;74;74B", "source": "naptan_import; survey"}}, {"type": "node", "id": 474892704, "lat": 51.8019356, "lon": 1.1213859, "tags": {"highway": "bus_stop", "name": "Clacton Garden Centre", "naptan:AtcoCode": "150044002009", "naptan:Bearing": "W", "naptan:CommonName": "Clacton Garden Centre", "naptan:Indicator": "Opp", "naptan:Landmark": "Clacton Garden Centre", "naptan:NaptanCode": "esxajpat", "naptan:PlusbusZoneRef": "CLACTON", "naptan:Street": "St. John's Road", "public_transport": "platform", "route_ref": "17;18;74;74B", "source": "naptan_import; survey"}}, {"type": "node", "id": 474892705, "lat": 51.8008923, "lon": 1.1257133, "tags": {"highway": "bus_stop", "name": "Cavendish Drive", "naptan:AtcoCode": "150044003001", "naptan:NaptanCode": "esxajtja", "naptan:verified": "no", "public_transport": "platform", "source": "naptan_import"}}, {"type": "node", "id": 474892706, "lat": 51.8005695, "lon": 1.1308174, "tags": {"highway": "bus_stop", "kerb": "raised", "name": "Nien Oord", "naptan:AtcoCode": "150044003003", "naptan:Bearing": "S", "naptan:CommonName": "Nien Oord", "naptan:Indicator": "Adj", "naptan:Landmark": "Nien Oord", "naptan:NaptanCode": "esxajtjd", "naptan:PlusbusZoneRef": "CLACTON", "naptan:Street": "Cloes Lane", "public_transport": "platform", "route_ref": "3;5;5A;6;74;600", "source": "naptan_import; survey"}}, {"type": "node", "id": 474892707, "lat": 51.8002567, "lon": 1.1305623, "tags": {"highway": "bus_stop", "kerb": "raised", "name": "Nien Oord", "naptan:AtcoCode": "150044003004", "naptan:Bearing": "N", "naptan:CommonName": "Nien Oord", "naptan:Indicator": "Opp", "naptan:Landmark": "Nien Oord", "naptan:NaptanCode": "esxajtjg", "naptan:PlusbusZoneRef": "CLACTON", "naptan:Street": "Cloes Lane", "public_transport": "platform", "source": "naptan_import; survey"}}, {"type": "node", "id": 474892709, "lat": 51.7932214, "lon": 1.1474471, "tags": {"bus": "yes", "highway": "bus_stop", "kerb": "raised", "name": "Bryans Garage", "naptan:AtcoCode": "150044004001", "naptan:Bearing": "SW", "naptan:CommonName": "Bryans Garage", "naptan:Crossing": "Old Road", "naptan:Indicator": "SW-bound", "naptan:Landmark": "Bryans Garage", "naptan:NaptanCode": "esxajtaj", "naptan:Street": "St. Osyth Road", "public_transport": "platform", "route_ref": "3;5;5A;6;74;74B;135", "source": "naptan_import; survey"}}, {"type": "node", "id": 474892710, "lat": 51.7931589, "lon": 1.1468343, "tags": {"bus": "yes", "highway": "bus_stop", "kerb": "raised", "name": "Bryans Garage", "naptan:AtcoCode": "150044004002", "naptan:Bearing": "E", "naptan:CommonName": "Bryans Garage", "naptan:Crossing": "Old Road", "naptan:Indicator": "E-bound", "naptan:Landmark": "Bryans Garage", "naptan:NaptanCode": "esxajtag", "naptan:Street": "St. Osyth Road", "public_transport": "platform", "source": "naptan_import; survey"}}, {"type": "node", "id": 474892712, "lat": 51.7937895, "lon": 1.1423603, "tags": {"highway": "bus_stop", "kerb": "raised", "name": "Dudley Road", "naptan:AtcoCode": "150044004004", "naptan:Bearing": "W", "naptan:CommonName": "Dudley Road", "naptan:Crossing": "Dudley Road", "naptan:Indicator": "Opp", "naptan:Landmark": "Dudley Road", "naptan:NaptanCode": "esxajtap", "naptan:PlusbusZoneRef": "CLACTON", "naptan:Street": "St. Osyth Road", "public_transport": "platform", "route_ref": "3;5;5A;6;74;74B;135", "source": "naptan_import;survey"}}, {"type": "node", "id": 474892713, "lat": 51.7940634, "lon": 1.1413083, "tags": {"bus": "yes", "highway": "bus_stop", "name": "Dudley Road", "naptan:AtcoCode": "150044004005", "naptan:Bearing": "E", "naptan:CommonName": "Victory Road", "naptan:Indicator": "Adj", "naptan:Landmark": "Victory Road", "naptan:NaptanCode": "esxajtat", "naptan:PlusbusZoneRef": "CLACTON", "naptan:Street": "St. Osyth Road", "public_transport": "platform", "route_ref": "3;5;5A;6;74;74B", "source": "naptan_import; survey"}}, {"type": "node", "id": 474892714, "lat": 51.7947591, "lon": 1.1382657, "tags": {"bus": "yes", "highway": "bus_stop", "name": "Beaumont Avenue", "naptan:AtcoCode": "150044004007", "naptan:Bearing": "SE", "naptan:CommonName": "Beaumont Avenue", "naptan:Crossing": "Beaumont Avenue", "naptan:Indicator": "Opp", "naptan:Landmark": "Beaumont Avenue", "naptan:NaptanCode": "esxajtda", "naptan:PlusbusZoneRef": "CLACTON", "naptan:Street": "St. Osyth Road", "public_transport": "platform", "source": "naptan_import; survey"}}, {"type": "node", "id": 474892715, "lat": 51.79532, "lon": 1.1364329, "tags": {"bus": "yes", "highway": "bus_stop", "kerb": "raised", "name": "Coronation Road", "naptan:AtcoCode": "150044004008", "naptan:Bearing": "NW", "naptan:CommonName": "Coronation Road", "naptan:Crossing": "Coronation Road", "naptan:Indicator": "Adj", "naptan:Landmark": "Coronation Road", "naptan:NaptanCode": "esxajtdg", "naptan:PlusbusZoneRef": "CLACTON", "naptan:Street": "St. Osyth Road", "public_transport": "platform", "source": "naptan_import; survey"}}, {"type": "node", "id": 474892716, "lat": 51.7957653, "lon": 1.135658, "tags": {"bus": "yes", "highway": "bus_stop", "kerb": "raised", "name": "Coronation Road", "naptan:AtcoCode": "150044004009", "naptan:Bearing": "SE", "naptan:CommonName": "Coronation Road", "naptan:Crossing": "Coronation Road", "naptan:Indicator": "Opp", "naptan:Landmark": "Coronation Road", "naptan:NaptanCode": "esxajtdj", "naptan:PlusbusZoneRef": "CLACTON", "naptan:Street": "St. Osyth Road", "public_transport": "platform", "source": "naptan_import; survey"}}, {"type": "node", "id": 474892717, "lat": 51.7963736, "lon": 1.1335859, "tags": {"bus": "yes", "highway": "bus_stop", "name": "Coppins Green", "naptan:AtcoCode": "150044004010", "naptan:Bearing": "SE", "naptan:CommonName": "Coppins Green", "naptan:Crossing": "Lake Walk", "naptan:Indicator": "SE-bound", "naptan:Landmark": "Coppins Green", "naptan:NaptanCode": "esxajtdm", "naptan:PlusbusZoneRef": "CLACTON", "naptan:Street": "St. Osyth Road", "public_transport": "platform", "route_ref": "3;74", "source": "naptan_import; survey"}}, {"type": "node", "id": 474892719, "lat": 51.7966702, "lon": 1.1319924, "tags": {"bus": "yes", "highway": "bus_stop", "name": "Boxted Avenue", "naptan:AtcoCode": "150044004013", "naptan:Bearing": "W", "naptan:CommonName": "Boxted Avenue", "naptan:Crossing": "Boxted Avenue", "naptan:Indicator": "Opp", "naptan:Landmark": "Boxted Avenue", "naptan:NaptanCode": "esxajtdw", "naptan:PlusbusZoneRef": "CLACTON", "naptan:Street": "Rush Green Road", "public_transport": "platform", "route_ref": "600", "source": "naptan_import; survey"}}, {"type": "node", "id": 474892720, "lat": 51.7954396, "lon": 1.1306309, "tags": {"bus": "yes", "flag": "yes", "highway": "bus_stop", "name": "Birch Close", "naptan:AtcoCode": "150044004014", "naptan:NaptanCode": "esxajtga", "naptan:PlusbusZoneRef": "CLACTON", "public_transport": "platform"}}, {"type": "node", "id": 474892721, "lat": 51.7953685, "lon": 1.131192, "tags": {"bus": "yes", "highway": "bus_stop", "name": "Birch Close", "naptan:AtcoCode": "150044004015", "naptan:NaptanCode": "esxajtgd", "naptan:PlusbusZoneRef": "CLACTON", "public_transport": "platform"}}, {"type": "node", "id": 474892722, "lat": 51.7946027, "lon": 1.1326266, "tags": {"bus": "yes", "highway": "bus_stop", "name": "Lake Avenue", "naptan:AtcoCode": "150044004016", "naptan:NaptanCode": "esxajtgj", "naptan:PlusbusZoneRef": "CLACTON", "public_transport": "platform"}}, {"type": "node", "id": 474892723, "lat": 51.7941854, "lon": 1.1326317, "tags": {"bus": "yes", "highway": "bus_stop", "layby": "yes", "name": "Lake Avenue", "naptan:AtcoCode": "150044004017", "naptan:NaptanCode": "esxajtgm", "naptan:PlusbusZoneRef": "CLACTON", "public_transport": "platform"}}, {"type": "node", "id": 474892724, "lat": 51.7927837, "lon": 1.1350775, "tags": {"bus": "yes", "highway": "bus_stop", "name": "Coopers Lane Shops", "naptan:AtcoCode": "150044004019", "naptan:Bearing": "W", "naptan:CommonName": "Coopers Lane Shops", "naptan:Indicator": "Opp", "naptan:Landmark": "Coopers Lane Shops", "naptan:NaptanCode": "esxajtgt", "naptan:PlusbusZoneRef": "CLACTON", "naptan:Street": "Coopers Lane", "public_transport": "platform", "route_ref": "5;5A;6;74B", "source": "naptan_import; survey"}}, {"type": "node", "id": 474892725, "lat": 51.7937362, "lon": 1.1392473, "tags": {"bus": "yes", "highway": "bus_stop", "name": "Jameson Road", "naptan:AtcoCode": "150044004020", "naptan:NaptanCode": "esxajtgw", "naptan:PlusbusZoneRef": "CLACTON", "public_transport": "platform"}}, {"type": "node", "id": 474892730, "lat": 51.7801824, "lon": 1.1202968, "tags": {"bench": "no", "bin": "no", "highway": "bus_stop", "lit": "no", "name": "Community Hall", "naptan:AtcoCode": "150044005011", "naptan:Bearing": "N", "naptan:CommonName": "Community Hall", "naptan:Crossing": "Jasmine Way", "naptan:Indicator": "Opp", "naptan:Landmark": "Community Hall", "naptan:NaptanCode": "esxajpgj", "naptan:Street": "Golf Green Road", "naptan:verified": "no", "public_transport": "platform", "shelter": "no", "source": "naptan_import", "tactile_paving": "no"}}, {"type": "node", "id": 474892731, "lat": 51.7785882, "lon": 1.1210702, "tags": {"bench": "no", "bin": "no", "highway": "bus_stop", "lit": "no", "name": "Jasmine Way", "naptan:AtcoCode": "150044005012", "naptan:Bearing": "S", "naptan:CommonName": "Jasmine Way", "naptan:Indicator": "Opp", "naptan:Landmark": "Jasmine Way", "naptan:NaptanCode": "esxajpgm", "naptan:Street": "Golf Green Road", "naptan:verified": "no", "public_transport": "platform", "shelter": "no", "source": "naptan_import", "tactile_paving": "no"}}, {"type": "node", "id": 474892732, "lat": 51.7776606, "lon": 1.1214557, "tags": {"highway": "bus_stop", "name": "Golf Green Road", "naptan:AtcoCode": "150044005013", "naptan:Bearing": "N", "naptan:CommonName": "Golf Green Road", "naptan:Crossing": "The Close", "naptan:Indicator": "N-bound", "naptan:Landmark": "Golf Green Road", "naptan:NaptanCode": "esxajpgp", "naptan:Street": "Golf Green Road", "naptan:verified": "no", "public_transport": "platform", "source": "naptan_import"}}, {"type": "node", "id": 474892733, "lat": 51.7773546, "lon": 1.1218551, "tags": {"highway": "bus_stop", "name": "Golf Green Road", "naptan:AtcoCode": "150044005014", "naptan:Bearing": "SE", "naptan:CommonName": "Golf Green Road", "naptan:Crossing": "The Close", "naptan:Indicator": "SE-bound", "naptan:Landmark": "Golf Green Road", "naptan:NaptanCode": "esxajpgt", "naptan:Street": "Golf Green Road", "naptan:verified": "no", "public_transport": "platform", "source": "naptan_import"}}, {"type": "node", "id": 474892750, "lat": 51.7822201, "lon": 1.1356629, "tags": {"bench": "no", "bin": "no", "bus": "yes", "highway": "bus_stop", "lit": "no", "name": "Cherry Tree Avenue", "naptan:AtcoCode": "150044008001", "naptan:Bearing": "SW", "naptan:CommonName": "Cherry Tree Avenue", "naptan:Crossing": "Cherry Tree Avenue", "naptan:Indicator": "Adj", "naptan:Landmark": "Cherry Tree Avenue", "naptan:NaptanCode": "esxajptp", "naptan:Street": "West Road", "naptan:verified": "no", "public_transport": "platform", "shelter": "no", "source": "naptan_import", "tactile_paving": "no"}}, {"type": "node", "id": 474892751, "lat": 51.782924, "lon": 1.1375969, "tags": {"bench": "no", "bin": "no", "bus": "yes", "highway": "bus_stop", "lit": "no", "name": "Queens Road", "naptan:AtcoCode": "150044008003", "naptan:Bearing": "E", "naptan:CommonName": "Queens Road", "naptan:Crossing": "Queens Road", "naptan:Indicator": "Adj", "naptan:Landmark": "Queens Road", "naptan:NaptanCode": "esxajpwa", "naptan:Street": "West Road", "naptan:verified": "no", "public_transport": "platform", "shelter": "no", "source": "naptan_import", "tactile_paving": "yes"}}, {"type": "node", "id": 474892752, "lat": 51.7829838, "lon": 1.1387571, "tags": {"bench": "no", "bin": "no", "bus": "yes", "highway": "bus_stop", "lit": "no", "name": "Queens Road", "naptan:AtcoCode": "150044008004", "naptan:Bearing": "W", "naptan:CommonName": "Queens Road", "naptan:Crossing": "Queens Road", "naptan:Indicator": "Opp", "naptan:Landmark": "Queens Road", "naptan:NaptanCode": "esxajpwd", "naptan:Street": "West Road", "naptan:verified": "no", "public_transport": "platform", "shelter": "no", "source": "naptan_import", "tactile_paving": "yes"}}, {"type": "node", "id": 474892753, "lat": 51.7827674, "lon": 1.1441263, "tags": {"bench": "yes", "bin": "no", "bus": "yes", "highway": "bus_stop", "name": "Martello Inn", "naptan:AtcoCode": "150044008006", "naptan:Bearing": "NE", "naptan:CommonName": "Martello Inn", "naptan:Crossing": "Collingwood Road", "naptan:Indicator": "Opp", "naptan:Landmark": "Martello Inn", "naptan:NaptanCode": "esxajpwj", "naptan:Street": "Marine Parade West", "naptan:verified": "no", "public_transport": "platform", "shelter": "yes", "source": "naptan_import", "tactile_paving": "yes"}}, {"type": "node", "id": 474892755, "lat": 51.7868779, "lon": 1.1528004, "tags": {"bus": "yes", "highway": "bus_stop", "name": "Clacton Pier", "naptan:AtcoCode": "150044008009", "naptan:Bearing": "NE", "naptan:BusStopType": "CUS", "naptan:CommonName": "Clacton Pier", "naptan:Indicator": "o/s", "naptan:Landmark": "Clacton Pier", "naptan:NaptanCode": "esxajpwp", "naptan:Status": "ina", "naptan:Street": "Marine Parade West", "naptan:verified": "no", "public_transport": "platform", "source": "naptan_import"}}, {"type": "node", "id": 474892756, "lat": 51.7878087, "lon": 1.1552819, "tags": {"bus": "yes", "highway": "bus_stop", "name": "Marine Parade East", "naptan:AtcoCode": "150044008010", "naptan:NaptanCode": "esxajtad", "public_transport": "platform", "shelter": "yes"}}, {"type": "node", "id": 474892757, "lat": 51.8025429, "lon": 1.1756797, "tags": {"bus": "yes", "highway": "bus_stop", "name": "Sladbury's Lane", "naptan:AtcoCode": "150044010001", "naptan:Bearing": "W", "naptan:CommonName": "Sladbury's Lane", "naptan:Crossing": "Sladbury's Lane", "naptan:Indicator": "Adj", "naptan:Landmark": "Sladbury's Lane", "naptan:NaptanCode": "esxajgta", "naptan:Street": "Holland Road", "public_transport": "platform", "route_ref": "5;6;7;8;8A;134", "source": "naptan_import; survey"}}, {"type": "node", "id": 474892758, "lat": 51.8027116, "lon": 1.1762494, "tags": {"bus": "yes", "highway": "bus_stop", "name": "Sladbury's Lane", "naptan:AtcoCode": "150044010002", "naptan:Bearing": "E", "naptan:CommonName": "Sladbury's Lane", "naptan:Crossing": "Sladbury's Lane", "naptan:Indicator": "Opp", "naptan:Landmark": "Sladbury's Lane", "naptan:NaptanCode": "esxajgtd", "naptan:Street": "Holland Road", "public_transport": "platform", "route_ref": "5;6;7;8;8A;130", "source": "naptan_import; survey"}}, {"type": "node", "id": 474892765, "lat": 51.793721, "lon": 1.1539848, "tags": {"bus": "yes", "highway": "bus_stop", "local_ref": "4", "name": "Clacton Railway Station Coach Stop", "naptan:AtcoCode": "150044011002", "naptan:Bearing": "E", "naptan:CommonName": "Clacton Railway Station", "naptan:Indicator": "Coach Stop", "naptan:Landmark": "Clacton Railway Station", "naptan:NaptanCode": "esxajmat", "naptan:Street": "Skelmersdale Road", "naptan:verified": "no", "public_transport": "platform", "source": "naptan_import"}}, {"type": "node", "id": 474892766, "lat": 51.7939368, "lon": 1.1578916, "tags": {"bus": "yes", "highway": "bus_stop", "name": "Thoroughgood Road", "naptan:AtcoCode": "150044011004", "naptan:Bearing": "E", "naptan:CommonName": "Thoroughgood Road", "naptan:Crossing": "Thoroughgood Road", "naptan:Indicator": "Adj", "naptan:Landmark": "Thoroughgood Road", "naptan:NaptanCode": "esxajmdg", "naptan:Street": "Skelmersdale Road", "public_transport": "platform", "route_ref": "5;6;7;8;8A;130", "source": "naptan_import; survey"}}, {"type": "node", "id": 474892767, "lat": 51.7938855, "lon": 1.1588396, "tags": {"bus": "yes", "highway": "bus_stop", "name": "Thoroughgood Road", "naptan:AtcoCode": "150044011005", "naptan:Bearing": "W", "naptan:CommonName": "Thoroughgood Road", "naptan:Crossing": "Thoroughgood Road", "naptan:Indicator": "Opp", "naptan:Landmark": "Thoroughgood Road", "naptan:NaptanCode": "esxajmdj", "naptan:Street": "Skelmersdale Road", "public_transport": "platform", "route_ref": "5;6;7;8;8A;134", "source": "naptan_import; survey"}}, {"type": "node", "id": 474892768, "lat": 51.7939801, "lon": 1.1610075, "tags": {"bus": "yes", "highway": "bus_stop", "name": "Avondale Road", "naptan:AtcoCode": "150044011006", "naptan:Bearing": "W", "naptan:CommonName": "Avondale Road", "naptan:Crossing": "Avondale Road", "naptan:Indicator": "Adj", "naptan:Landmark": "Avondale Road", "naptan:NaptanCode": "esxajmdm", "naptan:Street": "Skelmersdale Road", "public_transport": "platform", "route_ref": "5;6;7;8;8A;134", "source": "naptan_import; survey"}}, {"type": "node", "id": 474892769, "lat": 51.794099, "lon": 1.1612012, "tags": {"bus": "yes", "highway": "bus_stop", "name": "Avondale Road", "naptan:AtcoCode": "150044011007", "naptan:Bearing": "E", "naptan:CommonName": "Avondale Road", "naptan:Crossing": "Avondale Road", "naptan:Indicator": "Opp", "naptan:Landmark": "Avondale Road", "naptan:NaptanCode": "esxajmdp", "naptan:Street": "Skelmersdale Road", "public_transport": "platform", "route_ref": "5;6;7;8;8A;130", "source": "naptan_import; survey"}}, {"type": "node", "id": 474892770, "lat": 51.795651, "lon": 1.1641829, "tags": {"bus": "yes", "highway": "bus_stop", "name": "Victoria Road", "naptan:AtcoCode": "150044011008", "naptan:Bearing": "SW", "naptan:CommonName": "Victoria Road", "naptan:Indicator": "Adj", "naptan:Landmark": "Victoria Road", "naptan:NaptanCode": "esxajmdt", "naptan:Street": "Holland Road", "public_transport": "platform", "route_ref": "5;6;7;8;8A;134", "source": "naptan_import; survey"}}, {"type": "node", "id": 474892771, "lat": 51.7962, "lon": 1.1654556, "tags": {"bus": "yes", "highway": "bus_stop", "name": "Lancaster Gardens", "naptan:AtcoCode": "150044011009", "naptan:Bearing": "E", "naptan:CommonName": "Lancaster Gardens", "naptan:Indicator": "Opp", "naptan:Landmark": "Lancaster Gardens", "naptan:NaptanCode": "esxajmdw", "naptan:Street": "Holland Road", "public_transport": "platform", "route_ref": "5;6;7;8;8A;130", "source": "naptan_import; survey"}}, {"type": "node", "id": 474892772, "lat": 51.7977178, "lon": 1.1694265, "tags": {"bus": "yes", "highway": "bus_stop", "kerb": "raised", "name": "Shorefields School", "naptan:AtcoCode": "150044011010", "naptan:Bearing": "NE", "naptan:CommonName": "Windsor School", "naptan:Indicator": "o/s", "naptan:Landmark": "Windsor School", "naptan:NaptanCode": "esxajmga", "naptan:Street": "Holland Road", "public_transport": "platform", "route_ref": "5;6;7;8;8A;130", "source": "naptan_import; survey"}}, {"type": "node", "id": 474892773, "lat": 51.8006294, "lon": 1.1715991, "tags": {"bus": "yes", "highway": "bus_stop", "name": "Holland Road School", "naptan:AtcoCode": "150044011012", "naptan:Bearing": "N", "naptan:CommonName": "Holland Road School", "naptan:Indicator": "Adj", "naptan:Landmark": "Holland Road School", "naptan:NaptanCode": "esxajmgm", "naptan:Street": "Holland Road", "public_transport": "platform", "route_ref": "5;6;7;8;8A;130", "source": "naptan_import; survey", "timetable_case": "yes"}}, {"type": "node", "id": 474892774, "lat": 51.8009555, "lon": 1.1718173, "tags": {"bus": "yes", "highway": "bus_stop", "name": "Holland Road School", "naptan:AtcoCode": "150044011013", "naptan:Bearing": "S", "naptan:CommonName": "Holland Road School", "naptan:Indicator": "Opp", "naptan:Landmark": "Holland Road School", "naptan:NaptanCode": "esxajmgp", "naptan:Street": "Holland Road", "public_transport": "platform", "route_ref": "5;6;7;8;8A;134", "shelter": "yes", "source": "naptan_import; survey", "timetable_case": "yes"}}, {"type": "node", "id": 474892776, "lat": 51.8052967, "lon": 1.1629171, "tags": {"bench": "no", "bin": "no", "bus": "yes", "highway": "bus_stop", "lit": "yes", "name": "Hillcrest", "naptan:AtcoCode": "150044012003", "naptan:Bearing": "SW", "naptan:CommonName": "Hillcrest", "naptan:Crossing": "Hillcrest", "naptan:Indicator": "Adj", "naptan:Landmark": "Hillcrest", "naptan:NaptanCode": "esxajgmg", "naptan:PlusbusZoneRef": "CLACTON", "naptan:Street": "Burrs Road", "public_transport": "platform", "shelter": "no", "source": "naptan_import", "tactile_paving": "no"}}, {"type": "node", "id": 474892777, "lat": 51.8051632, "lon": 1.1624188, "tags": {"bench": "no", "bin": "no", "bus": "yes", "highway": "bus_stop", "kerb": "raised", "lit": "yes", "name": "Hillcrest", "naptan:AtcoCode": "150044012004", "naptan:Bearing": "NE", "naptan:CommonName": "Hillcrest", "naptan:Crossing": "Hillcrest", "naptan:Indicator": "Opp", "naptan:Landmark": "Hillcrest", "naptan:NaptanCode": "esxajgmj", "naptan:PlusbusZoneRef": "CLACTON", "naptan:Street": "Burrs Road", "public_transport": "platform", "shelter": "no", "source": "naptan_import; survey", "tactile_paving": "yes"}}, {"type": "node", "id": 474892798, "lat": 51.8068858, "lon": 1.154888, "tags": {"bus": "yes", "highway": "bus_stop", "name": "North Road", "naptan:AtcoCode": "150044015008", "naptan:Bearing": "N", "naptan:CommonName": "North Road", "naptan:Crossing": "Thorpe Road", "naptan:Indicator": "N-bound", "naptan:Landmark": "North Road", "naptan:NaptanCode": "esxajgpw", "naptan:PlusbusZoneRef": "CLACTON", "naptan:Street": "North Road", "public_transport": "platform", "source": "naptan_import; survey"}}, {"type": "node", "id": 474892800, "lat": 51.7952999, "lon": 1.1487026, "tags": {"bus": "yes", "highway": "bus_stop", "name": "St Andrew's Road", "naptan:AtcoCode": "150044016001", "naptan:Bearing": "S", "naptan:CommonName": "St. Andrew's Road", "naptan:Crossing": "St. Andrew's Road", "naptan:Indicator": "S-bound", "naptan:Landmark": "St. Andrew's Road", "naptan:NaptanCode": "esxajmpm", "naptan:Street": "Old Road", "public_transport": "platform", "route_ref": "3;600;602", "source": "naptan_import; survey"}}, {"type": "node", "id": 474892801, "lat": 51.8048061, "lon": 1.1499002, "tags": {"bus": "yes", "highway": "bus_stop", "name": "Howard Vyse Court", "naptan:AtcoCode": "150044016003", "naptan:Bearing": "E", "naptan:CommonName": "Howard Vyse Court", "naptan:Crossing": "Howard Vyse Court", "naptan:Indicator": "Adj", "naptan:Landmark": "Howard Vyse Court", "naptan:NaptanCode": "esxajmpw", "naptan:PlusbusZoneRef": "CLACTON", "naptan:Street": "St. John's Road", "public_transport": "platform", "route_ref": "17;18;135;602", "shelter": "yes", "source": "naptan_import; survey"}}, {"type": "node", "id": 474892802, "lat": 51.8047306, "lon": 1.1504333, "tags": {"bus": "yes", "highway": "bus_stop", "name": "Howard Vyse Court", "naptan:AtcoCode": "150044016004", "naptan:Bearing": "W", "naptan:CommonName": "Howard Vyse Court", "naptan:Crossing": "Howard Vyse Court", "naptan:Indicator": "Opp", "naptan:Landmark": "Howard Vyse Court", "naptan:NaptanCode": "esxajmta", "naptan:PlusbusZoneRef": "CLACTON", "naptan:Street": "St. John's Road", "public_transport": "platform", "route_ref": "17;18;602", "source": "naptan_import; survey"}}, {"type": "node", "id": 474892803, "lat": 51.8024311, "lon": 1.153997, "tags": {"bus": "yes", "highway": "bus_stop", "name": "Bowens International", "naptan:AtcoCode": "150044016006", "naptan:Bearing": "NE", "naptan:CommonName": "Bowens International", "naptan:Indicator": "o/s", "naptan:Landmark": "Bowens International", "naptan:NaptanCode": "esxajmtg", "naptan:PlusbusZoneRef": "CLACTON", "naptan:Street": "Old Road", "naptan:verified": "no", "public_transport": "platform", "source": "naptan_import"}}, {"type": "node", "id": 474892804, "lat": 51.8018497, "lon": 1.1533325, "tags": {"bench": "no", "bin": "no", "bus": "yes", "highway": "bus_stop", "name": "Severn Road", "naptan:AtcoCode": "150044016007", "naptan:Bearing": "SW", "naptan:CommonName": "Severn Road", "naptan:Indicator": "Adj", "naptan:Landmark": "Severn Road", "naptan:NaptanCode": "esxajmtj", "naptan:PlusbusZoneRef": "CLACTON", "naptan:Street": "Old Road", "naptan:verified": "no", "public_transport": "platform", "shelter": "no", "source": "naptan_import"}}, {"type": "node", "id": 474892805, "lat": 51.7977311, "lon": 1.1528907, "tags": {"bus": "yes", "highway": "bus_stop", "name": "Cambridge Road", "naptan:AtcoCode": "150044016009", "naptan:Bearing": "S", "naptan:CommonName": "Cambridge Road", "naptan:Crossing": "Cambridge Road", "naptan:Indicator": "Adj", "naptan:Landmark": "Cambridge Road", "naptan:NaptanCode": "esxajmtp", "naptan:Street": "Wellesley Road", "public_transport": "platform", "route_ref": "3;10;11;17;18;129", "source": "naptan_import; survey"}}, {"type": "node", "id": 474892806, "lat": 51.7966133, "lon": 1.1527203, "tags": {"bus": "yes", "highway": "bus_stop", "name": "Cambridge Road", "naptan:AtcoCode": "150044016010", "naptan:Bearing": "N", "naptan:CommonName": "Cambridge Road", "naptan:Crossing": "Cambridge Road", "naptan:Indicator": "Opp", "naptan:Landmark": "Cambridge Road", "naptan:NaptanCode": "esxajmtw", "naptan:Street": "Wellesley Road", "public_transport": "platform", "route_ref": "3;10;11;17;18;129", "source": "naptan_import; survey"}}, {"type": "node", "id": 474892807, "lat": 51.790271, "lon": 1.15345, "tags": {"bus": "yes", "highway": "bus_stop", "name": "Station Road", "naptan:AtcoCode": "150044018002", "naptan:Bearing": "N", "naptan:CommonName": "Station Road", "naptan:Crossing": "High Street", "naptan:Indicator": "N-bound", "naptan:Landmark": "Station Road", "naptan:NaptanCode": "esxajmgw", "naptan:Street": "Station Road", "public_transport": "platform", "shelter": "yes", "source": "naptan_import; survey"}}, {"type": "node", "id": 474892808, "lat": 51.7922967, "lon": 1.1486131, "tags": {"bus": "yes", "highway": "bus_stop", "kerb": "raised", "name": "Aldi", "naptan:AtcoCode": "150044018010", "naptan:NaptanCode": "esxajmpa", "public_transport": "platform", "shelter": "yes"}}, {"type": "node", "id": 474892809, "lat": 51.7919408, "lon": 1.1492593, "tags": {"bench": "no", "bin": "no", "bus": "yes", "highway": "bus_stop", "kerb": "raised", "lit": "no", "name": "Aldi", "naptan:AtcoCode": "150044018Y10", "naptan:NaptanCode": "esxjdjta", "public_transport": "platform", "shelter": "no", "tactile_paving": "no"}}, {"type": "node", "id": 474892968, "lat": 51.7874261, "lon": 1.1525776, "tags": {"bus": "yes", "highway": "bus_stop", "name": "Agate Road", "naptan:AtcoCode": "1500AGA1", "naptan:Bearing": "NW", "naptan:CommonName": "Agate Road", "naptan:Indicator": "N-bound", "naptan:Landmark": "Agate Road", "naptan:NaptanCode": "esxjatjw", "naptan:Status": "ina", "naptan:Street": "Agate Road", "public_transport": "platform", "route_ref": "127", "source": "naptan_import; survey"}}, {"type": "node", "id": 474893083, "lat": 51.7993196, "lon": 1.1519847, "tags": {"bus": "yes", "highway": "bus_stop", "name": "Burcart Corner", "naptan:AtcoCode": "1500BURCART", "naptan:Bearing": "SE", "naptan:CommonName": "Burcart Corner", "naptan:Crossing": "Olivers Close", "naptan:Indicator": "SE-bound", "naptan:Landmark": "Burcart Corner", "naptan:NaptanCode": "esxajmtm", "naptan:PlusbusZoneRef": "CLACTON", "naptan:Street": "Wellesley Road", "public_transport": "platform", "route_ref": "3;10;11;17;18;129;130;135;600;602", "source": "naptan_import; survey"}}, {"type": "node", "id": 474893144, "lat": 51.7856473, "lon": 1.150338, "tags": {"bus": "yes", "highway": "bus_stop", "name": "Marine Parade West", "naptan:AtcoCode": "1500CLACDEF", "naptan:Bearing": "NE", "naptan:CommonName": "Marine Parade West", "naptan:Crossing": "Tower Road", "naptan:Indicator": "NE-bound", "naptan:Landmark": "Marine Parade West", "naptan:NaptanCode": "esxjdpjd", "naptan:Street": "Marine Parade West", "naptan:verified": "no", "public_transport": "platform", "shelter": "no", "source": "naptan_import"}}, {"type": "node", "id": 474893145, "lat": 51.7939483, "lon": 1.1481247, "tags": {"bus": "yes", "flag": "broken", "highway": "bus_stop", "name": "Herbert Road", "naptan:AtcoCode": "1500CLACHERB", "naptan:Bearing": "N", "naptan:CommonName": "Herbert Road", "naptan:Indicator": "Adj", "naptan:Landmark": "Herbert Road", "naptan:NaptanCode": "esxjatjt", "naptan:Street": "Old Road", "naptan:verified": "no", "public_transport": "platform", "source": "naptan_import"}}, {"type": "node", "id": 474893146, "lat": 51.7963627, "lon": 1.1493229, "tags": {"bus": "yes", "highway": "bus_stop", "name": "Magdalen Green", "naptan:AtcoCode": "1500CLACMAG", "naptan:Bearing": "S", "naptan:CommonName": "Magdalen Green", "naptan:Crossing": "Crossfield Road", "naptan:Indicator": "S-bound", "naptan:Landmark": "Magdalen Green", "naptan:NaptanCode": "esxjatjp", "naptan:PlusbusZoneRef": "CLACTON", "naptan:Street": "Old Road", "naptan:verified": "no", "public_transport": "platform", "source": "naptan_import"}}, {"type": "node", "id": 474893147, "lat": 51.7840962, "lon": 1.1471269, "tags": {"bench": "no", "bin": "no", "bus": "yes", "highway": "bus_stop", "lit": "no", "name": "Nelsons Quarter", "naptan:AtcoCode": "1500CLACNEL2", "naptan:NaptanCode": "esxjgapa", "public_transport": "platform", "shelter": "no", "tactile_paving": "no"}}, {"type": "node", "id": 474893148, "lat": 51.783993, "lon": 1.1471996, "tags": {"bus": "yes", "highway": "bus_stop", "name": "Nelsons Quarter", "naptan:AtcoCode": "1500CLACNELS", "naptan:NaptanCode": "esxjgapd", "public_transport": "platform"}}, {"type": "node", "id": 474893149, "lat": 51.7878854, "lon": 1.1488189, "tags": {"bus": "yes", "highway": "bus_stop", "name": "Police Station", "naptan:AtcoCode": "1500CLACPOL", "naptan:Bearing": "N", "naptan:CommonName": "Police Station", "naptan:Indicator": "o/s", "naptan:Landmark": "Police Station", "naptan:NaptanCode": "esxjatda", "naptan:Street": "Ellis Road", "naptan:verified": "no", "public_transport": "platform", "source": "naptan_import"}}, {"type": "node", "id": 474893150, "lat": 51.8028379, "lon": 1.163412, "tags": {"bench": "no", "bin": "no", "bus": "yes", "highway": "bus_stop", "lit": "yes", "name": "Valleybridge", "naptan:AtcoCode": "1500CLACTBNQ", "naptan:NaptanCode": "esxjatjm", "naptan:Street": "Valley Road", "public_transport": "platform", "shelter": "no", "tactile_paving": "no", "timetable_case": "yes"}}, {"type": "node", "id": 474893151, "lat": 51.8027018, "lon": 1.1636651, "tags": {"bench": "no", "bin": "no", "highway": "bus_stop", "lit": "no", "name": "Valleybridge", "naptan:AtcoCode": "1500CLACTBNY", "naptan:NaptanCode": "esxjawag", "public_transport": "platform", "shelter": "no", "tactile_paving": "no", "timetable_case": "yes"}}, {"type": "node", "id": 474893155, "lat": 51.8041047, "lon": 1.1452567, "tags": {"highway": "bus_stop", "layby": "yes", "name": "Clacton Fire Station", "naptan:AtcoCode": "1500CNFIREST", "naptan:Bearing": "W", "naptan:CommonName": "Clacton Fire Station", "naptan:Indicator": "o/s", "naptan:Landmark": "Clacton Fire Station", "naptan:NaptanCode": "esxajmwm", "naptan:PlusbusZoneRef": "CLACTON", "naptan:Street": "St. John's Road", "public_transport": "platform", "source": "naptan_import; survey"}}, {"type": "node", "id": 474893157, "lat": 51.793963, "lon": 1.171124, "tags": {"flag": "no", "highway": "bus_stop", "name": "Connaught Gardens East", "naptan:AtcoCode": "1500CNMARINE", "naptan:Bearing": "NE", "naptan:CommonName": "Connaught Gardens East", "naptan:Indicator": "Adj", "naptan:Landmark": "Connaught Gardens East", "naptan:NaptanCode": "esxadtja", "naptan:Street": "Marine Parade East", "public_transport": "platform", "shelter": "yes", "source": "naptan_import; survey"}}, {"type": "node", "id": 474893158, "lat": 51.7934111, "lon": 1.15348, "tags": {"bus": "yes", "highway": "bus_stop", "local_ref": "2", "name": "Clacton Railway Station", "naptan:AtcoCode": "1500CNSTN3", "naptan:Bearing": "NW", "naptan:CommonName": "Clacton Railway Station", "naptan:Indicator": "Stop 2", "naptan:Landmark": "Clacton Railway Station", "naptan:NaptanCode": "esxajmgt", "naptan:Street": "Carnarvon Road", "public_transport": "platform", "route_ref": "2;3;4;129;10;11;17;18;X22", "shelter": "yes", "source": "naptan_import; survey", "timetable_case": "yes"}}, {"type": "node", "id": 474893159, "lat": 51.797665, "lon": 1.1695747, "tags": {"bus": "yes", "highway": "bus_stop", "kerb": "raised", "name": "Shorefields School", "naptan:AtcoCode": "1500CNWINSCH", "naptan:Bearing": "SW", "naptan:CommonName": "Windsor School", "naptan:Indicator": "Opp", "naptan:Landmark": "Windsor School", "naptan:NaptanCode": "esxajmgd", "naptan:Street": "Holland Road", "public_transport": "platform", "route_ref": "5;6;7;8;8A;134", "shelter": "yes", "source": "naptan_import; survey"}}, {"type": "node", "id": 474893294, "lat": 51.7828312, "lon": 1.120194, "tags": {"highway": "bus_stop", "name": "Three Jays Post Office", "naptan:AtcoCode": "1500DGK193", "naptan:Bearing": "N", "naptan:CommonName": "Three Jays Post Office", "naptan:Crossing": "Marlowe Road", "naptan:Indicator": "o/s", "naptan:Landmark": "Three Jays Post Office", "naptan:NaptanCode": "esxgwdtm", "naptan:PlusbusZoneRef": "CLACTON", "naptan:Street": "Jaywick Lane", "naptan:verified": "no", "public_transport": "platform", "source": "naptan_import"}}, {"type": "node", "id": 474893295, "lat": 51.7824864, "lon": 1.1209822, "tags": {"highway": "bus_stop", "name": "Three Jays Post Office", "naptan:AtcoCode": "1500DGK194", "naptan:Bearing": "E", "naptan:CommonName": "Three Jays Post Office", "naptan:Crossing": "Jaywick Lane", "naptan:Indicator": "Opp", "naptan:Landmark": "Three Jays Post Office", "naptan:NaptanCode": "esxgwdtp", "naptan:PlusbusZoneRef": "CLACTON", "naptan:Street": "West Road", "naptan:verified": "no", "public_transport": "platform", "source": "naptan_import"}}, {"type": "node", "id": 474893358, "lat": 51.795239, "lon": 1.128429, "tags": {"highway": "bus_stop", "name": "Mason Road", "naptan:AtcoCode": "1500DGK251Y", "naptan:NaptanCode": "esxjdjma", "naptan:PlusbusZoneRef": "CLACTON", "public_transport": "platform"}}, {"type": "node", "id": 474893421, "lat": 51.8057148, "lon": 1.155065, "tags": {"bus": "yes", "highway": "bus_stop", "layby": "yes", "name": "The Plough", "naptan:AtcoCode": "1500GTCNSOM", "naptan:Bearing": "S", "naptan:CommonName": "The Plough", "naptan:Indicator": "o/s", "naptan:Landmark": "Somerfields Store", "naptan:NaptanCode": "esxajgpm", "naptan:PlusbusZoneRef": "CLACTON", "naptan:Street": "North Road", "public_transport": "platform", "source": "naptan_import; survey", "timetable_case": "yes"}}, {"type": "node", "id": 474893585, "lat": 51.7823333, "lon": 1.1358013, "tags": {"bench": "no", "bin": "no", "bus": "yes", "highway": "bus_stop", "lit": "no", "name": "Cherry Tree Avenue", "naptan:AtcoCode": "1500IM111", "naptan:Bearing": "NE", "naptan:CommonName": "Cherry Tree Avenue", "naptan:Crossing": "Cherry Tree Avenue", "naptan:Indicator": "Opp", "naptan:Landmark": "Cherry Tree Avenue", "naptan:NaptanCode": "esxajptw", "naptan:Street": "West Road", "naptan:verified": "no", "public_transport": "platform", "shelter": "no", "source": "naptan_import", "tactile_paving": "yes"}}, {"type": "node", "id": 474893586, "lat": 51.7928736, "lon": 1.1351263, "tags": {"bus": "yes", "highway": "bus_stop", "name": "Coopers Lane Shops", "naptan:AtcoCode": "1500IM1110", "naptan:Bearing": "E", "naptan:CommonName": "Coopers Lane Shops", "naptan:Indicator": "Adj", "naptan:Landmark": "Coopers Lane Shops", "naptan:NaptanCode": "esxajtgp", "naptan:PlusbusZoneRef": "CLACTON", "naptan:Street": "Coopers Lane", "public_transport": "platform", "source": "naptan_import; survey", "timetable_case": "yes"}}, {"type": "node", "id": 474893594, "lat": 51.7993617, "lon": 1.1239754, "tags": {"highway": "bus_stop", "name": "Flatford Drive", "naptan:AtcoCode": "1500IM1117", "naptan:Bearing": "SE", "naptan:CommonName": "Flatford Drive", "naptan:Indicator": "S-bound Towards", "naptan:Landmark": "Flatford Drive", "naptan:NaptanCode": "esxadjdj", "naptan:PlusbusZoneRef": "CLACTON", "naptan:Street": "Blue House Avenue", "public_transport": "platform", "route_ref": "5;6", "source": "naptan_import; survey"}}, {"type": "node", "id": 474893597, "lat": 51.7985422, "lon": 1.1248, "tags": {"highway": "bus_stop", "name": "Ongar Close", "naptan:AtcoCode": "1500IM1117YC", "naptan:NaptanCode": "esxjdgtp", "naptan:PlusbusZoneRef": "CLACTON", "public_transport": "platform"}}, {"type": "node", "id": 474893599, "lat": 51.7860119, "lon": 1.1492539, "tags": {"bus": "yes", "highway": "bus_stop", "name": "Tower Road", "naptan:AtcoCode": "1500IM112", "naptan:Bearing": "NW", "naptan:CommonName": "Tower Road", "naptan:Crossing": "Freeland Road", "naptan:Indicator": "NW-bound", "naptan:Landmark": "Tower Road", "naptan:NaptanCode": "esxajmpd", "naptan:Street": "Tower Road", "naptan:verified": "no", "public_transport": "platform", "source": "naptan_import"}}, {"type": "node", "id": 474893655, "lat": 51.7963552, "lon": 1.1492318, "tags": {"bus": "yes", "highway": "bus_stop", "name": "Magdalen Green", "naptan:AtcoCode": "1500IM1179", "naptan:Bearing": "N", "naptan:CommonName": "Magdalen Green", "naptan:Crossing": "Crossfield Road", "naptan:Indicator": "N-bound", "naptan:Landmark": "Magdalen Green", "naptan:NaptanCode": "esxajmpt", "naptan:PlusbusZoneRef": "CLACTON", "naptan:Street": "Old Road", "public_transport": "platform", "route_ref": "3;76;129;139", "shelter": "yes", "source": "naptan_import; survey", "timetable_case": "yes"}}, {"type": "node", "id": 474893658, "lat": 51.7898475, "lon": 1.1480998, "tags": {"bus": "yes", "highway": "bus_stop", "name": "Morrisons", "naptan:AtcoCode": "1500IM1180", "naptan:Bearing": "N", "naptan:CommonName": "Safeway Store", "naptan:Indicator": "o/s", "naptan:Landmark": "Safeway Store", "naptan:NaptanCode": "esxajmpg", "naptan:Street": "Old Road", "naptan:verified": "no", "public_transport": "platform", "source": "naptan_import"}}, {"type": "node", "id": 474893698, "lat": 51.7889756, "lon": 1.1521656, "tags": {"bus": "yes", "highway": "bus_stop", "local_ref": "B", "name": "Pier Avenue", "naptan:AtcoCode": "1500IM123", "naptan:NaptanCode": "esxadajw", "public_transport": "platform", "shelter": "yes", "timetable_case": "yes"}}, {"type": "node", "id": 474893755, "lat": 51.8040411, "lon": 1.1293526, "tags": {"highway": "bus_stop", "name": "Brace of Pistols", "naptan:AtcoCode": "1500IM1283", "naptan:Bearing": "E", "naptan:CommonName": "Brace of Pistols", "naptan:Indicator": "o/s", "naptan:Landmark": "Brace of Pistols", "naptan:NaptanCode": "esxajpaj", "naptan:PlusbusZoneRef": "CLACTON", "naptan:Street": "St. John's Road", "public_transport": "platform", "route_ref": "17;18;74;74B", "source": "naptan_import; survey", "timetable_case": "yes"}}, {"type": "node", "id": 474893756, "lat": 51.8038401, "lon": 1.1284722, "tags": {"highway": "bus_stop", "kerb": "raised", "name": "Brace of Pistols", "naptan:AtcoCode": "1500IM1283B", "naptan:Bearing": "W", "naptan:CommonName": "Brace of Pistols", "naptan:Indicator": "Opp", "naptan:Landmark": "Brace of Pistols", "naptan:NaptanCode": "esxajpam", "naptan:PlusbusZoneRef": "CLACTON", "naptan:Street": "St. John's Road", "public_transport": "platform", "route_ref": "74;74B;135;310", "source": "naptan_import; survey", "timetable_case": "yes"}}, {"type": "node", "id": 474893809, "lat": 51.7822925, "lon": 1.1430491, "tags": {"bench": "no", "bin": "no", "bus": "yes", "highway": "bus_stop", "lit": "no", "name": "Martello Inn", "naptan:AtcoCode": "1500IM1339", "naptan:Bearing": "W", "naptan:CommonName": "Martello Inn", "naptan:Crossing": "Wash Lane", "naptan:Indicator": "o/s", "naptan:Landmark": "Martello Inn", "naptan:NaptanCode": "esxajpwg", "naptan:Street": "Marine Parade West", "naptan:verified": "no", "public_transport": "platform", "shelter": "no", "source": "naptan_import", "tactile_paving": "no"}}, {"type": "node", "id": 474893810, "lat": 51.7918492, "lon": 1.1481484, "tags": {"bus": "yes", "highway": "bus_stop", "name": "Anchor Road", "naptan:AtcoCode": "1500IM134", "naptan:Bearing": "N", "naptan:CommonName": "Coronet Century", "naptan:Indicator": "o/s", "naptan:Landmark": "Coronet Century", "naptan:NaptanCode": "esxajmpj", "naptan:Street": "Old Road", "public_transport": "platform", "route_ref": "5;5A;6;600;602;74;76", "source": "naptan_import; survey"}}, {"type": "node", "id": 474893811, "lat": 51.8024083, "lon": 1.1704838, "tags": {"bus": "yes", "highway": "bus_stop", "name": "Valley Farm Holiday Park", "naptan:AtcoCode": "1500IM1340", "naptan:NaptanCode": "esxajmgj", "public_transport": "platform"}}, {"type": "node", "id": 474893812, "lat": 51.8025925, "lon": 1.1700186, "tags": {"bus": "yes", "highway": "bus_stop", "name": "Valley Farm Holiday Park", "naptan:AtcoCode": "1500IM1340B", "naptan:NaptanCode": "esxadtmj", "public_transport": "platform"}}, {"type": "node", "id": 474894357, "lat": 51.7815232, "lon": 1.1203357, "tags": {"highway": "bus_stop", "name": "Three Jays", "naptan:AtcoCode": "1500IM19", "naptan:Bearing": "S", "naptan:CommonName": "Three Jays", "naptan:Crossing": "Crossways", "naptan:Indicator": "S-bound", "naptan:Landmark": "Three Jays", "naptan:NaptanCode": "esxajpgd", "naptan:Street": "Jaywick Lane", "naptan:verified": "no", "public_transport": "platform", "source": "naptan_import"}}, {"type": "node", "id": 474894430, "lat": 51.782185, "lon": 1.1201491, "tags": {"highway": "bus_stop", "name": "Three Jays", "naptan:AtcoCode": "1500IM19B", "naptan:Bearing": "N", "naptan:CommonName": "Three Jays", "naptan:Crossing": "West Road", "naptan:Indicator": "N-bound", "naptan:Landmark": "Three Jays", "naptan:NaptanCode": "esxajpga", "naptan:Street": "Jaywick Lane", "naptan:verified": "no", "public_transport": "platform", "source": "naptan_import"}}, {"type": "node", "id": 474894796, "lat": 51.8044502, "lon": 1.1557911, "tags": {"bench": "yes", "bin": "no", "bus": "yes", "highway": "bus_stop", "layby": "yes", "name": "Church", "naptan:AtcoCode": "1500IM242", "naptan:Bearing": "S", "naptan:CommonName": "Church", "naptan:Indicator": "o/s", "naptan:Landmark": "Church", "naptan:NaptanCode": "esxajmtd", "naptan:PlusbusZoneRef": "CLACTON", "naptan:Street": "Valley Road", "public_transport": "platform", "shelter": "yes", "source": "naptan_import; survey"}}, {"type": "node", "id": 474894804, "lat": 51.8035365, "lon": 1.156611, "tags": {"bus": "yes", "flag": "no", "highway": "bus_stop", "name": "Church", "naptan:AtcoCode": "1500IM242B", "naptan:BusStopType": "CUS", "naptan:NaptanCode": "esxgmpjg", "naptan:PlusbusZoneRef": "CLACTON", "public_transport": "platform", "source": "naptan_import", "timetable_case": "yes"}}, {"type": "node", "id": 474894805, "lat": 51.8047003, "lon": 1.1541322, "tags": {"bus": "yes", "highway": "bus_stop", "name": "Post Office", "naptan:AtcoCode": "1500IM243", "naptan:Bearing": "W", "naptan:CommonName": "Post Office", "naptan:Indicator": "o/s", "naptan:Landmark": "Post Office", "naptan:NaptanCode": "esxgmagm", "naptan:PlusbusZoneRef": "CLACTON", "naptan:Street": "St. John's Road", "public_transport": "platform", "route_ref": "17", "source": "naptan_import; survey"}}, {"type": "node", "id": 474894819, "lat": 51.8050286, "lon": 1.154854, "tags": {"bus": "yes", "highway": "bus_stop", "name": "The Plough", "naptan:AtcoCode": "1500IM244", "naptan:Bearing": "N", "naptan:CommonName": "The Plough", "naptan:Indicator": "o/s", "naptan:Landmark": "The Plough", "naptan:NaptanCode": "esxajgpt", "naptan:PlusbusZoneRef": "CLACTON", "naptan:Street": "North Road", "public_transport": "platform", "source": "naptan_import; survey", "timetable_case": "yes"}}, {"type": "node", "id": 474894830, "lat": 51.8066932, "lon": 1.1346781, "tags": {"highway": "bus_stop", "name": "Merstham Drive", "naptan:AtcoCode": "1500IM245", "naptan:NaptanCode": "esxajmwg", "naptan:PlusbusZoneRef": "CLACTON", "public_transport": "platform"}}, {"type": "node", "id": 474894847, "lat": 51.8066424, "lon": 1.1345585, "tags": {"highway": "bus_stop", "name": "Merstham Drive", "naptan:AtcoCode": "1500IM245AA", "naptan:NaptanCode": "esxgwmwp", "naptan:PlusbusZoneRef": "CLACTON", "public_transport": "platform"}}, {"type": "node", "id": 474895548, "lat": 51.7937726, "lon": 1.1548921, "tags": {"bus": "yes", "highway": "bus_stop", "local_ref": "1", "name": "Clacton Railway Station", "naptan:AtcoCode": "1500IM843", "naptan:Bearing": "E", "naptan:CommonName": "Clacton Railway Station", "naptan:Indicator": "Stop 1", "naptan:Landmark": "Clacton Railway Station", "naptan:NaptanCode": "esxajmda", "naptan:Street": "Skelmersdale Road", "public_transport": "platform", "route_ref": "5;6;7;8;8A;134", "shelter": "yes", "source": "naptan_import; survey", "timetable_case": "yes"}}, {"type": "node", "id": 474895581, "lat": 51.8022089, "lon": 1.1287958, "tags": {"highway": "bus_stop", "name": "Dedham Avenue", "naptan:AtcoCode": "1500IM89", "naptan:Bearing": "NE", "naptan:CommonName": "Dedham Avenue", "naptan:Crossing": "Dedham Avenue", "naptan:Indicator": "Opp", "naptan:Landmark": "Dedham Avenue", "naptan:NaptanCode": "esxadagt", "naptan:PlusbusZoneRef": "CLACTON", "naptan:Street": "Flatford Drive", "naptan:verified": "no", "public_transport": "platform", "source": "naptan_import"}}, {"type": "node", "id": 474895594, "lat": 51.7965235, "lon": 1.1329189, "tags": {"bus": "yes", "highway": "bus_stop", "name": "Coppins Green", "naptan:AtcoCode": "1500IM90", "naptan:Bearing": "NW", "naptan:CommonName": "Coppins Green", "naptan:Crossing": "Lake Walk", "naptan:Indicator": "NW-bound", "naptan:Landmark": "Coppins Green", "naptan:NaptanCode": "esxajtdp", "naptan:PlusbusZoneRef": "CLACTON", "naptan:Street": "St. Osyth Road", "public_transport": "platform", "route_ref": "3;74;135", "source": "naptan_import; survey"}}, {"type": "node", "id": 474895610, "lat": 51.793277, "lon": 1.1544184, "tags": {"bus": "yes", "highway": "bus_stop", "local_ref": "3", "name": "Clacton Railway Station", "naptan:AtcoCode": "1500IM91", "naptan:Bearing": "S", "naptan:CommonName": "Clacton Railway Station", "naptan:Indicator": "Stop 3", "naptan:Landmark": "Clacton Railway Station", "naptan:NaptanCode": "esxajmaw", "naptan:Street": "Station Road", "public_transport": "platform", "route_ref": "5;6;7;8;8A;17;18;129;134;135", "source": "naptan_import; survey", "timetable_case": "yes"}}, {"type": "node", "id": 474895774, "lat": 51.8045456, "lon": 1.1275805, "tags": {"flag": "yes", "highway": "bus_stop", "kerb": "raised", "name": "Little Clacton Road", "naptan:AtcoCode": "1500LITCNRD", "naptan:NaptanCode": "esxajmwd", "naptan:PlusbusZoneRef": "CLACTON", "public_transport": "platform"}}, {"type": "node", "id": 474895775, "lat": 51.8045378, "lon": 1.1274625, "tags": {"flag": "yes", "highway": "bus_stop", "kerb": "raised", "name": "Little Clacton Road", "naptan:AtcoCode": "1500LITCNYD", "naptan:NaptanCode": "esxgwmtw", "naptan:PlusbusZoneRef": "CLACTON", "public_transport": "platform"}}, {"type": "node", "id": 474895843, "lat": 51.7889234, "lon": 1.1506836, "tags": {"bus": "yes", "highway": "bus_stop", "kerb": "raised", "local_ref": "F", "name": "Jackson Road", "naptan:AtcoCode": "1500NEWJACK1", "naptan:Bearing": "S", "naptan:CommonName": "Jackson Road", "naptan:Crossing": "West Avenue", "naptan:Indicator": "Stop 5", "naptan:Landmark": "Jackson Road", "naptan:NaptanCode": "esxjdpgj", "naptan:Street": "Jackson Road", "public_transport": "platform", "route_ref": "74;74B;76;137", "shelter": "yes", "source": "naptan_import; survey"}}, {"type": "node", "id": 474895844, "lat": 51.7890364, "lon": 1.1507123, "tags": {"bus": "yes", "highway": "bus_stop", "local_ref": "E", "name": "Jackson Road", "naptan:AtcoCode": "1500NEWJACK2", "naptan:Bearing": "S", "naptan:CommonName": "Jackson Road", "naptan:Crossing": "West Avenue", "naptan:Indicator": "Stop 4", "naptan:Landmark": "Jackson Road", "naptan:NaptanCode": "esxjdpgd", "naptan:Status": "ina", "naptan:Street": "Jackson Road", "public_transport": "platform", "route_ref": "5;5A;6;10;11", "shelter": "yes", "source": "naptan_import; survey"}}, {"type": "node", "id": 474895882, "lat": 51.7894259, "lon": 1.151669, "tags": {"bench": "yes", "bin": "no", "bus": "yes", "highway": "bus_stop", "local_ref": "C", "name": "Pier Avenue", "naptan:AtcoCode": "1500PIER1", "naptan:Bearing": "NW", "naptan:CommonName": "Pier Avenue", "naptan:Crossing": "Jackson Road", "naptan:Indicator": "Stop 2", "naptan:Landmark": "Pier Avenue", "naptan:NaptanCode": "esxjdpgp", "naptan:Street": "Pier Avenue", "public_transport": "platform", "route_ref": "7;8;8a;10;11;5;6", "shelter": "yes", "source": "naptan_import; survey", "timetable_case": "yes"}}, {"type": "node", "id": 474895883, "lat": 51.7896554, "lon": 1.1514397, "tags": {"bench": "yes", "bin": "no", "bus": "yes", "highway": "bus_stop", "local_ref": "D", "name": "Pier Avenue", "naptan:AtcoCode": "1500PIER2", "naptan:NaptanCode": "esxjdpgm", "public_transport": "platform", "shelter": "yes", "timetable_case": "yes"}}, {"type": "node", "id": 474895884, "lat": 51.7887771, "lon": 1.1523808, "tags": {"bus": "yes", "highway": "bus_stop", "local_ref": "A", "name": "Pier Avenue", "naptan:AtcoCode": "1500PIERCOM", "naptan:Bearing": "NW", "naptan:CommonName": "Pier Avenue", "naptan:Indicator": "Stop 4", "naptan:Landmark": "Pier Avenue", "naptan:NaptanCode": "esxjgamt", "naptan:Street": "Pier Avenue", "public_transport": "platform", "shelter": "yes", "source": "naptan_import; survey", "timetable_case": "yes"}}, {"type": "node", "id": 474896016, "lat": 51.7944256, "lon": 1.1390636, "tags": {"bus": "yes", "highway": "bus_stop", "kerb": "raised", "name": "Beaumont Avenue", "naptan:AtcoCode": "1500STOROAD", "naptan:Bearing": "W", "naptan:CommonName": "Beaumont Avenue", "naptan:Crossing": "Beaumont Avenue", "naptan:Indicator": "Adj", "naptan:Landmark": "Beaumont Avenue", "naptan:NaptanCode": "esxajtaw", "naptan:PlusbusZoneRef": "CLACTON", "naptan:Street": "St. Osyth Road", "public_transport": "platform", "route_ref": "3;74;135", "source": "naptan_import; survey"}}, {"type": "node", "id": 474896047, "lat": 51.8003091, "lon": 1.1516461, "tags": {"bus": "yes", "highway": "bus_stop", "name": "Knox Road", "naptan:AtcoCode": "1500TEMP0031", "naptan:Bearing": "N", "naptan:CommonName": "Knox Road", "naptan:Indicator": "Adj", "naptan:Landmark": "Knox Road", "naptan:NaptanCode": "esxgmagj", "naptan:PlusbusZoneRef": "CLACTON", "naptan:Street": "Old Road", "naptan:verified": "no", "public_transport": "platform", "source": "naptan_import"}}, {"type": "node", "id": 474896064, "lat": 51.7869798, "lon": 1.1487123, "tags": {"bus": "yes", "highway": "bus_stop", "name": "Westcliffe Theatre", "naptan:AtcoCode": "1500THEATRE1", "naptan:Bearing": "S", "naptan:CommonName": "Westcliffe Theatre", "naptan:Indicator": "o/s", "naptan:Landmark": "Westcliffe Theatre", "naptan:NaptanCode": "esxjataw", "naptan:Street": "Tower Road", "naptan:verified": "no", "public_transport": "platform", "source": "naptan_import"}}, {"type": "node", "id": 4583258019, "lat": 51.7823797, "lon": 1.1286288, "tags": {"highway": "bus_stop", "name": "Clacton Airfield", "naptan:AtcoCode": "150044008901", "naptan:Bearing": "E", "naptan:CommonName": "Clacton Airfield", "naptan:Indicator": "o/s", "naptan:NaptanCode": "esxjpamd", "naptan:Street": "West Road", "naptan:verified": "no", "public_transport": "platform", "source": "naptan_import"}}, {"type": "node", "id": 4583258021, "lat": 51.7822751, "lon": 1.1288391, "tags": {"highway": "bus_stop", "name": "Clacton Airfield", "naptan:AtcoCode": "1500440089Y1", "naptan:Bearing": "W", "naptan:CommonName": "Clacton Airfield", "naptan:Indicator": "opp", "naptan:NaptanCode": "esxjpamg", "naptan:Street": "West Road", "naptan:verified": "no", "public_transport": "platform", "source": "naptan_import"}}, {"type": "node", "id": 4585142499, "lat": 51.7979096, "lon": 1.1425567, "tags": {"bus": "yes", "highway": "bus_stop", "name": "Clacton Coastal Academy", "naptan:AtcoCode": "1500IM11790", "naptan:BusStopType": "CUS", "naptan:NaptanCode": "esxjpawj", "naptan:Status": "ina", "naptan:verified": "no", "public_transport": "platform"}}, {"type": "node", "id": 5351613420, "lat": 51.8023003, "lon": 1.1592989, "tags": {"bus": "yes", "highway": "bus_stop", "name": "Asda", "naptan:AtcoCode": "1500IM2409B", "naptan:NaptanCode": "esxjpawg", "physically_present": "yes", "public_transport": "platform"}}, {"type": "node", "id": 5351614121, "lat": 51.8023244, "lon": 1.1590334, "tags": {"bus": "yes", "highway": "bus_stop", "name": "Asda", "naptan:AtcoCode": "1500IM2409", "naptan:NaptanCode": "esxjpawd", "physically_present": "yes", "public_transport": "platform"}}, {"type": "node", "id": 6179470355, "lat": 51.7967463, "lon": 1.1319962, "tags": {"bus": "yes", "highway": "bus_stop", "name": "Boxted Avenue", "naptan:AtcoCode": "1500440040Y3", "naptan:NaptanCode": "esxjpgmp", "public_transport": "platform", "source": "naptan"}}, {"type": "node", "id": 6252488273, "lat": 51.7986692, "lon": 1.1467729, "tags": {"bus": "yes", "highway": "bus_stop", "name": "DaRT Greater Clacton", "naptan:AtcoCode": "1500FLXCLAC", "naptan:BusStopType": "FLX", "naptan:NaptanCode": "esxjpjgm", "naptan:verified": "no", "public_transport": "platform", "source": "naptan"}}, {"type": "node", "id": 6253620921, "lat": 51.8052007, "lon": 1.1254042, "tags": {"highway": "bus_stop", "name": "Dresden Square", "naptan:AtcoCode": "1500440091Y1", "naptan:NaptanCode": "esxjpjmj", "naptan:verified": "no", "public_transport": "platform", "source": "naptan"}}, {"type": "node", "id": 6253620922, "lat": 51.806945, "lon": 1.1265148, "tags": {"highway": "bus_stop", "name": "Grier Way", "naptan:AtcoCode": "1500440091Y2", "naptan:NaptanCode": "esxjpjmt", "naptan:verified": "no", "public_transport": "platform", "source": "naptan"}}, {"type": "node", "id": 7858185101, "lat": 51.793535, "lon": 1.1387823, "tags": {"bus": "yes", "highway": "bus_stop", "name": "Jameson Road", "naptan:AtcoCode": "15004400402Y", "naptan:NaptanCode": "esxjptpj", "public_transport": "platform"}}, {"type": "node", "id": 8018814858, "lat": 51.8032613, "lon": 1.1236629, "tags": {"highway": "bus_stop", "name": "Sainsbury's Local", "naptan:AtcoCode": "1500HNR819", "naptan:BusStopType": "HAR", "naptan:NaptanCode": "esxjptwd", "naptan:Status": "ina", "naptan:verified": "no", "public_transport": "platform", "source": "naptan"}}, {"type": "node", "id": 8018814860, "lat": 51.8070098, "lon": 1.1264468, "tags": {"highway": "bus_stop", "name": "Grier Way", "naptan:AtcoCode": "150044009102", "naptan:NaptanCode": "esxjpjmp", "naptan:verified": "no", "public_transport": "platform", "source": "naptan"}}, {"type": "node", "id": 8018814861, "lat": 51.8058017, "lon": 1.124848, "tags": {"highway": "bus_stop", "name": "Dresden Square", "naptan:AtcoCode": "150044009101", "naptan:NaptanCode": "esxjpjmg", "naptan:verified": "no", "public_transport": "platform", "source": "naptan"}}, {"type": "node", "id": 8018814862, "lat": 51.8031597, "lon": 1.1234238, "tags": {"highway": "bus_stop", "name": "Sainsbury's Local", "naptan:AtcoCode": "1500HNR818", "naptan:BusStopType": "HAR", "naptan:NaptanCode": "esxjptwa", "naptan:verified": "no", "public_transport": "platform", "source": "naptan"}}]}