{"version": 0.6, "generator": "Overpass API 0.7.62.10 2d4cfc48", "osm3s": {"timestamp_osm_base": "2026-03-01T06:20:10Z", "copyright": "The data included in this document is from www.openstreetmap.org. The data is made available under ODbL."}, "elements": [{"type": "node", "id": 562703436, "lat": 51.9241332, "lon": -2.5714713, "tags": {"bus": "yes", "highway": "bus_stop", "name": "Woburn Close", "naptan:AtcoCode": "2090A0106074", "naptan:Bearing": "S", "naptan:BusStopType": "CUS", "naptan:CommonName": "Woburn Close", "naptan:Indicator": "opp", "naptan:NaptanCode": "heratdwd", "naptan:Street": "Court Road", "naptan:verified": "no", "public_transport": "platform", "source": "naptan_import"}}, {"type": "node", "id": 562703751, "lat": 51.9309516, "lon": -2.5545199, "tags": {"bus": "yes", "highway": "bus_stop", "name": "Rudhall Turn", "naptan:AtcoCode": "2090A028618", "naptan:Bearing": "SW", "naptan:CommonName": "Rudhall Turn", "naptan:Indicator": "Ross bound", "naptan:Landmark": "N/K", "naptan:NaptanCode": "herataja", "naptan:Street": "B4221", "naptan:verified": "no", "public_transport": "platform", "source": "naptan_import"}}, {"type": "node", "id": 562703757, "lat": 51.9310235, "lon": -2.5545481, "tags": {"bus": "yes", "highway": "bus_stop", "name": "Rudhall Turn", "naptan:AtcoCode": "2090A028620", "naptan:Bearing": "NE", "naptan:BusStopType": "CUS", "naptan:CommonName": "Rudhall Turn", "naptan:Indicator": "Upton Bishop bound", "naptan:Landmark": "N/K", "naptan:NaptanCode": "heratajd", "naptan:Street": "B4221", "naptan:verified": "no", "public_transport": "platform", "source": "naptan_import"}}, {"type": "node", "id": 562704095, "lat": 51.9143623, "lon": -2.5805048, "tags": {"bus": "yes", "highway": "bus_stop", "local_ref": "2", "name": "Cantilupe Road", "naptan:AtcoCode": "2090A042100", "naptan:Bearing": "SW", "naptan:CommonName": "Cantilupe Road", "naptan:Indicator": "Stand 2", "naptan:Landmark": "opp Library", "naptan:NaptanCode": "herapwda", "naptan:Street": "Cantilupe Road", "naptan:verified": "no", "public_transport": "platform", "source": "naptan_import"}}, {"type": "node", "id": 562704098, "lat": 51.9146143, "lon": -2.580157, "tags": {"bus": "yes", "highway": "bus_stop", "local_ref": "3", "name": "Cantilupe Road", "naptan:AtcoCode": "2090A042101", "naptan:Bearing": "SW", "naptan:CommonName": "Cantilupe Road", "naptan:Indicator": "Stand 3", "naptan:Landmark": "Shops", "naptan:NaptanCode": "herapwdg", "naptan:Street": "Cantilupe Road", "naptan:verified": "no", "public_transport": "platform", "source": "naptan_import"}}, {"type": "node", "id": 562704101, "lat": 51.9147639, "lon": -2.5798923, "tags": {"bus": "yes", "highway": "bus_stop", "local_ref": "4", "name": "Cantilupe Road", "naptan:AtcoCode": "2090A042102", "naptan:Bearing": "SW", "naptan:CommonName": "Cantilupe Road", "naptan:Indicator": "Stand 4", "naptan:Landmark": "Goodrich Court Flats", "naptan:NaptanCode": "herapwdj", "naptan:Street": "Cantilupe Road", "naptan:verified": "no", "public_transport": "platform", "source": "naptan_import"}}, {"type": "node", "id": 562704105, "lat": 51.9024392, "lon": -2.5893504, "tags": {"bus": "yes", "highway": "bus_stop", "name": "Walford Road", "naptan:AtcoCode": "2090A042200", "naptan:Bearing": "N", "naptan:CommonName": "Walford Road", "naptan:Indicator": "opp Youth Centre", "naptan:Landmark": "Bus Shelter", "naptan:NaptanCode": "heradadt", "naptan:Street": "Walford Road", "naptan:verified": "no", "public_transport": "platform", "source": "naptan_import"}}, {"type": "node", "id": 562704110, "lat": 51.9025127, "lon": -2.5890461, "tags": {"bus": "yes", "highway": "bus_stop", "name": "Walford Road", "naptan:AtcoCode": "2090A042201", "naptan:Bearing": "SW", "naptan:CommonName": "Walford Road", "naptan:Indicator": "adj Youth Centre", "naptan:Landmark": "Youth Centre", "naptan:NaptanCode": "heradadw", "naptan:Street": "Walford Road", "naptan:verified": "no", "public_transport": "platform", "source": "naptan_import"}}, {"type": "node", "id": 562705390, "lat": 51.9175593, "lon": -2.5809407, "tags": {"bus": "yes", "highway": "bus_stop", "name": "Five Ways", "naptan:AtcoCode": "2090A120100", "naptan:Bearing": "N", "naptan:CommonName": "Five Ways", "naptan:Indicator": "adj", "naptan:Landmark": "Old railway bridge piers", "naptan:NaptanCode": "heradtgw", "naptan:Street": "Overross Street", "naptan:verified": "no", "public_transport": "platform", "source": "naptan_import"}}, {"type": "node", "id": 562705392, "lat": 51.9175312, "lon": -2.5808211, "tags": {"bus": "yes", "highway": "bus_stop", "name": "Five Ways", "naptan:AtcoCode": "2090A120101", "naptan:Bearing": "SW", "naptan:CommonName": "Five Ways", "naptan:Indicator": "Ross bound", "naptan:Landmark": "Old railway bridge piers", "naptan:NaptanCode": "heradtja", "naptan:Street": "Overross Street", "naptan:verified": "no", "public_transport": "platform", "source": "naptan_import"}}, {"type": "node", "id": 562705395, "lat": 51.9085656, "lon": -2.5886746, "tags": {"bus": "yes", "highway": "bus_stop", "name": "Palmerston Road", "naptan:AtcoCode": "2090A120200", "naptan:Bearing": "SW", "naptan:BusStopType": "CUS", "naptan:CommonName": "Palmerston Road", "naptan:Indicator": "adj Veterinary Surgery", "naptan:Landmark": "Veterinary Surgery", "naptan:NaptanCode": "heradtjd", "naptan:Street": "Archenfield Road", "naptan:verified": "no", "public_transport": "platform", "source": "naptan_import"}}, {"type": "node", "id": 562705398, "lat": 51.9086457, "lon": -2.5888501, "tags": {"bus": "yes", "highway": "bus_stop", "name": "Palmerston Road", "naptan:AtcoCode": "2090A120201", "naptan:Bearing": "NE", "naptan:BusStopType": "CUS", "naptan:CommonName": "Palmerston Road", "naptan:Indicator": "opp Veterinary Surgery", "naptan:Landmark": "Veterinary Surgery", "naptan:NaptanCode": "heradtjg", "naptan:Street": "Archenfield Road", "naptan:verified": "no", "public_transport": "platform", "source": "naptan_import"}}, {"type": "node", "id": 562705408, "lat": 51.9100242, "lon": -2.5894439, "tags": {"bus": "yes", "highway": "bus_stop", "name": "Ashfield Park School", "naptan:AtcoCode": "2090A121300", "naptan:Bearing": "SE", "naptan:BusStopType": "CUS", "naptan:CommonName": "Ashfield Park School", "naptan:Indicator": "adj", "naptan:Landmark": "Ashfield Park School", "naptan:NaptanCode": "heradtjt", "naptan:Street": "Ashfield Park Avenue", "naptan:verified": "no", "public_transport": "platform", "source": "naptan_import"}}, {"type": "node", "id": 562705412, "lat": 51.9177621, "lon": -2.5835605, "tags": {"bus": "yes", "highway": "bus_stop", "name": "Greytree Road", "naptan:AtcoCode": "2090A121400", "naptan:Bearing": "SE", "naptan:CommonName": "Greytree Road", "naptan:Indicator": "opp No 3", "naptan:Landmark": "N/K", "naptan:NaptanCode": "heradtjw", "naptan:Street": "Greytree Road", "naptan:verified": "no", "public_transport": "platform", "source": "naptan_import"}}, {"type": "node", "id": 562705417, "lat": 51.9222842, "lon": -2.5818305, "tags": {"bus": "yes", "highway": "bus_stop", "name": "Verschoyle Gardens", "naptan:AtcoCode": "2090A121500", "naptan:Bearing": "S", "naptan:CommonName": "Verschoyle Gardens", "naptan:Indicator": "opp", "naptan:Landmark": "Verschoyle Gardens", "naptan:NaptanCode": "heradtma", "naptan:Street": "Brampton Road", "naptan:verified": "no", "public_transport": "platform", "source": "naptan_import"}}, {"type": "node", "id": 562705421, "lat": 51.9229684, "lon": -2.5761826, "tags": {"bus": "yes", "highway": "bus_stop", "name": "John Kyrle High School", "naptan:AtcoCode": "2090A121600", "naptan:Bearing": "NE", "naptan:CommonName": "John Kyrle High School", "naptan:Indicator": "adj", "naptan:Landmark": "John Kyrle High School", "naptan:NaptanCode": "heradtmd", "naptan:Street": "Ledbury Road", "naptan:verified": "no", "public_transport": "platform", "shelter": "no", "source": "naptan_import"}}, {"type": "node", "id": 562705497, "lat": 51.9304599, "lon": -2.5609054, "tags": {"bus": "yes", "highway": "bus_stop", "name": "Traveller's Rest", "naptan:AtcoCode": "2090A124100", "naptan:Bearing": "E", "naptan:BusStopType": "CUS", "naptan:CommonName": "Traveller's Rest", "naptan:Indicator": "Eastbound", "naptan:Landmark": "Traveller's Rest", "naptan:NaptanCode": "heradtwt", "naptan:Street": "B4221", "naptan:verified": "no", "public_transport": "platform", "source": "naptan_import"}}, {"type": "node", "id": 562706966, "lat": 51.9178351, "lon": -2.6082069, "tags": {"bus": "yes", "highway": "bus_stop", "name": "Hoarwithy Turn", "naptan:AtcoCode": "2090A18460", "naptan:Bearing": "E", "naptan:CommonName": "Hoarwithy Turn", "naptan:Indicator": "adj", "naptan:Landmark": "N/K", "naptan:NaptanCode": "heragtdp", "naptan:Street": "A49 Ross Road", "naptan:verified": "no", "public_transport": "platform", "source": "naptan_import"}}, {"type": "node", "id": 562706973, "lat": 51.917589, "lon": -2.6053683, "tags": {"bus": "yes", "highway": "bus_stop", "name": "School", "naptan:AtcoCode": "2090A18462", "naptan:Bearing": "W", "naptan:CommonName": "School", "naptan:Indicator": "adj bus shelter", "naptan:Landmark": "Bus Shelter", "naptan:NaptanCode": "heragtdt", "naptan:Street": "A49 Hereford Road", "naptan:verified": "no", "public_transport": "platform", "source": "naptan_import"}}, {"type": "node", "id": 562706979, "lat": 51.9177601, "lon": -2.6053269, "tags": {"bus": "yes", "highway": "bus_stop", "name": "School", "naptan:AtcoCode": "2090A18464", "naptan:Bearing": "SE", "naptan:BusStopType": "CUS", "naptan:CommonName": "School", "naptan:Indicator": "adj", "naptan:Landmark": "War Memorial", "naptan:NaptanCode": "heragtdw", "naptan:Street": "A49 Ross Road", "naptan:verified": "no", "public_transport": "platform", "source": "naptan_import"}}, {"type": "node", "id": 562707016, "lat": 51.9141658, "lon": -2.5807665, "tags": {"bus": "yes", "highway": "bus_stop", "local_ref": "1", "name": "Cantilupe Road", "naptan:AtcoCode": "2090A18482", "naptan:Bearing": "SW", "naptan:CommonName": "Cantilupe Road", "naptan:Indicator": "Stand 1", "naptan:Landmark": "Opp Stagecoach Ofice", "naptan:NaptanCode": "heragtjd", "naptan:Street": "Cantilupe Road", "naptan:verified": "no", "public_transport": "platform", "source": "naptan_import"}}, {"type": "node", "id": 562707020, "lat": 51.9229166, "lon": -2.5760241, "tags": {"bus": "yes", "highway": "bus_stop", "name": "John Kyrle High School", "naptan:AtcoCode": "2090A18484", "naptan:Bearing": "SW", "naptan:BusStopType": "CUS", "naptan:CommonName": "John Kyrle High School", "naptan:Indicator": "opp", "naptan:Landmark": "John Kyrle High School", "naptan:NaptanCode": "heragtjg", "naptan:Street": "Ledbury Road", "naptan:verified": "no", "public_transport": "platform", "shelter": "no", "source": "naptan_import"}}, {"type": "node", "id": 562707221, "lat": 51.9057659, "lon": -2.5867653, "tags": {"bus": "yes", "highway": "bus_stop", "name": "Duxmere Drive", "naptan:AtcoCode": "2090A18556", "naptan:Bearing": "E", "naptan:BusStopType": "CUS", "naptan:CommonName": "Duxmere Drive", "naptan:Indicator": "adj", "naptan:Landmark": "Duxmere Drive", "naptan:NaptanCode": "heragwdj", "naptan:Street": "Roman Way", "naptan:verified": "no", "public_transport": "platform", "source": "naptan_import"}}, {"type": "node", "id": 562707228, "lat": 51.923492, "lon": -2.5769044, "tags": {"bus": "yes", "highway": "bus_stop", "name": "John Kyrle High School", "naptan:AtcoCode": "2090A18558", "naptan:Bearing": "E", "naptan:BusStopType": "CUS", "naptan:CommonName": "John Kyrle High School", "naptan:Indicator": "School turning circle", "naptan:Landmark": "John Kyrle High School", "naptan:NaptanCode": "heragwdm", "naptan:Street": "Three Crosses Road", "naptan:verified": "no", "public_transport": "platform", "shelter": "no"}}, {"type": "node", "id": 562707234, "lat": 51.9277024, "lon": -2.5727517, "tags": {"bus": "yes", "highway": "bus_stop", "name": "Ross Labels", "naptan:AtcoCode": "2090A18560", "naptan:Bearing": "S", "naptan:BusStopType": "CUS", "naptan:CommonName": "Ross Labels", "naptan:Indicator": "adj", "naptan:Landmark": "Overross roundabout (A40/A449)", "naptan:NaptanCode": "heragwdp", "naptan:Street": "Service Road", "naptan:verified": "no", "public_transport": "platform", "source": "naptan_import"}}, {"type": "node", "id": 562707238, "lat": 51.9225577, "lon": -2.5774279, "tags": {"bus": "yes", "highway": "bus_stop", "name": "Three Crosses Road", "naptan:AtcoCode": "2090A18562", "naptan:Bearing": "NE", "naptan:CommonName": "Three Crosses Road", "naptan:Indicator": "adj No 42", "naptan:Landmark": "No 42 Three Crosses Road", "naptan:NaptanCode": "heragwdt", "naptan:Street": "Three Crosses Road", "naptan:verified": "no", "public_transport": "platform", "source": "naptan_import"}}, {"type": "node", "id": 562707242, "lat": 51.9224778, "lon": -2.5772088, "tags": {"bus": "yes", "highway": "bus_stop", "name": "Three Crosses Road", "naptan:AtcoCode": "2090A18564", "naptan:Bearing": "SW", "naptan:BusStopType": "CUS", "naptan:CommonName": "Three Crosses Road", "naptan:Indicator": "opp No 42", "naptan:Landmark": "No 42", "naptan:NaptanCode": "heragwdw", "naptan:Street": "Three Crosses Road", "naptan:verified": "no", "public_transport": "platform", "source": "naptan_import"}}, {"type": "node", "id": 562707247, "lat": 51.9221755, "lon": -2.5820036, "tags": {"bus": "yes", "highway": "bus_stop", "name": "Verschoyle Gardens", "naptan:AtcoCode": "2090A18566", "naptan:Bearing": "N", "naptan:BusStopType": "CUS", "naptan:CommonName": "Verschoyle Gardens", "naptan:Indicator": "adj", "naptan:Landmark": "Verschoyle Gardens", "naptan:NaptanCode": "heragwga", "naptan:Street": "Brampton Road", "naptan:verified": "no", "public_transport": "platform", "source": "naptan_import"}}, {"type": "node", "id": 562707252, "lat": 51.9229162, "lon": -2.5870136, "tags": {"bus": "yes", "highway": "bus_stop", "name": "Fourth Avenue", "naptan:AtcoCode": "2090A18568", "naptan:Bearing": "NE", "naptan:CommonName": "Fourth Avenue", "naptan:Indicator": "adj", "naptan:Landmark": "Fourth Avenue", "naptan:NaptanCode": "heragwgd", "naptan:Street": "Wilton View", "naptan:verified": "no", "public_transport": "platform", "source": "naptan_import"}}, {"type": "node", "id": 562707257, "lat": 51.9228742, "lon": -2.5869898, "tags": {"bus": "yes", "highway": "bus_stop", "name": "Fourth Avenue", "naptan:AtcoCode": "2090A18570", "naptan:Bearing": "SW", "naptan:BusStopType": "CUS", "naptan:CommonName": "Fourth Avenue", "naptan:Indicator": "opp", "naptan:Landmark": "Fourth Avenue", "naptan:NaptanCode": "heragwgj", "naptan:Street": "Wilton View", "naptan:verified": "no", "public_transport": "platform", "source": "naptan_import"}}, {"type": "node", "id": 562707260, "lat": 51.9173384, "lon": -2.5825874, "tags": {"alt_name": "Fonteine Court", "bench": "no", "bin": "no", "bus": "yes", "highway": "bus_stop", "lit": "yes", "name": "Fonteine Court", "naptan:AltCommonName": "Fonteine Court", "naptan:AltStreet": "Not Specified", "naptan:AtcoCode": "2090A18573", "naptan:Bearing": "NW", "naptan:CommonName": "Fonteine Court", "naptan:Indicator": "opp No 2 Greytree Road", "naptan:Landmark": "Fonteine Court", "naptan:NaptanCode": "heragwgm", "naptan:Street": "Greytree Road", "naptan:verified": "no", "public_transport": "platform", "shelter": "no", "source": "naptan_import", "tactile_paving": "no"}}, {"type": "node", "id": 562707264, "lat": 51.9173123, "lon": -2.5817953, "tags": {"bench": "no", "bin": "no", "bus": "yes", "highway": "bus_stop", "lit": "yes", "name": "Five Ways", "naptan:AtcoCode": "2090A18575", "naptan:Bearing": "E", "naptan:CommonName": "Five Ways", "naptan:Indicator": "o/s No 2 Greytree Road", "naptan:Landmark": "opp Fonteine Court", "naptan:NaptanCode": "heragwgp", "naptan:Street": "Greytree Road", "naptan:verified": "no", "public_transport": "platform", "shelter": "no", "source": "naptan_import", "tactile_paving": "no"}}, {"type": "node", "id": 562707267, "lat": 51.9046036, "lon": -2.5934197, "tags": {"bus": "yes", "highway": "bus_stop", "name": "Watling Street", "naptan:AtcoCode": "2090A18577", "naptan:Bearing": "NW", "naptan:CommonName": "Watling Street", "naptan:Indicator": "adj", "naptan:Landmark": "Bakers Oak", "naptan:NaptanCode": "heragwgt", "naptan:Street": "Roman Way", "naptan:verified": "no", "public_transport": "platform", "source": "naptan_import"}}, {"type": "node", "id": 562707271, "lat": 51.9048549, "lon": -2.5935102, "tags": {"bus": "yes", "highway": "bus_stop", "name": "Watling Street", "naptan:AtcoCode": "2090A18579", "naptan:Bearing": "SE", "naptan:BusStopType": "CUS", "naptan:CommonName": "Watling Street", "naptan:Indicator": "adj Bakers Oak", "naptan:Landmark": "Bakers Oak", "naptan:NaptanCode": "heragwgw", "naptan:Street": "Roman Way", "naptan:verified": "no", "public_transport": "platform", "source": "naptan_import"}}, {"type": "node", "id": 562707275, "lat": 51.9034788, "lon": -2.5882302, "tags": {"bus": "yes", "highway": "bus_stop", "name": "Post Office", "naptan:AtcoCode": "2090A18581", "naptan:Bearing": "S", "naptan:BusStopType": "CUS", "naptan:CommonName": "Post Office", "naptan:Indicator": "adj", "naptan:Landmark": "Post Office", "naptan:NaptanCode": "heragwja", "naptan:Street": "Walford Road", "naptan:verified": "no", "public_transport": "platform", "source": "naptan_import"}}, {"type": "node", "id": 562707279, "lat": 51.9035317, "lon": -2.5884344, "tags": {"bus": "yes", "highway": "bus_stop", "name": "Post Office", "naptan:AtcoCode": "2090A18583", "naptan:Bearing": "NE", "naptan:BusStopType": "CUS", "naptan:CommonName": "Post Office", "naptan:Indicator": "opp", "naptan:Landmark": "Post Office", "naptan:NaptanCode": "heragwjd", "naptan:Street": "Walford Road", "naptan:verified": "no", "public_transport": "platform", "source": "naptan_import"}}, {"type": "node", "id": 562707282, "lat": 51.9057267, "lon": -2.585456, "tags": {"bus": "yes", "highway": "bus_stop", "name": "Fernbank Road", "naptan:AtcoCode": "2090A18585", "naptan:Bearing": "E", "naptan:BusStopType": "CUS", "naptan:CommonName": "Fernbank Road", "naptan:Indicator": "Ross bound", "naptan:Landmark": "Walford Road", "naptan:NaptanCode": "heragwjg", "naptan:Street": "Eastfield Road", "naptan:verified": "no", "public_transport": "platform", "source": "naptan_import"}}, {"type": "node", "id": 562707286, "lat": 51.9108105, "lon": -2.5802415, "tags": {"bus": "yes", "highway": "bus_stop", "local_ref": "NK", "name": "Merrivale Lane", "naptan:AtcoCode": "2090A18587", "naptan:Bearing": "N", "naptan:BusStopType": "CUS", "naptan:CommonName": "Merrivale Lane", "naptan:Indicator": "NK", "naptan:Landmark": "Alton Street", "naptan:NaptanCode": "heragwjm", "naptan:Street": "Merrivale Lane", "naptan:verified": "no", "public_transport": "platform", "source": "naptan_import"}}, {"type": "node", "id": 562707289, "lat": 51.9137973, "lon": -2.5725032, "tags": {"bus": "yes", "highway": "bus_stop", "name": "Wolf Business Park", "naptan:AtcoCode": "2090A18589", "naptan:Bearing": "NE", "naptan:BusStopType": "CUS", "naptan:CommonName": "Wolf Business Park", "naptan:Indicator": "opp", "naptan:Landmark": "Wolf Business Park", "naptan:NaptanCode": "heragwjp", "naptan:Street": "Alton Road", "naptan:verified": "no", "public_transport": "platform", "source": "naptan_import"}}, {"type": "node", "id": 562707850, "lat": 51.9152404, "lon": -2.5752695, "tags": {"bus": "yes", "highway": "bus_stop", "name": "Ryefield Centre", "naptan:AtcoCode": "2090A18965", "naptan:Bearing": "E", "naptan:BusStopType": "CUS", "naptan:CommonName": "Ryefield Centre", "naptan:Indicator": "adj", "naptan:Landmark": "Ryefield Centre", "naptan:NaptanCode": "herajmgd", "naptan:Street": "Grammar School Close", "naptan:verified": "no", "public_transport": "platform", "source": "naptan_import"}}, {"type": "node", "id": 562708007, "lat": 51.9303067, "lon": -2.5609762, "tags": {"bus": "yes", "highway": "bus_stop", "name": "Traveller's Rest", "naptan:AtcoCode": "2090A19037", "naptan:Bearing": "W", "naptan:BusStopType": "CUS", "naptan:CommonName": "Traveller's Rest", "naptan:Indicator": "Westbound", "naptan:Landmark": "Traveller's Rest", "naptan:NaptanCode": "herajpad", "naptan:Street": "B4221", "naptan:verified": "no", "public_transport": "platform", "source": "naptan_import"}}, {"type": "node", "id": 562709904, "lat": 51.9193851, "lon": -2.6121231, "tags": {"bus": "yes", "highway": "bus_stop", "name": "Telephone Box", "naptan:AtcoCode": "2090A20014", "naptan:Bearing": "S", "naptan:CommonName": "Telephone Box", "naptan:Indicator": "opp", "naptan:Landmark": "Telephone Box", "naptan:NaptanCode": "heramwad", "naptan:Street": "N/K", "naptan:verified": "no", "public_transport": "platform", "source": "naptan_import"}}, {"type": "node", "id": 562709908, "lat": 51.9192528, "lon": -2.6121726, "tags": {"bus": "yes", "highway": "bus_stop", "name": "Telephone Box", "naptan:AtcoCode": "2090A20016", "naptan:Bearing": "N", "naptan:BusStopType": "CUS", "naptan:CommonName": "Telephone Box", "naptan:Indicator": "adj", "naptan:Landmark": "Telephone Box", "naptan:NaptanCode": "heramwag", "naptan:Street": "N/K", "naptan:verified": "no", "public_transport": "platform", "source": "naptan_import"}}, {"type": "node", "id": 562709948, "lat": 51.9155776, "lon": -2.5792296, "tags": {"alt_name": "Morrisons Store", "bus": "yes", "highway": "bus_stop", "name": "Station Street", "naptan:AltCommonName": "Morrisons Store", "naptan:AltStreet": "Not Specified", "naptan:AtcoCode": "2090A20032", "naptan:Bearing": "W", "naptan:CommonName": "Station Street", "naptan:Indicator": "opp Morrisons Store", "naptan:Landmark": "Morrisons Store", "naptan:NaptanCode": "heramwdm", "naptan:Street": "Station Street", "naptan:verified": "no", "public_transport": "platform", "source": "naptan_import"}}, {"type": "node", "id": 562709952, "lat": 51.9156885, "lon": -2.5792299, "tags": {"alt_name": "Morrisons Store", "bus": "yes", "highway": "bus_stop", "name": "Station Street", "naptan:AltCommonName": "Morrisons Store", "naptan:AltStreet": "Not Specified", "naptan:AtcoCode": "2090A20034", "naptan:Bearing": "E", "naptan:CommonName": "Station Street", "naptan:Indicator": "adj Morrisons Store", "naptan:Landmark": "Morrisons Store", "naptan:NaptanCode": "heramwdp", "naptan:Street": "Station Street", "naptan:verified": "no", "public_transport": "platform", "source": "naptan_import"}}, {"type": "node", "id": 562709956, "lat": 51.922484, "lon": -2.5883646, "tags": {"bus": "yes", "highway": "bus_stop", "name": "Sixth Avenue", "naptan:AtcoCode": "2090A20037", "naptan:Bearing": "NE", "naptan:CommonName": "Sixth Avenue", "naptan:Indicator": "adj", "naptan:Landmark": "Sixth Avenue", "naptan:NaptanCode": "heramwdt", "naptan:Street": "Wilton View", "naptan:verified": "no", "public_transport": "platform", "source": "naptan_import"}}, {"type": "node", "id": 562709960, "lat": 51.9224526, "lon": -2.5883288, "tags": {"bus": "yes", "highway": "bus_stop", "name": "Sixth Avenue", "naptan:AtcoCode": "2090A20039", "naptan:Bearing": "SW", "naptan:BusStopType": "CUS", "naptan:CommonName": "Sixth Avenue", "naptan:Indicator": "opp", "naptan:Landmark": "Sixth Avenue", "naptan:NaptanCode": "heramwdw", "naptan:Street": "Wilton View", "naptan:verified": "no", "public_transport": "platform", "source": "naptan_import"}}, {"type": "node", "id": 562709963, "lat": 51.9236823, "lon": -2.5842785, "tags": {"bus": "yes", "highway": "bus_stop", "name": "Second Avenue", "naptan:AtcoCode": "2090A20041", "naptan:Bearing": "NE", "naptan:CommonName": "Second Avenue", "naptan:Indicator": "adj", "naptan:Landmark": "Second Avenue", "naptan:NaptanCode": "heramwga", "naptan:Street": "Wilton View", "naptan:verified": "no", "public_transport": "platform", "source": "naptan_import"}}, {"type": "node", "id": 562709966, "lat": 51.9235581, "lon": -2.5842173, "tags": {"bus": "yes", "highway": "bus_stop", "name": "Second Avenue", "naptan:AtcoCode": "2090A20043", "naptan:Bearing": "SW", "naptan:BusStopType": "CUS", "naptan:CommonName": "Second Avenue", "naptan:Indicator": "opp", "naptan:Landmark": "Second Avenue", "naptan:NaptanCode": "heramwgd", "naptan:Street": "Wilton View", "naptan:verified": "no", "public_transport": "platform", "source": "naptan_import"}}, {"type": "node", "id": 562709970, "lat": 51.9206144, "lon": -2.5776647, "tags": {"bus": "yes", "highway": "bus_stop", "name": "Court Road", "naptan:AtcoCode": "2090A20045", "naptan:Bearing": "SW", "naptan:CommonName": "Court Road", "naptan:Indicator": "adj Checkley Close", "naptan:Landmark": "Checkley Close", "naptan:NaptanCode": "heramwgj", "naptan:Street": "Ledbury Road", "naptan:verified": "no", "public_transport": "platform", "source": "naptan_import"}}, {"type": "node", "id": 562709972, "lat": 51.9209378, "lon": -2.5777217, "tags": {"bus": "yes", "highway": "bus_stop", "name": "Court Road", "naptan:AtcoCode": "2090A20047", "naptan:Bearing": "NE", "naptan:CommonName": "Court Road", "naptan:Indicator": "opp Rudhall Close", "naptan:Landmark": "Rudhall Close", "naptan:NaptanCode": "heramwgm", "naptan:Street": "Ledbury Road", "naptan:verified": "no", "public_transport": "platform", "shelter": "no", "source": "naptan_import"}}, {"type": "node", "id": 562709975, "lat": 51.9151287, "lon": -2.5858042, "tags": {"bench": "yes", "bin": "yes", "bus": "yes", "highway": "bus_stop", "lit": "yes", "name": "Edde Cross Street", "naptan:AtcoCode": "2090A20052", "naptan:Bearing": "S", "naptan:CommonName": "Edde Cross Street", "naptan:Indicator": "adj Swan Court", "naptan:Landmark": "Swan Court Flats", "naptan:NaptanCode": "heramwgp", "naptan:Street": "Edde Cross Street", "naptan:verified": "no", "public_transport": "platform", "shelter": "yes", "source": "naptan_import", "tactile_paving": "no"}}, {"type": "node", "id": 562709978, "lat": 51.9152673, "lon": -2.5859049, "tags": {"bench": "no", "bin": "no", "bus": "yes", "highway": "bus_stop", "lit": "yes", "name": "Edde Cross Street", "naptan:AtcoCode": "2090A20054", "naptan:Bearing": "N", "naptan:BusStopType": "CUS", "naptan:CommonName": "Edde Cross Street", "naptan:Indicator": "opp Swan Court", "naptan:Landmark": "Swan Court Flats", "naptan:NaptanCode": "heramwgt", "naptan:Street": "Edde Cross Street", "naptan:verified": "no", "public_transport": "platform", "shelter": "no", "source": "naptan_import", "tactile_paving": "no"}}, {"type": "node", "id": 562709981, "lat": 51.9129015, "lon": -2.5918426, "tags": {"bus": "yes", "highway": "bus_stop", "name": "Wilton Road", "naptan:AtcoCode": "2090A20056", "naptan:Bearing": "SE", "naptan:CommonName": "Wilton Road", "naptan:Indicator": "adj junction with Wye Street", "naptan:Landmark": "Ross Town Sign", "naptan:NaptanCode": "heramwgw", "naptan:Street": "Wilton Road", "naptan:verified": "no", "public_transport": "platform", "source": "naptan_import"}}, {"type": "node", "id": 562709984, "lat": 51.9154037, "lon": -2.598802, "tags": {"bus": "yes", "highway": "bus_stop", "name": "Wilton", "naptan:AtcoCode": "2090A20058", "naptan:Bearing": "NW", "naptan:CommonName": "Wilton", "naptan:Indicator": "adj Wilton Lane", "naptan:Landmark": "Wilton Lane", "naptan:NaptanCode": "heramwja", "naptan:Street": "Wilton Road", "naptan:verified": "no", "public_transport": "platform", "source": "naptan_import"}}, {"type": "node", "id": 562709989, "lat": 51.9155485, "lon": -2.5989333, "tags": {"bus": "yes", "highway": "bus_stop", "name": "Wilton", "naptan:AtcoCode": "2090A20060", "naptan:Bearing": "SE", "naptan:CommonName": "Wilton", "naptan:Indicator": "opp Wilton Lane", "naptan:Landmark": "Wilton Lane", "naptan:NaptanCode": "heramwjd", "naptan:Street": "Wilton Road", "naptan:verified": "no", "public_transport": "platform", "source": "naptan_import"}}, {"type": "node", "id": 562709996, "lat": 51.8972499, "lon": -2.589569, "tags": {"highway": "bus_stop", "name": "Purland Chase", "naptan:AtcoCode": "2090A20064", "naptan:Bearing": "N", "naptan:CommonName": "Purland Chase", "naptan:Indicator": "opp", "naptan:Landmark": "entrance to Purland Chase", "naptan:NaptanCode": "heramwjm", "naptan:Street": "B4234", "naptan:verified": "no", "source": "naptan_import"}}, {"type": "node", "id": 562710000, "lat": 51.8971791, "lon": -2.5893978, "tags": {"highway": "bus_stop", "name": "Purland Chase", "naptan:AtcoCode": "2090A20066", "naptan:Bearing": "S", "naptan:BusStopType": "CUS", "naptan:CommonName": "Purland Chase", "naptan:Indicator": "adj", "naptan:Landmark": "entrance to Purland Chase", "naptan:NaptanCode": "heramwjp", "naptan:Street": "B4234", "naptan:verified": "no", "source": "naptan_import"}}, {"type": "node", "id": 562710059, "lat": 51.9104362, "lon": -2.5861162, "tags": {"bus": "yes", "highway": "bus_stop", "name": "Prince of Wales PH", "naptan:AtcoCode": "2090A20097", "naptan:Bearing": "SW", "naptan:CommonName": "Prince of Wales PH", "naptan:Indicator": "adj", "naptan:Landmark": "Prince of Wales PH", "naptan:NaptanCode": "heramwpt", "naptan:Street": "Archenfield", "naptan:verified": "no", "public_transport": "platform", "source": "naptan_import"}}, {"type": "node", "id": 562710062, "lat": 51.9104569, "lon": -2.5862425, "tags": {"bus": "yes", "highway": "bus_stop", "name": "Prince of Wales PH", "naptan:AtcoCode": "2090A20099", "naptan:Bearing": "NE", "naptan:BusStopType": "CUS", "naptan:CommonName": "Prince of Wales PH", "naptan:Indicator": "opp", "naptan:Landmark": "Prince of Wales", "naptan:NaptanCode": "heramwpw", "naptan:Street": "Archenfield Road", "naptan:verified": "no", "public_transport": "platform", "source": "naptan_import"}}, {"type": "node", "id": 562710067, "lat": 51.9075015, "lon": -2.5928909, "tags": {"bus": "yes", "highway": "bus_stop", "name": "Firs Road", "naptan:AtcoCode": "2090A20101", "naptan:Bearing": "SW", "naptan:CommonName": "Firs Road", "naptan:Indicator": "adj", "naptan:Landmark": "Firs Road", "naptan:NaptanCode": "heramwta", "naptan:Street": "Archenfield Road", "naptan:verified": "no", "public_transport": "platform", "source": "naptan_import"}}, {"type": "node", "id": 562710071, "lat": 51.9075906, "lon": -2.5930375, "tags": {"bus": "yes", "highway": "bus_stop", "name": "Firs Road", "naptan:AtcoCode": "2090A20103", "naptan:Bearing": "NE", "naptan:BusStopType": "CUS", "naptan:CommonName": "Firs Road", "naptan:Indicator": "opp", "naptan:Landmark": "Firs Road", "naptan:NaptanCode": "heramwtd", "naptan:Street": "Archenfield Road", "naptan:verified": "no", "public_transport": "platform", "source": "naptan_import"}}, {"type": "node", "id": 562710074, "lat": 51.9056351, "lon": -2.5957009, "tags": {"bus": "yes", "highway": "bus_stop", "name": "Lincoln Close", "naptan:AtcoCode": "2090A20105", "naptan:Bearing": "NW", "naptan:CommonName": "Lincoln Close", "naptan:Indicator": "adj", "naptan:Landmark": "Lincoln Close", "naptan:NaptanCode": "heramwtg", "naptan:Street": "Roman Way", "naptan:verified": "no", "public_transport": "platform", "source": "naptan_import"}}, {"type": "node", "id": 562710077, "lat": 51.9056991, "lon": -2.5954982, "tags": {"bus": "yes", "highway": "bus_stop", "name": "Lincoln Close", "naptan:AtcoCode": "2090A20110", "naptan:Bearing": "SE", "naptan:BusStopType": "CUS", "naptan:CommonName": "Lincoln Close", "naptan:Indicator": "opp", "naptan:Landmark": "Lincoln Close", "naptan:NaptanCode": "heramwtj", "naptan:Street": "Roman Way", "naptan:verified": "no", "public_transport": "platform", "source": "naptan_import"}}, {"type": "node", "id": 562710080, "lat": 51.9052403, "lon": -2.5901865, "tags": {"bus": "yes", "highway": "bus_stop", "name": "Duxmere Drive", "naptan:AtcoCode": "2090A20112", "naptan:Bearing": "NE", "naptan:CommonName": "Duxmere Drive", "naptan:Indicator": "adj", "naptan:Landmark": "Duxmere Drive", "naptan:NaptanCode": "heramwtm", "naptan:Street": "Roman Way", "naptan:verified": "no", "public_transport": "platform", "source": "naptan_import"}}, {"type": "node", "id": 562710084, "lat": 51.9051878, "lon": -2.5898951, "tags": {"bus": "yes", "highway": "bus_stop", "name": "Duxmere Drive", "naptan:AtcoCode": "2090A20114", "naptan:Bearing": "SW", "naptan:BusStopType": "CUS", "naptan:CommonName": "Duxmere Drive", "naptan:Indicator": "opp", "naptan:Landmark": "Duxmere Drive", "naptan:NaptanCode": "heramwtp", "naptan:Street": "Roman Way", "naptan:verified": "no", "public_transport": "platform", "source": "naptan_import"}}, {"type": "node", "id": 562710088, "lat": 51.9118661, "lon": -2.5849233, "tags": {"bus": "yes", "highway": "bus_stop", "name": "Church", "naptan:AtcoCode": "2090A20116", "naptan:Bearing": "N", "naptan:CommonName": "Church", "naptan:Indicator": "opp", "naptan:Landmark": "Church Hall", "naptan:NaptanCode": "heramwtw", "naptan:Street": "Copse Cross Street", "naptan:verified": "no", "public_transport": "platform", "source": "naptan_import"}}, {"type": "node", "id": 562710092, "lat": 51.9251375, "lon": -2.5738836, "tags": {"bus": "yes", "highway": "bus_stop", "name": "Overross Farm", "naptan:AtcoCode": "2090A20118", "naptan:Bearing": "SW", "naptan:CommonName": "Overross Farm", "naptan:Indicator": "adj", "naptan:Landmark": "NK", "naptan:NaptanCode": "herapada", "naptan:Street": "Ledbury Road", "naptan:verified": "no", "public_transport": "platform", "source": "naptan_import"}}, {"type": "node", "id": 562710095, "lat": 51.9253081, "lon": -2.5740472, "tags": {"bus": "yes", "highway": "bus_stop", "name": "Overross Farm", "naptan:AtcoCode": "2090A20120", "naptan:Bearing": "NE", "naptan:BusStopType": "CUS", "naptan:CommonName": "Overross Farm", "naptan:Indicator": "opp", "naptan:Landmark": "Overross Farm", "naptan:NaptanCode": "herapadg", "naptan:Street": "Ledbury Road", "naptan:verified": "no", "public_transport": "platform", "source": "naptan_import"}}, {"type": "node", "id": 562710730, "lat": 51.9107548, "lon": -2.5800052, "tags": {"bus": "yes", "highway": "bus_stop", "local_ref": "NK", "name": "Merrivale Lane", "naptan:AtcoCode": "2090A20441", "naptan:Bearing": "S", "naptan:BusStopType": "CUS", "naptan:CommonName": "Merrivale Lane", "naptan:Indicator": "NK", "naptan:Landmark": "Alton Street", "naptan:NaptanCode": "herapjaw", "naptan:Street": "Merrivale Lane", "naptan:verified": "no", "public_transport": "platform", "source": "naptan_import"}}, {"type": "node", "id": 562710918, "lat": 51.9176931, "lon": -2.5811459, "tags": {"bus": "yes", "highway": "bus_stop", "name": "Five Ways", "naptan:AtcoCode": "2090A20652", "naptan:Bearing": "S", "naptan:BusStopType": "CUS", "naptan:CommonName": "Five Ways", "naptan:Indicator": "opp Church", "naptan:Landmark": "N/K", "naptan:NaptanCode": "herapjwj", "naptan:Street": "Brampton Street", "naptan:verified": "no", "public_transport": "platform", "source": "naptan_import"}}, {"type": "node", "id": 562710922, "lat": 51.917692, "lon": -2.5813786, "tags": {"bus": "yes", "highway": "bus_stop", "name": "Five Ways", "naptan:AtcoCode": "2090A20654", "naptan:Bearing": "N", "naptan:BusStopType": "CUS", "naptan:CommonName": "Five Ways", "naptan:Indicator": "adj Church", "naptan:Landmark": "N/K", "naptan:NaptanCode": "herapjwm", "naptan:Street": "Brampton Street", "naptan:verified": "no", "public_transport": "platform", "source": "naptan_import"}}, {"type": "node", "id": 562711130, "lat": 51.9141472, "lon": -2.574514, "tags": {"bus": "yes", "highway": "bus_stop", "name": "Camp Road", "naptan:AtcoCode": "2090A20980", "naptan:Bearing": "E", "naptan:CommonName": "Camp Road", "naptan:Indicator": "opp", "naptan:Landmark": "N/K", "naptan:NaptanCode": "herapwmt", "naptan:Street": "Gloucester Road", "naptan:verified": "no", "public_transport": "platform", "source": "naptan_import"}}, {"type": "node", "id": 562711135, "lat": 51.9141591, "lon": -2.5739023, "tags": {"bus": "yes", "highway": "bus_stop", "name": "Camp Road", "naptan:AtcoCode": "2090A20982", "naptan:Bearing": "W", "naptan:CommonName": "Camp Road", "naptan:Indicator": "adj", "naptan:Landmark": "Camp Road", "naptan:NaptanCode": "herapwmw", "naptan:Street": "Gloucester Road", "naptan:verified": "no", "public_transport": "platform", "source": "naptan_import"}}, {"type": "node", "id": 562711139, "lat": 51.9138062, "lon": -2.568159, "tags": {"bus": "yes", "highway": "bus_stop", "name": "Fire Station", "naptan:AtcoCode": "2090A20984", "naptan:Bearing": "E", "naptan:CommonName": "Fire Station", "naptan:Indicator": "opp", "naptan:Landmark": "Fire Station", "naptan:NaptanCode": "herapwpa", "naptan:Street": "A40", "naptan:verified": "no", "public_transport": "platform", "source": "naptan_import"}}, {"type": "node", "id": 562711142, "lat": 51.913857, "lon": -2.5676044, "tags": {"bus": "yes", "highway": "bus_stop", "name": "Fire Station", "naptan:AtcoCode": "2090A20986", "naptan:Bearing": "W", "naptan:CommonName": "Fire Station", "naptan:Indicator": "adj", "naptan:Landmark": "Fire Station", "naptan:NaptanCode": "herapwpd", "naptan:Street": "A40", "naptan:verified": "no", "public_transport": "platform", "source": "naptan_import"}}, {"type": "node", "id": 562711145, "lat": 51.9128577, "lon": -2.5622562, "tags": {"bus": "yes", "highway": "bus_stop", "name": "Hildersley Farm", "naptan:AtcoCode": "2090A20988", "naptan:Bearing": "E", "naptan:CommonName": "Hildersley Farm", "naptan:Indicator": "opp", "naptan:Landmark": "Hildersley Farm", "naptan:NaptanCode": "herapwpg", "naptan:Street": "A40", "naptan:verified": "no", "public_transport": "platform", "source": "naptan_import"}}, {"type": "node", "id": 562711148, "lat": 51.9211231, "lon": -2.5802741, "tags": {"bus": "yes", "highway": "bus_stop", "name": "Three Crosses Close", "naptan:AtcoCode": "2090A20990", "naptan:Bearing": "E", "naptan:CommonName": "Three Crosses Close", "naptan:Indicator": "adj", "naptan:Landmark": "Three Crosses Close", "naptan:NaptanCode": "herapmtm", "naptan:Street": "Three Crosses Road", "naptan:verified": "no", "public_transport": "platform", "source": "naptan_import"}}, {"type": "node", "id": 562711151, "lat": 51.9209883, "lon": -2.5802579, "tags": {"bus": "yes", "highway": "bus_stop", "name": "Three Crosses Close", "naptan:AtcoCode": "2090A20992", "naptan:Bearing": "W", "naptan:BusStopType": "CUS", "naptan:CommonName": "Three Crosses Close", "naptan:Indicator": "opp", "naptan:Landmark": "Three Crosses Close", "naptan:NaptanCode": "herapmtp", "naptan:Street": "Three Crosses Road", "naptan:verified": "no", "public_transport": "platform", "source": "naptan_import"}}, {"type": "node", "id": 562711155, "lat": 51.9128208, "lon": -2.5625793, "tags": {"bus": "yes", "highway": "bus_stop", "name": "Hildersley Farm", "naptan:AtcoCode": "2090A20994", "naptan:Bearing": "W", "naptan:BusStopType": "CUS", "naptan:CommonName": "Hildersley Farm", "naptan:Indicator": "adj", "naptan:Landmark": "Hildersley Farm", "naptan:NaptanCode": "herapwpj", "naptan:Street": "A40", "naptan:verified": "no", "public_transport": "platform", "source": "naptan_import"}}, {"type": "node", "id": 7261072885, "lat": 51.927901, "lon": -2.5702472, "tags": {"bus": "yes", "departures_board": "timetable", "highway": "bus_stop", "name": "Ross Labels", "network": "Stagecoach West", "network:wikidata": "Q7596870", "notes": "Number 32 bus Ross to Gloucester", "operator": "Stagecoach West", "public_transport": "platform", "shelter": "no", "source": "survey"}}, {"type": "node", "id": 9089430977, "lat": 51.9221671, "lon": -2.5742636, "tags": {"bus": "yes", "highway": "bus_stop", "name": "Court Road", "public_transport": "platform"}}, {"type": "node", "id": 9089430978, "lat": 51.9215224, "lon": -2.5760038, "tags": {"bus": "yes", "highway": "bus_stop", "name": "Court Road", "public_transport": "platform"}}]}