{"version": 0.6, "generator": "Overpass API 0.7.62.10 2d4cfc48", "osm3s": {"timestamp_osm_base": "2026-03-01T06:02:45Z", "copyright": "The data included in this document is from www.openstreetmap.org. The data is made available under ODbL."}, "elements": [{"type": "node", "id": 321323212, "lat": 50.7301862, "lon": -2.7352757}, {"type": "node", "id": 3012524417, "lat": 50.7322056, "lon": -2.7603191, "tags": {"addr:place": "Gundry Lane", "addr:postcode": "DT6 3RL", "amenity": "community_centre", "name": "Bridport Youth and Community Centre", "opening_hours": "Mo-Su 07:15-23:45", "website": "https://bridportycc.com/"}}, {"type": "node", "id": 4682343688, "lat": 50.7237255, "lon": -2.7499211}, {"type": "node", "id": 4682343689, "lat": 50.7236932, "lon": -2.7498165}, {"type": "node", "id": 4682343690, "lat": 50.7235183, "lon": -2.7499318}, {"type": "node", "id": 4682343691, "lat": 50.7235472, "lon": -2.7500471}, {"type": "node", "id": 8892336547, "lat": 50.7302992, "lon": -2.7355144}, {"type": "node", "id": 8892336548, "lat": 50.7302413, "lon": -2.7354977}, {"type": "node", "id": 8892336549, "lat": 50.7302423, "lon": -2.7354898}, {"type": "node", "id": 8892336550, "lat": 50.7302102, "lon": -2.7354805}, {"type": "node", "id": 8892336551, "lat": 50.7302093, "lon": -2.7354882}, {"type": "node", "id": 8892336552, "lat": 50.7301631, "lon": -2.7354748}, {"type": "node", "id": 8892336553, "lat": 50.7303322, "lon": -2.7353179}, {"type": "node", "id": 8892336554, "lat": 50.730325, "lon": -2.7353806}, {"type": "node", "id": 8892336555, "lat": 50.730315, "lon": -2.7353777}, {"type": "node", "id": 8892336556, "lat": 50.7302485, "lon": -2.7354998, "tags": {"defibrillator:location": "outside Walditch Village Hall, Walditch Road, Walditch - to left of entrance", "emergency": "defibrillator", "indoor": "no"}}, {"type": "node", "id": 8892336557, "lat": 50.7302275, "lon": -2.7354855, "tags": {"entrance": "yes"}}, {"type": "node", "id": 13017872103, "lat": 50.723709, "lon": -2.7498676, "tags": {"entrance": "yes"}}, {"type": "node", "id": 13017872104, "lat": 50.723719, "lon": -2.7499, "tags": {"access": "yes", "defibrillator:location": "outside Bothenhampton Village Hall", "emergency": "defibrillator", "indoor": "no"}}, {"type": "node", "id": 13056537001, "lat": 50.7334002, "lon": -2.7554351, "tags": {"addr:housenumber": "51", "addr:postcode": "DT6 3JX", "addr:street": "East Street", "amenity": "community_centre", "email": "mail@bridportadt.org.uk", "opening_hours": "Mo-Fr 09:00-17:00", "website": "https://www.bridportadt.org.uk/literary-and-scientific-institute/"}}, {"type": "node", "id": 13517117702, "lat": 50.7303117, "lon": -2.7354066}, {"type": "way", "id": 474232771, "nodes": [4682343688, 13017872104, 13017872103, 4682343689, 4682343690, 4682343691, 4682343688], "tags": {"addr:city": "Bothenhampton", "addr:street": "Main Street", "amenity": "community_centre", "building": "public", "community_centre": "village_hall", "name": "Bothenhampton Village Hall", "opening_hours": "\"open for events and classes\""}}, {"type": "way", "id": 961284878, "nodes": [8892336547, 8892336556, 8892336548, 8892336549, 8892336557, 8892336550, 8892336551, 8892336552, 321323212, 8892336553, 8892336554, 8892336555, 13517117702, 8892336547], "tags": {"addr:city": "Walditch", "addr:street": "Walditch Road", "amenity": "community_centre", "building": "public", "community_centre": "village_hall", "name": "Walditch Village Hall"}}]}