{"version": 0.6, "generator": "Overpass API 0.7.62.10 2d4cfc48", "osm3s": {"timestamp_osm_base": "2026-03-01T06:23:12Z", "copyright": "The data included in this document is from www.openstreetmap.org. The data is made available under ODbL."}, "elements": [{"type": "node", "id": 502321908, "lat": 52.654062, "lon": -0.4771344, "tags": {"bus": "yes", "highway": "bus_stop", "name": "Recreation Ground Road", "naptan:AtcoCode": "270000008961", "naptan:Bearing": "SW", "naptan:CommonName": "Recreation Ground Road", "naptan:Indicator": "opp", "naptan:Landmark": "Recreation Ground Road", "naptan:NaptanCode": "lingwjpj", "naptan:Street": "East Street", "naptan:verified": "no", "public_transport": "platform", "source": "naptan_import"}}, {"type": "node", "id": 502321909, "lat": 52.6546818, "lon": -0.4715095, "tags": {"bus": "yes", "highway": "bus_stop", "name": "Stamford School", "naptan:AtcoCode": "270000008962", "naptan:Bearing": "SW", "naptan:CommonName": "Stamford School", "naptan:Indicator": "opp", "naptan:Landmark": "Stamford School", "naptan:NaptanCode": "lingwjpm", "naptan:Street": "St Paul's Street", "naptan:verified": "no", "public_transport": "platform", "source": "naptan_import", "wheelchair": "yes"}}, {"type": "node", "id": 502321912, "lat": 52.6479638, "lon": -0.4769472, "tags": {"bus": "yes", "highway": "bus_stop", "name": "High School", "naptan:AtcoCode": "270000008963", "naptan:Bearing": "NW", "naptan:CommonName": "High School", "naptan:Indicator": "opp", "naptan:Landmark": "High School", "naptan:NaptanCode": "lingwjpt", "naptan:Street": "High Street St Martin's", "naptan:verified": "no", "public_transport": "platform", "source": "naptan_import", "wheelchair": "yes"}}, {"type": "node", "id": 502321916, "lat": 52.6496883, "lon": -0.4698358, "tags": {"bus": "yes", "highway": "bus_stop", "name": "Abbot's Close", "naptan:AtcoCode": "270000008964", "naptan:Bearing": "NE", "naptan:CommonName": "Abbot's Close", "naptan:Indicator": "adj", "naptan:Landmark": "Abbot's Close", "naptan:NaptanCode": "lingwjpw", "naptan:Street": "Barnack Road", "naptan:verified": "no", "public_transport": "platform", "source": "naptan_import", "wheelchair": "yes"}}, {"type": "node", "id": 502321920, "lat": 52.6495977, "lon": -0.4697799, "tags": {"bus": "yes", "highway": "bus_stop", "name": "Abbot's Close", "naptan:AtcoCode": "270000008965", "naptan:Bearing": "SW", "naptan:CommonName": "Abbot's Close", "naptan:Indicator": "opp", "naptan:Landmark": "Abbot's Close", "naptan:NaptanCode": "lingwjta", "naptan:Street": "Barnack Road", "naptan:verified": "no", "public_transport": "platform", "source": "naptan_import", "wheelchair": "yes"}}, {"type": "node", "id": 502321925, "lat": 52.6557209, "lon": -0.4691225, "tags": {"bus": "yes", "highway": "bus_stop", "name": "Ryhall Road", "naptan:AtcoCode": "270000008966", "naptan:Bearing": "SW", "naptan:CommonName": "Ryhall Road", "naptan:Indicator": "o/s", "naptan:Landmark": "Stamford & Rutland Hospital", "naptan:NaptanCode": "lingwjtd", "naptan:Street": "Ryhall Road", "naptan:verified": "no", "public_transport": "platform", "source": "naptan_import", "wheelchair": "yes"}}, {"type": "node", "id": 502321929, "lat": 52.6612468, "lon": -0.4660755, "tags": {"bus": "yes", "highway": "bus_stop", "name": "Rutland Road", "naptan:AtcoCode": "270000008967", "naptan:Bearing": "S", "naptan:CommonName": "Rutland Road", "naptan:Indicator": "opp", "naptan:Landmark": "Rutland Road", "naptan:NaptanCode": "lingwjtg", "naptan:Street": "Ryhall Road", "naptan:verified": "no", "public_transport": "platform", "source": "naptan_import", "wheelchair": "yes"}}, {"type": "node", "id": 502321933, "lat": 52.6601367, "lon": -0.474099, "tags": {"bus": "yes", "highway": "bus_stop", "name": "Kesteven Road", "naptan:AtcoCode": "270000008968", "naptan:Bearing": "W", "naptan:CommonName": "Kesteven Road", "naptan:Indicator": "W - bound", "naptan:Landmark": "Kesteven Road", "naptan:NaptanCode": "lingwjtj", "naptan:Street": "Lincoln Road", "naptan:verified": "no", "public_transport": "platform", "source": "naptan_import"}}, {"type": "node", "id": 502321938, "lat": 52.6627312, "lon": -0.4871249, "tags": {"bus": "yes", "highway": "bus_stop", "name": "Selwyn Road", "naptan:AtcoCode": "270000008969", "naptan:Bearing": "NE", "naptan:CommonName": "Selwyn Road", "naptan:Indicator": "opp", "naptan:Landmark": "Selwyn Road", "naptan:NaptanCode": "lingwjtm", "naptan:Street": "Churchill Road", "naptan:verified": "no", "public_transport": "platform", "source": "naptan_import", "wheelchair": "yes"}}, {"type": "node", "id": 502321942, "lat": 52.6606384, "lon": -0.4872859, "tags": {"bus": "yes", "highway": "bus_stop", "local_ref": "NW", "name": "Charles Road", "naptan:AtcoCode": "270000008970", "naptan:Bearing": "NW", "naptan:BusStopType": "CUS", "naptan:CommonName": "Charles Road", "naptan:Indicator": "NW", "naptan:Landmark": "Charles Road", "naptan:NaptanCode": "lingwjtp", "naptan:Street": "Churchill Road", "naptan:verified": "no", "public_transport": "platform", "source": "naptan_import"}}, {"type": "node", "id": 502321947, "lat": 52.6587482, "lon": -0.4927628, "tags": {"bus": "yes", "highway": "bus_stop", "name": "Lambeth Walk", "naptan:AtcoCode": "270000008971", "naptan:Bearing": "SE", "naptan:CommonName": "Lambeth Walk", "naptan:Landmark": "Lambeth Walk", "naptan:NaptanCode": "lingwjtw", "naptan:Street": "Little Casterton Road", "naptan:verified": "no", "public_transport": "platform", "source": "naptan_import"}}, {"type": "node", "id": 502322073, "lat": 52.6605168, "lon": -0.5096176, "tags": {"bus": "yes", "highway": "bus_stop", "name": "Fife Close", "naptan:AtcoCode": "270000009011", "naptan:Bearing": "SW", "naptan:CommonName": "Fife Close", "naptan:Indicator": "adj", "naptan:Landmark": "Fife Close", "naptan:NaptanCode": "lingwmpm", "naptan:Street": "Arran Road", "naptan:verified": "no", "public_transport": "platform", "source": "naptan_import"}}, {"type": "node", "id": 502322075, "lat": 52.6605812, "lon": -0.5097337, "tags": {"bus": "yes", "highway": "bus_stop", "name": "Fife Close", "naptan:AtcoCode": "270000009012", "naptan:Bearing": "NE", "naptan:CommonName": "Fife Close", "naptan:Indicator": "opp", "naptan:Landmark": "Fife Close", "naptan:NaptanCode": "lingwmpt", "naptan:Street": "Arran Road", "naptan:verified": "no", "public_transport": "platform", "source": "naptan_import"}}, {"type": "node", "id": 502322077, "lat": 52.6546922, "lon": -0.5097271, "tags": {"bus": "yes", "highway": "bus_stop", "name": "Arran Road (South End)", "naptan:AtcoCode": "270000009014", "naptan:Bearing": "W", "naptan:CommonName": "Arran Road (South End)", "naptan:Indicator": "opp", "naptan:Landmark": "Arran Road", "naptan:NaptanCode": "lingwmta", "naptan:Street": "Empingham Road", "naptan:verified": "no", "public_transport": "platform", "source": "naptan_import"}}, {"type": "node", "id": 502322079, "lat": 52.6547323, "lon": -0.5093413, "tags": {"bus": "yes", "highway": "bus_stop", "name": "Arran Road (South End)", "naptan:AtcoCode": "270000009015", "naptan:Bearing": "E", "naptan:CommonName": "Arran Road (South End)", "naptan:Indicator": "adj", "naptan:Landmark": "Arran Road", "naptan:NaptanCode": "lingwmtd", "naptan:Street": "Empingham Road", "naptan:verified": "no", "public_transport": "platform", "source": "naptan_import"}}, {"type": "node", "id": 502322081, "lat": 52.6539363, "lon": -0.5011188, "tags": {"bus": "yes", "highway": "bus_stop", "name": "The Danish Invader PH", "naptan:AtcoCode": "270000009016", "naptan:Bearing": "E", "naptan:CommonName": "The Danish Invader PH", "naptan:Indicator": "opp", "naptan:Landmark": "The Danish Invader PH", "naptan:NaptanCode": "lingwmtg", "naptan:Street": "Empingham Road", "naptan:verified": "no", "public_transport": "platform", "shelter": "no", "source": "naptan_import"}}, {"type": "node", "id": 502322083, "lat": 52.6514863, "lon": -0.4936778, "tags": {"bus": "yes", "highway": "bus_stop", "name": "Queen's Walk", "naptan:AtcoCode": "270000009017", "naptan:Bearing": "NW", "naptan:CommonName": "Queen's Walk", "naptan:Indicator": "opp", "naptan:Landmark": "Queen's Walk", "naptan:NaptanCode": "lingwmtj", "naptan:Street": "Roman Bank", "naptan:verified": "no", "public_transport": "platform", "source": "naptan_import"}}, {"type": "node", "id": 502322084, "lat": 52.6534667, "lon": -0.5016671, "tags": {"bus": "yes", "highway": "bus_stop", "name": "Luffenham Close", "naptan:AtcoCode": "270000009018", "naptan:Bearing": "N", "naptan:CommonName": "Luffenham Close", "naptan:Indicator": "adj", "naptan:Landmark": "Luffenham Close", "naptan:NaptanCode": "lingwmtm", "naptan:Street": "Lonsdale Road", "naptan:verified": "no", "public_transport": "platform", "source": "naptan_import"}}, {"type": "node", "id": 502322086, "lat": 52.6534949, "lon": -0.5014553, "tags": {"bus": "yes", "highway": "bus_stop", "name": "Luffenham Close", "naptan:AtcoCode": "270000009019", "naptan:Bearing": "S", "naptan:CommonName": "Luffenham Close", "naptan:Indicator": "opp", "naptan:Landmark": "Luffenham Close", "naptan:NaptanCode": "lingwmtp", "naptan:Street": "Lonsdale Road", "naptan:verified": "no", "public_transport": "platform", "source": "naptan_import"}}, {"type": "node", "id": 502325107, "lat": 52.6557802, "lon": -0.4605156, "tags": {"bus": "yes", "highway": "bus_stop", "name": "Meadow View", "naptan:AtcoCode": "270000010079", "naptan:Bearing": "W", "naptan:CommonName": "Meadow View", "naptan:Indicator": "o/s", "naptan:Landmark": "Meadow View", "naptan:NaptanCode": "linjgtja", "naptan:Street": "Uffington Road", "naptan:verified": "no", "public_transport": "platform", "source": "naptan_import", "wheelchair": "yes"}}, {"type": "node", "id": 502325111, "lat": 52.6505489, "lon": -0.4773156, "tags": {"bus": "yes", "highway": "bus_stop", "name": "St Marys Medical Centre", "naptan:AtcoCode": "270000010080", "naptan:Bearing": "W", "naptan:CommonName": "St Marys Medical Centre", "naptan:Indicator": "opp", "naptan:Landmark": "St Marys Medical Centre", "naptan:NaptanCode": "linjgtjd", "naptan:Street": "Wharf Road", "naptan:verified": "no", "public_transport": "platform", "source": "naptan_import", "wheelchair": "yes"}}, {"type": "node", "id": 502325116, "lat": 52.6506397, "lon": -0.4773864, "tags": {"bus": "yes", "highway": "bus_stop", "name": "St Marys Medical Centre", "naptan:AtcoCode": "270000010081", "naptan:Bearing": "E", "naptan:CommonName": "St Marys Medical Centre", "naptan:Indicator": "o/s", "naptan:Landmark": "St Marys Medical Centre", "naptan:NaptanCode": "linjgtjg", "naptan:Street": "Wharf Road", "naptan:verified": "no", "public_transport": "platform", "source": "naptan_import", "wheelchair": "yes"}}, {"type": "node", "id": 502325123, "lat": 52.6500197, "lon": -0.4739191, "tags": {"bus": "yes", "highway": "bus_stop", "name": "Phillips Court", "naptan:AtcoCode": "270000010082", "naptan:Bearing": "W", "naptan:CommonName": "Phillips Court", "naptan:Indicator": "adj", "naptan:Landmark": "Phillips Court", "naptan:NaptanCode": "linjgtjm", "naptan:Street": "Water Street", "naptan:verified": "no", "public_transport": "platform", "source": "naptan_import", "wheelchair": "yes"}}, {"type": "node", "id": 502325128, "lat": 52.6591778, "lon": -0.4806383, "tags": {"bus": "yes", "highway": "bus_stop", "name": "Alexandra Road", "naptan:AtcoCode": "270000010083", "naptan:Bearing": "SW", "naptan:CommonName": "Alexandra Road", "naptan:Landmark": "Alexandra Road", "naptan:NaptanCode": "linjgtjp", "naptan:Street": "Green Lane", "naptan:verified": "no", "public_transport": "platform", "source": "naptan_import"}}, {"type": "node", "id": 502325134, "lat": 52.6518174, "lon": -0.485092, "tags": {"bus": "yes", "highway": "bus_stop", "name": "Torkington Gardens", "naptan:AtcoCode": "270000010084", "naptan:Bearing": "NE", "naptan:CommonName": "Torkington Gardens", "naptan:Indicator": "opp", "naptan:Landmark": "Torkington Gardens", "naptan:NaptanCode": "linjgtjt", "naptan:Street": "West Street", "naptan:verified": "no", "public_transport": "platform", "source": "naptan_import", "wheelchair": "yes"}}, {"type": "node", "id": 502325139, "lat": 52.650508, "lon": -0.4860538, "tags": {"bus": "yes", "highway": "bus_stop", "name": "Austin Friar's Lane", "naptan:AtcoCode": "270000010085", "naptan:Bearing": "NE", "naptan:CommonName": "Austin Friar's Lane", "naptan:Indicator": "opp", "naptan:Landmark": "Austin Friar's Lane", "naptan:NaptanCode": "linjgtjw", "naptan:Street": "Tinwell Road", "naptan:verified": "no", "public_transport": "platform", "source": "naptan_import", "wheelchair": "yes"}}, {"type": "node", "id": 502325142, "lat": 52.6504092, "lon": -0.4860572, "tags": {"bus": "yes", "highway": "bus_stop", "name": "Austin Friar's Lane", "naptan:AtcoCode": "270000010086", "naptan:Bearing": "SW", "naptan:CommonName": "Austin Friar's Lane", "naptan:Indicator": "adj", "naptan:Landmark": "Austin Friar's Lane", "naptan:NaptanCode": "linjgtma", "naptan:Street": "Tinwell Road", "naptan:verified": "no", "public_transport": "platform", "source": "naptan_import", "wheelchair": "yes"}}, {"type": "node", "id": 502325146, "lat": 52.6497053, "lon": -0.4907825, "tags": {"bus": "yes", "highway": "bus_stop", "name": "Roman Bank", "naptan:AtcoCode": "270000010087", "naptan:Bearing": "E", "naptan:CommonName": "Roman Bank", "naptan:Indicator": "adj", "naptan:Landmark": "Roman Bank", "naptan:NaptanCode": "linjgtmd", "naptan:Street": "Tinwell Road", "naptan:verified": "no", "public_transport": "platform", "source": "naptan_import"}}, {"type": "node", "id": 502325150, "lat": 52.6496333, "lon": -0.4900754, "tags": {"bus": "yes", "highway": "bus_stop", "name": "Roman Bank", "naptan:AtcoCode": "270000010088", "naptan:Bearing": "W", "naptan:CommonName": "Roman Bank", "naptan:Indicator": "opp", "naptan:Landmark": "Roman Bank", "naptan:NaptanCode": "linjgtmg", "naptan:Street": "Tinwell Road", "naptan:verified": "no", "public_transport": "platform", "source": "naptan_import"}}, {"type": "node", "id": 502325155, "lat": 52.6477851, "lon": -0.4995849, "tags": {"bus": "yes", "highway": "bus_stop", "name": "Exeter Gardens", "naptan:AtcoCode": "270000010089", "naptan:Bearing": "W", "naptan:CommonName": "Exeter Gardens", "naptan:Indicator": "opp", "naptan:Landmark": "Exeter Gardens", "naptan:NaptanCode": "linjgtmj", "naptan:Street": "Tinwell Road", "naptan:verified": "no", "public_transport": "platform", "source": "naptan_import", "wheelchair": "no"}}, {"type": "node", "id": 502325160, "lat": 52.6521246, "lon": -0.502186, "tags": {"bus": "yes", "highway": "bus_stop", "name": "Hambleton Road", "naptan:AtcoCode": "270000010090", "naptan:Bearing": "SW", "naptan:CommonName": "Hambleton Road", "naptan:Landmark": "Hambleton Road", "naptan:NaptanCode": "linjgtmp", "naptan:Street": "Lonsdale Road", "naptan:verified": "no", "public_transport": "platform", "source": "naptan_import"}}, {"type": "node", "id": 502325178, "lat": 52.658114, "lon": -0.5094332, "tags": {"bus": "yes", "highway": "bus_stop", "name": "Moray Close", "naptan:AtcoCode": "270000010093", "naptan:Bearing": "E", "naptan:CommonName": "Moray Close", "naptan:Indicator": "opp", "naptan:Landmark": "Moray Close", "naptan:NaptanCode": "linjgtpa", "naptan:Street": "Aberdeen Close", "naptan:verified": "no", "public_transport": "platform", "source": "naptan_import"}}, {"type": "node", "id": 502325185, "lat": 52.6580487, "lon": -0.5085335, "tags": {"bus": "yes", "highway": "bus_stop", "name": "Moray Close", "naptan:AtcoCode": "270000010094", "naptan:Bearing": "W", "naptan:CommonName": "Moray Close", "naptan:Indicator": "adj", "naptan:Landmark": "Moray Close", "naptan:NaptanCode": "linjgtpd", "naptan:Street": "Aberdeen Close", "naptan:verified": "no", "public_transport": "platform", "source": "naptan_import"}}, {"type": "node", "id": 502325192, "lat": 52.6569404, "lon": -0.5047715, "tags": {"bus": "yes", "highway": "bus_stop", "name": "Dundee Drive", "naptan:AtcoCode": "270000010095", "naptan:Bearing": "E", "naptan:CommonName": "Dundee Drive", "naptan:Indicator": "opp", "naptan:Landmark": "Dundee Drive", "naptan:NaptanCode": "linjgtpg", "naptan:Street": "Caithness Road", "naptan:verified": "no", "public_transport": "platform", "source": "naptan_import"}}, {"type": "node", "id": 502325198, "lat": 52.6572474, "lon": -0.4970578, "tags": {"bus": "yes", "highway": "bus_stop", "name": "Waverley Gardens", "naptan:AtcoCode": "270000010096", "naptan:Bearing": "SE", "naptan:CommonName": "Waverley Gardens", "naptan:Indicator": "adj", "naptan:Landmark": "Waverley Gardens", "naptan:NaptanCode": "linjgtpj", "naptan:Street": "Casterton Road", "naptan:verified": "no", "public_transport": "platform", "source": "naptan_import"}}, {"type": "node", "id": 502325205, "lat": 52.6558767, "lon": -0.4988642, "tags": {"bus": "yes", "highway": "bus_stop", "name": "Argyll Way", "naptan:AtcoCode": "270000010097", "naptan:Bearing": "W", "naptan:CommonName": "Argyll Way", "naptan:Indicator": "adj", "naptan:Landmark": "Argyll Way", "naptan:NaptanCode": "linjgtpm", "naptan:Street": "Stirling Road", "naptan:verified": "no", "public_transport": "platform", "source": "naptan_import"}}, {"type": "node", "id": 502325213, "lat": 52.655996, "lon": -0.4990524, "tags": {"bus": "yes", "highway": "bus_stop", "name": "Argyll Way", "naptan:AtcoCode": "270000010098", "naptan:Bearing": "E", "naptan:CommonName": "Argyll Way", "naptan:Indicator": "opp", "naptan:Landmark": "Argyll Way", "naptan:NaptanCode": "linjgtpt", "naptan:Street": "Stirling Road", "naptan:verified": "no", "public_transport": "platform", "source": "naptan_import"}}, {"type": "node", "id": 502325218, "lat": 52.6556918, "lon": -0.4935037, "tags": {"bus": "yes", "highway": "bus_stop", "name": "Zebra Cottages", "naptan:AtcoCode": "270000010099", "naptan:Bearing": "NE", "naptan:CommonName": "Zebra Cottages", "naptan:Indicator": "adj", "naptan:Landmark": "Zebra Cottages", "naptan:NaptanCode": "linjgtpw", "naptan:Street": "Torkington Street", "naptan:verified": "no", "public_transport": "platform", "source": "naptan_import"}}, {"type": "node", "id": 502325224, "lat": 52.6556188, "lon": -0.4934175, "tags": {"bus": "yes", "highway": "bus_stop", "name": "Zebra Cottages", "naptan:AtcoCode": "270000010100", "naptan:Bearing": "SW", "naptan:CommonName": "Zebra Cottages", "naptan:Indicator": "opp", "naptan:Landmark": "Zebra Cottages", "naptan:NaptanCode": "linjgtwa", "naptan:Street": "Torkington Street", "naptan:verified": "no", "public_transport": "platform", "source": "naptan_import"}}, {"type": "node", "id": 502325231, "lat": 52.6534265, "lon": -0.4900038, "tags": {"bus": "yes", "highway": "bus_stop", "name": "Foundry Road", "naptan:AtcoCode": "270000010101", "naptan:Bearing": "W", "naptan:CommonName": "Foundry Road", "naptan:Landmark": "Foundry Road", "naptan:NaptanCode": "linjgtwd", "naptan:Street": "Empingham Road", "naptan:verified": "no", "public_transport": "platform", "source": "naptan_import"}}, {"type": "node", "id": 502325237, "lat": 52.6577989, "lon": -0.4951759, "tags": {"bus": "yes", "highway": "bus_stop", "name": "29 Waverley Gardens", "naptan:AtcoCode": "270000010102", "naptan:Bearing": "E", "naptan:CommonName": "29 Waverley Gardens", "naptan:Indicator": "opp", "naptan:Landmark": "Number 29", "naptan:NaptanCode": "linjgtwg", "naptan:Street": "Waverley Gardens", "naptan:verified": "no", "public_transport": "platform", "source": "naptan_import"}}, {"type": "node", "id": 502325244, "lat": 52.6563857, "lon": -0.4908037, "tags": {"bus": "yes", "highway": "bus_stop", "name": "Radcliffe Road", "naptan:AtcoCode": "270000010103", "naptan:Bearing": "NW", "naptan:CommonName": "Radcliffe Road", "naptan:Indicator": "opp", "naptan:Landmark": "Radcliffe Road", "naptan:NaptanCode": "linjgtwj", "naptan:Street": "Little Casterton Road", "naptan:verified": "no", "public_transport": "platform", "source": "naptan_import"}}, {"type": "node", "id": 502329659, "lat": 52.654249, "lon": -0.5045233, "tags": {"bus": "yes", "highway": "bus_stop", "name": "Dickens Drive", "naptan:AtcoCode": "270002700381", "naptan:Bearing": "E", "naptan:CommonName": "Dickens Drive", "naptan:Landmark": "Dickens Drive", "naptan:NaptanCode": "linagjtj", "naptan:Street": "Empingham Road", "naptan:verified": "no", "public_transport": "platform", "source": "naptan_import"}}, {"type": "node", "id": 502330586, "lat": 52.6612626, "lon": -0.481261, "tags": {"bus": "yes", "highway": "bus_stop", "name": "169 Kesteven Road", "naptan:AtcoCode": "270002700729", "naptan:Bearing": "NE", "naptan:CommonName": "169 Kesteven Road", "naptan:Indicator": "o/s", "naptan:Landmark": "Green Lane", "naptan:NaptanCode": "linagdtw", "naptan:Street": "Kesteven Road", "naptan:verified": "no", "public_transport": "platform", "source": "naptan_import"}}, {"type": "node", "id": 502330589, "lat": 52.6618523, "lon": -0.4753701, "tags": {"bus": "yes", "highway": "bus_stop", "name": "Stamford Free Church", "naptan:AtcoCode": "270002700731", "naptan:Bearing": "S", "naptan:CommonName": "Stamford Free Church", "naptan:Indicator": "opp", "naptan:Landmark": "Stamford Free Church", "naptan:NaptanCode": "linagmgt", "naptan:Street": "Kesteven Road", "naptan:verified": "no", "public_transport": "platform", "source": "naptan_import"}}, {"type": "node", "id": 502330593, "lat": 52.6603114, "lon": -0.4737085, "tags": {"bus": "yes", "highway": "bus_stop", "name": "Kesteven Road", "naptan:AtcoCode": "270002700733", "naptan:Bearing": "E", "naptan:CommonName": "Kesteven Road", "naptan:Indicator": "E - bound", "naptan:Landmark": "Kesteven Road", "naptan:NaptanCode": "linagmda", "naptan:Street": "Lincoln Road", "naptan:verified": "no", "public_transport": "platform", "source": "naptan_import"}}, {"type": "node", "id": 502330597, "lat": 52.6610978, "lon": -0.4691564, "tags": {"bus": "yes", "highway": "bus_stop", "name": "Bowling Green", "naptan:AtcoCode": "270002700735", "naptan:Bearing": "E", "naptan:CommonName": "Bowling Green", "naptan:Indicator": "adj", "naptan:Landmark": "Bowling Green", "naptan:NaptanCode": "linagjdm", "naptan:Street": "Lincoln Road", "naptan:verified": "no", "public_transport": "platform", "source": "naptan_import"}}, {"type": "node", "id": 502330657, "lat": 52.6521745, "lon": -0.4813838, "tags": {"bus": "yes", "highway": "bus_stop", "name": "All Saints' Place", "naptan:AtcoCode": "270002700763", "naptan:Bearing": "NE", "naptan:CommonName": "All Saints' Place", "naptan:Indicator": "opp", "naptan:Landmark": "All Saints' Church", "naptan:NaptanCode": "linagjag", "naptan:Street": "All Saints' Place", "naptan:verified": "no", "public_transport": "platform", "source": "naptan_import", "wheelchair": "yes"}}, {"type": "node", "id": 502330754, "lat": 52.6606586, "lon": -0.5087404, "tags": {"bus": "yes", "highway": "bus_stop", "name": "Arran Road (North End)", "naptan:AtcoCode": "270002700786", "naptan:Bearing": "SE", "naptan:CommonName": "Arran Road (North End)", "naptan:Indicator": "opp", "naptan:Landmark": "Arran Road", "naptan:NaptanCode": "linagjaw", "naptan:Street": "Old Great North Road", "naptan:verified": "no", "public_transport": "platform", "source": "naptan_import"}}, {"type": "node", "id": 502330760, "lat": 52.6605431, "lon": -0.5088478, "tags": {"bus": "yes", "highway": "bus_stop", "name": "Arran Road (North End)", "naptan:AtcoCode": "270002700787", "naptan:Bearing": "NW", "naptan:CommonName": "Arran Road (North End)", "naptan:Indicator": "adj", "naptan:Landmark": "Arran Road", "naptan:NaptanCode": "linagjap", "naptan:Street": "Old Great North Road", "naptan:verified": "no", "public_transport": "platform", "source": "naptan_import"}}, {"type": "node", "id": 502330766, "lat": 52.6595365, "lon": -0.5067381, "tags": {"bus": "yes", "highway": "bus_stop", "name": "Belvoir Close", "naptan:AtcoCode": "270002700789", "naptan:Bearing": "NW", "naptan:CommonName": "Belvoir Close", "naptan:Indicator": "opp", "naptan:Landmark": "Belvoir Close", "naptan:NaptanCode": "linagjda", "naptan:Street": "Old Great North Road", "naptan:verified": "no", "public_transport": "platform", "source": "naptan_import"}}, {"type": "node", "id": 502331143, "lat": 52.6642195, "lon": -0.4672136, "tags": {"bus": "yes", "highway": "bus_stop", "name": "Guash Way", "naptan:AtcoCode": "270002700916", "naptan:Bearing": "NW", "naptan:CommonName": "Guash Way", "naptan:Indicator": "opp", "naptan:Landmark": "Guash Way", "naptan:NaptanCode": "linagmat", "naptan:Street": "Ryhall Road", "naptan:verified": "no", "public_transport": "platform", "source": "naptan_import", "wheelchair": "yes"}}, {"type": "node", "id": 502331150, "lat": 52.6637283, "lon": -0.4667724, "tags": {"bus": "yes", "highway": "bus_stop", "name": "Guash Way", "naptan:AtcoCode": "270002700917", "naptan:Bearing": "SE", "naptan:CommonName": "Guash Way", "naptan:Indicator": "adj", "naptan:Landmark": "Guash Way", "naptan:NaptanCode": "linagmag", "naptan:Street": "Ryhall Road", "naptan:verified": "no", "public_transport": "platform", "source": "naptan_import", "wheelchair": "yes"}}, {"type": "node", "id": 502331466, "lat": 52.6559227, "lon": -0.4996611, "tags": {"bus": "yes", "highway": "bus_stop", "name": "Stirling Road", "naptan:AtcoCode": "270002701050", "naptan:Bearing": "SW", "naptan:CommonName": "Stirling Road", "naptan:Indicator": "adj", "naptan:Landmark": "Stirling Road", "naptan:NaptanCode": "linagmgw", "naptan:Street": "Sutherland Way", "naptan:verified": "no", "public_transport": "platform", "source": "naptan_import"}}, {"type": "node", "id": 502331472, "lat": 52.650455, "lon": -0.5016813, "tags": {"bus": "yes", "highway": "bus_stop", "name": "Brooke Avenue", "naptan:AtcoCode": "270002701052", "naptan:Bearing": "S", "naptan:CommonName": "Brooke Avenue", "naptan:Indicator": "opp", "naptan:Landmark": "Brooke Avenue", "naptan:NaptanCode": "linagjgd", "naptan:Street": "Hambleton Road", "naptan:verified": "no", "public_transport": "platform", "source": "naptan_import"}}, {"type": "node", "id": 502331479, "lat": 52.6588542, "lon": -0.4715562, "tags": {"bus": "yes", "highway": "bus_stop", "name": "Stamford College", "naptan:AtcoCode": "270002701054", "naptan:Bearing": "E", "naptan:CommonName": "Stamford College", "naptan:Indicator": "opp", "naptan:Landmark": "Stamford College", "naptan:NaptanCode": "linagmgd", "naptan:Street": "Drift Road", "naptan:verified": "no", "public_transport": "platform", "source": "naptan_import"}}, {"type": "node", "id": 502331485, "lat": 52.6621988, "lon": -0.4841563, "tags": {"bus": "yes", "highway": "bus_stop", "name": "Peterhouse Close", "naptan:AtcoCode": "270002701056", "naptan:Bearing": "NW", "naptan:CommonName": "Peterhouse Close", "naptan:Indicator": "opp", "naptan:Landmark": "Peterhouse Close", "naptan:NaptanCode": "linagmdg", "naptan:Street": "Churchill Road", "naptan:verified": "no", "public_transport": "platform", "source": "naptan_import", "wheelchair": "yes"}}, {"type": "node", "id": 502331492, "lat": 52.6626157, "lon": -0.4872324, "tags": {"bus": "yes", "highway": "bus_stop", "name": "Selwyn Road", "naptan:AtcoCode": "270002701058", "naptan:Bearing": "SW", "naptan:BusStopType": "CUS", "naptan:CommonName": "Selwyn Road", "naptan:Indicator": "adj", "naptan:Landmark": "Selwyn Road", "naptan:NaptanCode": "linagmdm", "naptan:Street": "Churchill Road", "naptan:verified": "no", "public_transport": "platform", "source": "naptan_import", "wheelchair": "yes"}}, {"type": "node", "id": 502331500, "lat": 52.6606637, "lon": -0.487152, "tags": {"bus": "yes", "highway": "bus_stop", "local_ref": "SE", "name": "Charles Road", "naptan:AtcoCode": "270002701060", "naptan:Bearing": "SE", "naptan:BusStopType": "CUS", "naptan:CommonName": "Charles Road", "naptan:Indicator": "SE", "naptan:Landmark": "Charles Road", "naptan:NaptanCode": "linagjtd", "naptan:Street": "Churchill Road", "naptan:verified": "no", "public_transport": "platform", "source": "naptan_import"}}, {"type": "node", "id": 502333219, "lat": 52.6514659, "lon": -0.4821719, "tags": {"bus": "yes", "highway": "bus_stop", "local_ref": "1", "name": "Stamford Bus Station", "naptan:AtcoCode": "270002701630", "naptan:CommonName": "Bus Station", "naptan:Indicator": "Bay 1", "naptan:Landmark": "Bus Station", "naptan:NaptanCode": "linagjgw", "naptan:Street": "St Peter's Hill", "naptan:verified": "no", "public_transport": "platform", "source": "naptan_import"}}, {"type": "node", "id": 502333222, "lat": 52.6514591, "lon": -0.4821159, "tags": {"bus": "yes", "highway": "bus_stop", "local_ref": "2", "name": "Stamford Bus Station", "naptan:AtcoCode": "270002701631", "naptan:CommonName": "Bus Station", "naptan:Indicator": "Bay 2", "naptan:Landmark": "Bus Station", "naptan:NaptanCode": "linagjma", "naptan:Street": "St Peter's Hill", "naptan:verified": "no", "public_transport": "platform", "source": "naptan_import"}}, {"type": "node", "id": 502333226, "lat": 52.6514615, "lon": -0.4820464, "tags": {"bus": "yes", "highway": "bus_stop", "local_ref": "3", "name": "Stamford Bus Station", "naptan:AtcoCode": "270002701632", "naptan:CommonName": "Bus Station", "naptan:Indicator": "Bay 3", "naptan:Landmark": "Bus Station", "naptan:NaptanCode": "linagjmg", "naptan:Street": "St Peter's Hill", "naptan:verified": "no", "public_transport": "platform", "source": "naptan_import"}}, {"type": "node", "id": 502333229, "lat": 52.6514591, "lon": -0.481973, "tags": {"bus": "yes", "highway": "bus_stop", "local_ref": "4", "name": "Stamford Bus Station", "naptan:AtcoCode": "270002701633", "naptan:CommonName": "Bus Station", "naptan:Indicator": "Bay 4", "naptan:Landmark": "Bus Station", "naptan:NaptanCode": "linagjmt", "naptan:Street": "St Peter's Hill", "naptan:verified": "no", "public_transport": "platform", "source": "naptan_import"}}, {"type": "node", "id": 502333233, "lat": 52.6514571, "lon": -0.4819044, "tags": {"bus": "yes", "highway": "bus_stop", "local_ref": "5", "name": "Stamford Bus Station", "naptan:AtcoCode": "270002701634", "naptan:CommonName": "Bus Station", "naptan:Indicator": "Bay 5", "naptan:Landmark": "Bus Station", "naptan:NaptanCode": "linagjpa", "naptan:Street": "St Peter's Hill", "naptan:verified": "no", "public_transport": "platform", "source": "naptan_import"}}, {"type": "node", "id": 502333237, "lat": 52.651452, "lon": -0.4818483, "tags": {"bus": "yes", "highway": "bus_stop", "local_ref": "6", "name": "Stamford Bus Station", "naptan:AtcoCode": "270002701635", "naptan:CommonName": "Bus Station", "naptan:Indicator": "Bay 6", "naptan:Landmark": "Bus Station", "naptan:NaptanCode": "linagjpd", "naptan:Street": "St Peter's Hill", "naptan:verified": "no", "public_transport": "platform", "source": "naptan_import"}}, {"type": "node", "id": 502333240, "lat": 52.6514255, "lon": -0.4818112, "tags": {"bus": "yes", "highway": "bus_stop", "local_ref": "7", "name": "Stamford Bus Station", "naptan:AtcoCode": "270002701638", "naptan:CommonName": "Bus Station", "naptan:Indicator": "Bay 7", "naptan:Landmark": "Bus Station", "naptan:NaptanCode": "linagjpg", "naptan:Street": "St Peter's Hill", "naptan:verified": "no", "public_transport": "platform", "source": "naptan_import", "wheelchair": "yes"}}, {"type": "node", "id": 502333244, "lat": 52.6514555, "lon": -0.4817173, "tags": {"bus": "yes", "highway": "bus_stop", "local_ref": "8", "name": "Stamford Bus Station", "naptan:AtcoCode": "270002701639", "naptan:CommonName": "Bus Station", "naptan:Indicator": "Bay 8", "naptan:Landmark": "Bus Station", "naptan:NaptanCode": "linagjpj", "naptan:Street": "St Peter's Hill", "naptan:verified": "no", "public_transport": "platform", "source": "naptan_import", "wheelchair": "yes"}}, {"type": "node", "id": 502333248, "lat": 52.6561816, "lon": -0.4938417, "tags": {"bus": "yes", "highway": "bus_stop", "name": "Drum and Monkey PH", "naptan:AtcoCode": "270002701642", "naptan:Bearing": "NW", "naptan:CommonName": "Drum and Monkey PH", "naptan:Indicator": "adj", "naptan:Landmark": "Drum and Monkey PH", "naptan:NaptanCode": "linagjtm", "naptan:Street": "Casterton Road", "naptan:verified": "no", "public_transport": "platform", "source": "naptan_import"}}, {"type": "node", "id": 502333251, "lat": 52.6561756, "lon": -0.4933688, "tags": {"bus": "yes", "highway": "bus_stop", "name": "Drum and Monkey PH", "naptan:AtcoCode": "270002701643", "naptan:Bearing": "SE", "naptan:CommonName": "Drum and Monkey PH", "naptan:Indicator": "opp", "naptan:Landmark": "Drum and Monkey PH", "naptan:NaptanCode": "linagjtp", "naptan:Street": "Casterton Road", "naptan:verified": "no", "public_transport": "platform", "source": "naptan_import"}}, {"type": "node", "id": 502339613, "lat": 52.65638, "lon": -0.5095366, "tags": {"bus": "yes", "highway": "bus_stop", "name": "Perth Road", "naptan:AtcoCode": "2700LSAR1506", "naptan:Bearing": "S", "naptan:CommonName": "Perth Road", "naptan:Indicator": "adj", "naptan:Landmark": "Perth Road", "naptan:NaptanCode": "linamadp", "naptan:Street": "Arran Road", "naptan:verified": "no", "public_transport": "platform", "source": "naptan_import"}}, {"type": "node", "id": 502339619, "lat": 52.6522893, "lon": -0.4813622, "tags": {"bus": "yes", "highway": "bus_stop", "name": "All Saints' Place", "naptan:AtcoCode": "2700LSAS3044", "naptan:Bearing": "SW", "naptan:CommonName": "All Saints' Place", "naptan:Indicator": "o/s", "naptan:Landmark": "All Saints' Church", "naptan:NaptanCode": "linawgpd", "naptan:Street": "All Saints' Place", "naptan:verified": "no", "public_transport": "platform", "source": "naptan_import", "wheelchair": "yes"}}, {"type": "node", "id": 502339695, "lat": 52.6571403, "lon": -0.4971206, "tags": {"bus": "yes", "highway": "bus_stop", "name": "Waverley Gardens", "naptan:AtcoCode": "2700LSBH5369", "naptan:Bearing": "NW", "naptan:CommonName": "Waverley Gardens", "naptan:Indicator": "opp", "naptan:Landmark": "Waverley Gardens", "naptan:NaptanCode": "lindtjgd", "naptan:Street": "Casterton Road", "naptan:verified": "no", "public_transport": "platform", "source": "naptan_import"}}, {"type": "node", "id": 502339713, "lat": 52.6566348, "lon": -0.4990896, "tags": {"bus": "yes", "highway": "bus_stop", "name": "Roxburgh Road", "naptan:AtcoCode": "2700LSBR0592", "naptan:Bearing": "SW", "naptan:CommonName": "Roxburgh Road", "naptan:Indicator": "adj", "naptan:Landmark": "Roxburgh Road", "naptan:NaptanCode": "linadwpg", "naptan:Street": "Sutherland Way", "naptan:verified": "no", "public_transport": "platform", "source": "naptan_import"}}, {"type": "node", "id": 502339872, "lat": 52.658713, "lon": -0.4717681, "tags": {"bus": "yes", "highway": "bus_stop", "name": "Stamford College", "naptan:AtcoCode": "2700LSCD3520", "naptan:Bearing": "W", "naptan:CommonName": "Stamford College", "naptan:Indicator": "o/s", "naptan:Landmark": "Stamford College", "naptan:NaptanCode": "lindamwg", "naptan:Street": "Drift Road", "naptan:verified": "no", "public_transport": "platform", "source": "naptan_import", "wheelchair": "yes"}}, {"type": "node", "id": 502339903, "lat": 52.6622873, "lon": -0.4840498, "tags": {"bus": "yes", "highway": "bus_stop", "name": "Peterhouse Close", "naptan:AtcoCode": "2700LSCR2323", "naptan:Bearing": "SE", "naptan:CommonName": "Peterhouse Close", "naptan:Indicator": "adj", "naptan:Landmark": "Peterhouse Close", "naptan:NaptanCode": "linaptjp", "naptan:Street": "Churchill Road", "naptan:verified": "no", "public_transport": "platform", "source": "naptan_import", "wheelchair": "yes"}}, {"type": "node", "id": 502339906, "lat": 52.6605156, "lon": -0.490351, "tags": {"bus": "yes", "highway": "bus_stop", "name": "Trinity Road", "naptan:AtcoCode": "2700LSCR2362", "naptan:Bearing": "NE", "naptan:CommonName": "Trinity Road", "naptan:Indicator": "opp", "naptan:Landmark": "Trinity Road", "naptan:NaptanCode": "linapwaw", "naptan:Street": "Cambridge Road", "naptan:verified": "no", "public_transport": "platform", "source": "naptan_import"}}, {"type": "node", "id": 502339910, "lat": 52.6568898, "lon": -0.5050393, "tags": {"bus": "yes", "highway": "bus_stop", "name": "Dundee Drive", "naptan:AtcoCode": "2700LSCR3576", "naptan:Bearing": "W", "naptan:CommonName": "Dundee Drive", "naptan:Indicator": "adj", "naptan:Landmark": "Dundee Drive", "naptan:NaptanCode": "lindapwm", "naptan:Street": "Caithness Road", "naptan:verified": "no", "public_transport": "platform", "source": "naptan_import"}}, {"type": "node", "id": 502339923, "lat": 52.6538569, "lon": -0.5012398, "tags": {"bus": "yes", "highway": "bus_stop", "name": "The Danish Invader PH", "naptan:AtcoCode": "2700LSDI2116", "naptan:Bearing": "W", "naptan:CommonName": "The Danish Invader PH", "naptan:Indicator": "adj", "naptan:Landmark": "The Danish Invader PH", "naptan:NaptanCode": "linapgjg", "naptan:Street": "Empingham Road", "naptan:verified": "no", "public_transport": "platform", "source": "naptan_import"}}, {"type": "node", "id": 502339934, "lat": 52.6615552, "lon": -0.4662865, "tags": {"bus": "yes", "highway": "bus_stop", "name": "Rutland Road", "naptan:AtcoCode": "2700LSDR3815", "naptan:Bearing": "N", "naptan:CommonName": "Rutland Road", "naptan:Indicator": "adj", "naptan:Landmark": "Rutland Road", "naptan:NaptanCode": "lindgjgw", "naptan:Street": "Ryhall Road", "naptan:verified": "no", "public_transport": "platform", "source": "naptan_import", "wheelchair": "yes"}}, {"type": "node", "id": 502339972, "lat": 52.6600628, "lon": -0.4851618, "tags": {"bus": "yes", "highway": "bus_stop", "name": "Edward Road", "naptan:AtcoCode": "2700LSER2283", "naptan:Bearing": "SW", "naptan:CommonName": "Edward Road", "naptan:Indicator": "opp", "naptan:Landmark": "Edward Road", "naptan:NaptanCode": "linapmwa", "naptan:Street": "Edinburgh Road", "naptan:verified": "no", "public_transport": "platform", "source": "naptan_import"}}, {"type": "node", "id": 502340037, "lat": 52.6569376, "lon": -0.5074033, "tags": {"bus": "yes", "highway": "bus_stop", "name": "Braemar Close", "naptan:AtcoCode": "2700LSGS1130", "naptan:Bearing": "SW", "naptan:CommonName": "Braemar Close", "naptan:Indicator": "adj", "naptan:Landmark": "Braemar Close", "naptan:NaptanCode": "linajdaw", "naptan:Street": "Perth Road", "naptan:verified": "no", "public_transport": "platform", "source": "naptan_import"}}, {"type": "node", "id": 502340047, "lat": 52.6608139, "lon": -0.4820306, "tags": {"bus": "yes", "highway": "bus_stop", "name": "1 Edinburgh Road", "naptan:AtcoCode": "2700LSH03411", "naptan:Bearing": "SW", "naptan:CommonName": "1 Edinburgh Road", "naptan:Indicator": "opp", "naptan:Landmark": "Number 1", "naptan:NaptanCode": "lindagtw", "naptan:Street": "Edinburgh Road", "naptan:verified": "no", "public_transport": "platform", "source": "naptan_import"}}, {"type": "node", "id": 502340075, "lat": 52.6496849, "lon": -0.5019294, "tags": {"bus": "yes", "highway": "bus_stop", "name": "Brooke Avenue", "naptan:AtcoCode": "2700LSHR5170", "naptan:Bearing": "N", "naptan:CommonName": "Brooke Avenue", "naptan:Indicator": "adj", "naptan:Landmark": "Brooke Avenue", "naptan:NaptanCode": "lindpwjp", "naptan:Street": "Hambleton Road", "naptan:verified": "no", "public_transport": "platform", "source": "naptan_import"}}, {"type": "node", "id": 502340097, "lat": 52.6601918, "lon": -0.4910423, "tags": {"bus": "yes", "highway": "bus_stop", "name": "Trinity Road", "naptan:AtcoCode": "2700LSJS6719", "naptan:Bearing": "SW", "naptan:CommonName": "Trinity Road", "naptan:Indicator": "adj", "naptan:Landmark": "Trinity Road", "naptan:NaptanCode": "lingdwjm", "naptan:Street": "Cambridge Road", "naptan:verified": "no", "public_transport": "platform", "source": "naptan_import"}}, {"type": "node", "id": 502340110, "lat": 52.6616372, "lon": -0.475422, "tags": {"bus": "yes", "highway": "bus_stop", "name": "Stamford Free Church", "naptan:AtcoCode": "2700LSKR2242", "naptan:Bearing": "N", "naptan:CommonName": "Stamford Free Church", "naptan:Indicator": "adj", "naptan:Landmark": "Stamford Free Church", "naptan:NaptanCode": "linapmdp", "naptan:Street": "Kesteven Road", "naptan:verified": "no", "public_transport": "platform", "source": "naptan_import"}}, {"type": "node", "id": 502340113, "lat": 52.6611477, "lon": -0.4814128, "tags": {"bus": "yes", "highway": "bus_stop", "name": "169 Kesteven Road", "naptan:AtcoCode": "2700LSKR2459", "naptan:Bearing": "SW", "naptan:CommonName": "169 Kesteven Road", "naptan:Indicator": "opp", "naptan:Landmark": "Green Lane", "naptan:NaptanCode": "linagdwj", "naptan:Street": "Kesteven Road", "naptan:verified": "no", "public_transport": "platform", "source": "naptan_import"}}, {"type": "node", "id": 502340122, "lat": 52.6564832, "lon": -0.4906969, "tags": {"bus": "yes", "highway": "bus_stop", "name": "Radcliffe Road", "naptan:AtcoCode": "2700LSLC2276", "naptan:Bearing": "SE", "naptan:CommonName": "Radcliffe Road", "naptan:Indicator": "adj", "naptan:Landmark": "Radcliffe Road", "naptan:NaptanCode": "linapmta", "naptan:Street": "Little Casterton Road", "naptan:verified": "no", "public_transport": "platform", "source": "naptan_import"}}, {"type": "node", "id": 502340164, "lat": 52.6609288, "lon": -0.4692954, "tags": {"bus": "yes", "highway": "bus_stop", "name": "Bowling Green", "naptan:AtcoCode": "2700LSLR0697", "naptan:Bearing": "W", "naptan:CommonName": "Bowling Green", "naptan:Indicator": "opp", "naptan:Landmark": "Bowling Green", "naptan:NaptanCode": "linagdma", "naptan:Street": "Lincoln Road", "naptan:verified": "no", "public_transport": "platform", "source": "naptan_import"}}, {"type": "node", "id": 502340204, "lat": 52.65594, "lon": -0.4649582, "tags": {"bus": "yes", "highway": "bus_stop", "name": "Morrison Car Park", "naptan:AtcoCode": "2700LSM00740", "naptan:Bearing": "NE", "naptan:CommonName": "Morrison Car Park", "naptan:Landmark": "Morrison Car Park", "naptan:NaptanCode": "linagjad", "naptan:Street": "Uffington Road", "naptan:verified": "no", "public_transport": "platform", "shelter": "no", "source": "naptan_import", "wheelchair": "yes"}}, {"type": "node", "id": 502340260, "lat": 52.6540074, "lon": -0.4784817, "tags": {"bus": "yes", "highway": "bus_stop", "name": "Recreation Ground Road", "naptan:AtcoCode": "2700LSNS2628", "naptan:Bearing": "E", "naptan:CommonName": "Recreation Ground Road", "naptan:Indicator": "adj", "naptan:Landmark": "Recreation Ground Road", "naptan:NaptanCode": "linatjat", "naptan:Street": "North Street", "naptan:verified": "no", "public_transport": "platform", "source": "naptan_import"}}, {"type": "node", "id": 502340333, "lat": 52.6562669, "lon": -0.508402, "tags": {"bus": "yes", "highway": "bus_stop", "name": "Braemar Close", "naptan:AtcoCode": "2700LSPR2221", "naptan:Bearing": "E", "naptan:CommonName": "Braemar Close", "naptan:Indicator": "opp", "naptan:Landmark": "Braemar Close", "naptan:NaptanCode": "linapjwj", "naptan:Street": "Perth Road", "naptan:verified": "no", "public_transport": "platform", "source": "naptan_import"}}, {"type": "node", "id": 502340344, "lat": 52.6609044, "lon": -0.4820719, "tags": {"bus": "yes", "highway": "bus_stop", "name": "1 Edinburgh Road", "naptan:AtcoCode": "2700LSPW6521", "naptan:Bearing": "NE", "naptan:CommonName": "1 Edinburgh Road", "naptan:Indicator": "o/s", "naptan:Landmark": "Number 1", "naptan:NaptanCode": "lingdmdm", "naptan:Street": "Edinburgh Road", "naptan:verified": "no", "public_transport": "platform", "source": "naptan_import"}}, {"type": "node", "id": 502340345, "lat": 52.6623044, "lon": -0.4818755, "tags": {"bus": "yes", "highway": "bus_stop", "name": "Stamford Welland Academy", "naptan:AtcoCode": "2700LSQE2286", "naptan:Bearing": "N", "naptan:CommonName": "Stamford welland Academy", "naptan:Landmark": "Stamford Welland Academy", "naptan:NaptanCode": "linapmwj", "naptan:Street": "Green Lane", "naptan:verified": "no", "public_transport": "platform", "source": "naptan_import"}}, {"type": "node", "id": 502340357, "lat": 52.651594, "lon": -0.4936594, "tags": {"bus": "yes", "highway": "bus_stop", "name": "Queen's Walk", "naptan:AtcoCode": "2700LSRB2106", "naptan:Bearing": "SE", "naptan:CommonName": "Queen's Walk", "naptan:Indicator": "adj", "naptan:Landmark": "Queen's Walk", "naptan:NaptanCode": "linapgdp", "naptan:Street": "Roman Bank", "naptan:verified": "no", "public_transport": "platform", "source": "naptan_import"}}, {"type": "node", "id": 502340376, "lat": 52.6567349, "lon": -0.4991897, "tags": {"bus": "yes", "highway": "bus_stop", "name": "Roxburgh Road", "naptan:AtcoCode": "2700LSRL3089", "naptan:Bearing": "NE", "naptan:CommonName": "Roxburgh Road", "naptan:Indicator": "opp", "naptan:Landmark": "Roxburgh Road", "naptan:NaptanCode": "linawjdw", "naptan:Street": "Sutherland Way", "naptan:verified": "no", "public_transport": "platform", "source": "naptan_import"}}, {"type": "node", "id": 502340386, "lat": 52.6558827, "lon": -0.4691168, "tags": {"bus": "yes", "highway": "bus_stop", "name": "Ryhall Road", "naptan:AtcoCode": "2700LSRR0606", "naptan:Bearing": "NE", "naptan:CommonName": "Ryhall Road", "naptan:Indicator": "opp", "naptan:Landmark": "Stamford & Rutland Hospital", "naptan:NaptanCode": "linadwtw", "naptan:Street": "Ryhall Road", "naptan:verified": "no", "public_transport": "platform", "source": "naptan_import", "wheelchair": "yes"}}, {"type": "node", "id": 502340389, "lat": 52.655311, "lon": -0.4883126, "tags": {"bus": "yes", "highway": "bus_stop", "name": "Northumberland Avenue", "naptan:AtcoCode": "2700LSRR2936", "naptan:Bearing": "SE", "naptan:CommonName": "Northumberland Avenue", "naptan:Indicator": "adj", "naptan:Landmark": "Northumberland Avenue", "naptan:NaptanCode": "linawatd", "naptan:Street": "Radcliffe Road", "naptan:verified": "no", "public_transport": "platform", "source": "naptan_import"}}, {"type": "node", "id": 502340442, "lat": 52.6621434, "lon": -0.4770309, "tags": {"bus": "yes", "highway": "bus_stop", "name": "St Augustines School", "naptan:AtcoCode": "2700LSSA2065", "naptan:Bearing": "SE", "naptan:CommonName": "St Augustines School", "naptan:Indicator": "o/s", "naptan:Landmark": "St Augustines School", "naptan:NaptanCode": "linagmga", "naptan:Street": "Kesteven Road", "naptan:verified": "no", "public_transport": "platform", "source": "naptan_import"}}, {"type": "node", "id": 502340590, "lat": 52.6480156, "lon": -0.4767828, "tags": {"bus": "yes", "highway": "bus_stop", "name": "High School", "naptan:AtcoCode": "2700LSSM1911", "naptan:Bearing": "SE", "naptan:CommonName": "High School", "naptan:Indicator": "o/s", "naptan:Landmark": "High School", "naptan:NaptanCode": "linamwgw", "naptan:Street": "High Street St Martin's", "naptan:verified": "no", "public_transport": "platform", "source": "naptan_import", "wheelchair": "yes"}}, {"type": "node", "id": 502340597, "lat": 52.6546522, "lon": -0.4719984, "tags": {"bus": "yes", "highway": "bus_stop", "name": "Stamford School", "naptan:AtcoCode": "2700LSSP1269", "naptan:Bearing": "NE", "naptan:CommonName": "Stamford School", "naptan:Indicator": "o/s", "naptan:Landmark": "Stamford School", "naptan:NaptanCode": "linajmgt", "naptan:Street": "St Paul's Street", "naptan:verified": "no", "public_transport": "platform", "source": "naptan_import", "wheelchair": "yes"}}, {"type": "node", "id": 502340628, "lat": 52.6558404, "lon": -0.4995456, "tags": {"bus": "yes", "highway": "bus_stop", "name": "Stirling Road", "naptan:AtcoCode": "2700LSSW2330", "naptan:Bearing": "NE", "naptan:CommonName": "Stirling Road", "naptan:Indicator": "opp", "naptan:Landmark": "Stirling Road", "naptan:NaptanCode": "linaptmg", "naptan:Street": "Sutherland Way", "naptan:verified": "no", "public_transport": "platform", "source": "naptan_import"}}, {"type": "node", "id": 502340658, "lat": 52.6479179, "lon": -0.4994177, "tags": {"bus": "yes", "highway": "bus_stop", "name": "Exeter Gardens", "naptan:AtcoCode": "2700LSTR2226", "naptan:Bearing": "E", "naptan:CommonName": "Exeter Gardens", "naptan:Indicator": "adj", "naptan:Landmark": "Exeter Gardens", "naptan:NaptanCode": "linapmad", "naptan:Street": "Tinwell Road", "naptan:verified": "no", "public_transport": "platform", "source": "naptan_import", "wheelchair": "yes"}}, {"type": "node", "id": 502340667, "lat": 52.655894, "lon": -0.460275, "tags": {"bus": "yes", "highway": "bus_stop", "name": "Meadow View", "naptan:AtcoCode": "2700LSUR5749", "naptan:Bearing": "E", "naptan:CommonName": "Meadow View", "naptan:Indicator": "opp", "naptan:Landmark": "Meadow View", "naptan:NaptanCode": "lindwjmt", "naptan:Street": "Uffington Road", "naptan:verified": "no", "public_transport": "platform", "source": "naptan_import", "wheelchair": "yes"}}, {"type": "node", "id": 502340748, "lat": 52.6577354, "lon": -0.4951338, "tags": {"bus": "yes", "highway": "bus_stop", "name": "29 Waverley Gardens", "naptan:AtcoCode": "2700LSWG1688", "naptan:Bearing": "W", "naptan:CommonName": "29 Waverley Gardens", "naptan:Indicator": "adj", "naptan:Landmark": "Number 29", "naptan:NaptanCode": "linamgwm", "naptan:Street": "Waverley Gardens", "naptan:verified": "no", "public_transport": "platform", "source": "naptan_import"}}, {"type": "node", "id": 502340825, "lat": 52.650095, "lon": -0.4741826, "tags": {"bus": "yes", "highway": "bus_stop", "name": "Phillips Court", "naptan:AtcoCode": "2700LSWS2575", "naptan:Bearing": "E", "naptan:CommonName": "Phillips Court", "naptan:Indicator": "opp", "naptan:Landmark": "Phillips Court", "naptan:NaptanCode": "linatgjm", "naptan:Street": "Water Street", "naptan:verified": "no", "public_transport": "platform", "source": "naptan_import", "wheelchair": "yes"}}, {"type": "node", "id": 502340831, "lat": 52.6518859, "lon": -0.4848235, "tags": {"bus": "yes", "highway": "bus_stop", "name": "Torkington Gardens", "naptan:AtcoCode": "2700LSWS6706", "naptan:Bearing": "SW", "naptan:CommonName": "Torkington Gardens", "naptan:Indicator": "adj", "naptan:Landmark": "Torkington Gardens", "naptan:NaptanCode": "lingdwdp", "naptan:Street": "West Street", "naptan:verified": "no", "public_transport": "platform", "source": "naptan_import", "wheelchair": "yes"}}, {"type": "node", "id": 5838345813, "lat": 52.6538282, "lon": -0.4724951, "tags": {"bus": "yes", "highway": "bus_stop", "name": "Brazenose Lane", "naptan:AtcoCode": "2700LSBL3106", "naptan:Bearing": "NW", "naptan:CommonName": "Brazenose Lane", "naptan:Landmark": "Site Of Brazenose College", "naptan:NaptanCode": "linawjmp", "naptan:Street": "Brazenose Lane", "naptan:verified": "no", "public_transport": "platform", "source": "naptan_import", "wheelchair": "yes"}}, {"type": "node", "id": 12861355532, "lat": 52.6500318, "lon": -0.4751782, "tags": {"bench": "no", "bus": "yes", "departures_board": "timetable", "highway": "bus_stop", "lit": "yes", "name": "Water Street", "network": "Delaine", "pole": "yes", "public_transport": "platform", "route_ref": "201;202", "shelter": "no", "tactile_paving": "no"}}, {"type": "node", "id": 13116653756, "lat": 52.6494309, "lon": -0.4805045, "tags": {"bus": "yes", "departures_board": "timetable", "highway": "bus_stop", "name": "Cattlemarket Car Park", "operator": "Lincolnshire County Council", "public_transport": "platform", "ref": "lindgagd", "shelter": "no"}}]}