{"version": 0.6, "generator": "Overpass API 0.7.62.10 2d4cfc48", "osm3s": {"timestamp_osm_base": "2026-03-01T06:12:58Z", "copyright": "The data included in this document is from www.openstreetmap.org. The data is made available under ODbL."}, "elements": [{"type": "node", "id": 7946145017, "lat": 51.7363609, "lon": 0.6812129}, {"type": "node", "id": 7946145038, "lat": 51.7361919, "lon": 0.6809118}, {"type": "node", "id": 7946145039, "lat": 51.7363641, "lon": 0.6812185}, {"type": "node", "id": 7946145040, "lat": 51.736199, "lon": 0.68146}, {"type": "node", "id": 7946145041, "lat": 51.7360268, "lon": 0.6811533}, {"type": "node", "id": 7946145042, "lat": 51.7360908, "lon": 0.6812672}, {"type": "node", "id": 8568357177, "lat": 51.7363316, "lon": 0.6812661, "tags": {"entrance": "yes"}}, {"type": "way", "id": 851920394, "nodes": [7946145042, 7946145040, 8568357177, 7946145039, 7946145017, 7946145038, 7946145041, 7946145042], "tags": {"addr:city": "Maldon", "addr:postcode": "CM9 4DY", "addr:street": "The Causeway", "addr:unit": "6A", "brand": "PureGym", "brand:wikidata": "Q18345898", "brand:wikipedia": "en:PureGym", "building": "yes", "contact:website": "https://www.puregym.com/gyms/maldon-blackwater-retail-park/", "leisure": "fitness_centre", "name": "PureGym", "opening_hours": "24/7", "opening_hours:covid19": "off", "phone": "+44 345 863 8379"}}]}