{"version": 0.6, "generator": "Overpass API 0.7.62.10 2d4cfc48", "osm3s": {"timestamp_osm_base": "2026-03-01T06:06:54Z", "copyright": "The data included in this document is from www.openstreetmap.org. The data is made available under ODbL."}, "elements": [{"type": "node", "id": 293269464, "lat": 50.709137, "lon": -2.4376814, "tags": {"bench": "yes", "bin": "no", "bus": "yes", "highway": "bus_stop", "lit": "yes", "name": "Dorchester South Station", "naptan:AtcoCode": "1200DOZ04776", "naptan:Bearing": "W", "naptan:CommonName": "South Station", "naptan:Indicator": "W-bound", "naptan:NaptanCode": "dorajwjd", "naptan:Street": "Copper Street", "naptan:verified": "no", "public_transport": "platform", "shelter": "yes", "tactile_paving": "no"}}, {"type": "node", "id": 4434580764, "lat": 50.7124607, "lon": -2.4582908, "tags": {"bench": "yes", "bin": "yes", "bus": "yes", "departures_board": "realtime", "highway": "bus_stop", "name": "Mansell Square", "naptan:AtcoCode": "1200DOZ03426", "naptan:Bearing": "E", "naptan:CommonName": "Mansell Square", "naptan:Indicator": "E-bound", "naptan:NaptanCode": "dorajgmj", "naptan:verified": "no", "public_transport": "platform", "shelter": "yes"}}, {"type": "node", "id": 4434580765, "lat": 50.7122301, "lon": -2.4587097, "tags": {"bus": "yes", "departures_board": "realtime", "highway": "bus_stop", "name": "Mansell Square", "naptan:AtcoCode": "1200DOZ03425", "naptan:Bearing": "W", "naptan:CommonName": "Mansell Square", "naptan:Indicator": "W-bound", "naptan:NaptanCode": "dorajgmd", "naptan:verified": "no", "public_transport": "platform", "shelter": "yes"}}, {"type": "node", "id": 5859451837, "lat": 50.7135312, "lon": -2.4379174, "tags": {"bench": "yes", "bin": "yes", "bus": "yes", "highway": "bus_stop", "local_ref": "C2", "name": "Trinity Street", "naptan:AtcoCode": "1200DOB65074", "naptan:Bearing": "N", "naptan:CommonName": "Trinity Street", "naptan:Indicator": "Stop C2", "naptan:NaptanCode": "dorajwgt", "naptan:Street": "Trinity Street", "naptan:verified": "no", "public_transport": "platform", "shelter": "yes", "tactile_paving": "no"}}, {"type": "node", "id": 9492050292, "lat": 50.7150152, "lon": -2.4648701, "tags": {"bench": "yes", "bus": "yes", "departures_board": "realtime", "highway": "bus_stop", "name": "Queen Mother Square", "naptan:AtcoCode": "1200DOA90928", "naptan:Bearing": "E", "naptan:CommonName": "Queen Mother Square", "naptan:Indicator": "E-bound", "naptan:NaptanCode": "dordptwj", "naptan:Street": "Peverell Avenue East", "naptan:verified": "no", "public_transport": "platform", "shelter": "yes"}}, {"type": "node", "id": 11207193083, "lat": 50.7135535, "lon": -2.4348667, "tags": {"bus": "yes", "departures_board": "realtime", "highway": "bus_stop", "name": "Acland Road", "naptan:AtcoCode": "1200DOB65076", "naptan:Bearing": "S", "naptan:CommonName": "Acland Road", "naptan:Indicator": "Stop E", "naptan:NaptanCode": "dorajwta", "naptan:Street": "Acland Road", "naptan:verified": "no", "public_transport": "platform", "shelter": "yes"}}, {"type": "node", "id": 11207193084, "lat": 50.715425, "lon": -2.437202, "tags": {"bench": "yes", "bin": "no", "bus": "yes", "departures_board": "realtime", "highway": "bus_stop", "lit": "no", "name": "Dorchester Museum", "naptan:AtcoCode": "1200DOB65075", "naptan:Bearing": "E", "naptan:CommonName": "The Museum", "naptan:Indicator": "Stop D", "naptan:NaptanCode": "dorajwjw", "naptan:Street": "High West Street", "naptan:verified": "no", "public_transport": "platform", "shelter": "no", "tactile_paving": "no"}}, {"type": "node", "id": 11207193085, "lat": 50.7149179, "lon": -2.4409046, "tags": {"bench": "yes", "bin": "no", "bus": "yes", "departures_board": "realtime", "highway": "bus_stop", "lit": "yes", "name": "Top O Town", "naptan:AtcoCode": "1200DOB20207", "naptan:Bearing": "W", "naptan:CommonName": "Top O Town", "naptan:Indicator": "W-bound", "naptan:NaptanCode": "dorajwat", "naptan:Street": "High West Street", "naptan:verified": "no", "public_transport": "platform", "shelter": "yes", "tactile_paving": "no"}}, {"type": "node", "id": 11207193086, "lat": 50.715091, "lon": -2.4404737, "tags": {"bus": "yes", "highway": "bus_stop", "name": "Top O Town", "naptan:AtcoCode": "1200DOA90940", "naptan:Bearing": "E", "naptan:CommonName": "Top O Town", "naptan:Indicator": "E-bound", "naptan:NaptanCode": "dordpwdg", "naptan:Street": "High West Street", "naptan:verified": "no", "public_transport": "platform"}}, {"type": "node", "id": 11207193087, "lat": 50.7139367, "lon": -2.4464838, "tags": {"bench": "yes", "bus": "yes", "highway": "bus_stop", "name": "Dorset County Hospital (Stop A)", "naptan:AtcoCode": "1200DOB20209", "naptan:Bearing": "SW", "naptan:CommonName": "Dorset County Hospital", "naptan:Indicator": "Stop A", "naptan:NaptanCode": "dorajtaw", "naptan:verified": "no", "public_transport": "platform", "shelter": "yes"}}, {"type": "node", "id": 11207193088, "lat": 50.7136308, "lon": -2.4482516, "tags": {"bench": "yes", "bin": "yes", "bus": "yes", "departures_board": "realtime", "highway": "bus_stop", "name": "Dorset County Hospital (Stop B)", "naptan:AtcoCode": "1200DOB20443", "naptan:Bearing": "W", "naptan:CommonName": "Dorset County Hospital", "naptan:Indicator": "Stop B", "naptan:NaptanCode": "dorajpwd", "naptan:Street": "Bridport Road", "naptan:verified": "no", "public_transport": "platform", "shelter": "yes", "tactile_paving": "no"}}, {"type": "node", "id": 11207193089, "lat": 50.7136801, "lon": -2.4484817, "tags": {"bench": "yes", "bin": "no", "bus": "yes", "departures_board": "realtime", "highway": "bus_stop", "name": "Dorset County Hospital (Stop C)", "naptan:AtcoCode": "1200DOB20536", "naptan:Bearing": "E", "naptan:CommonName": "Dorset County Hospital", "naptan:Indicator": "Stop C", "naptan:NaptanCode": "dorajpwa", "naptan:Street": "Bridport Road", "naptan:verified": "no", "public_transport": "platform", "shelter": "yes"}}, {"type": "node", "id": 11207193090, "lat": 50.7132281, "lon": -2.4504567, "tags": {"bus": "yes", "departures_board": "timetable", "highway": "bus_stop", "name": "Gloucester Road", "naptan:AtcoCode": "1200DOB20444", "naptan:Bearing": "W", "naptan:CommonName": "Gloucester Road", "naptan:Indicator": "W-bound", "naptan:NaptanCode": "dorajpgp", "naptan:Street": "Bridport Road", "naptan:verified": "no", "public_transport": "platform", "shelter": "no"}}, {"type": "node", "id": 11207193091, "lat": 50.7132474, "lon": -2.4508114, "tags": {"bench": "no", "bus": "yes", "departures_board": "no", "highway": "bus_stop", "name": "Gloucester Road", "naptan:AtcoCode": "1200DOB20535", "naptan:Bearing": "E", "naptan:CommonName": "Gloucester Road", "naptan:Indicator": "E-bound", "naptan:NaptanCode": "dorajpgm", "naptan:Street": "Bridport Road", "naptan:verified": "no", "public_transport": "platform", "shelter": "no"}}, {"type": "node", "id": 11207193095, "lat": 50.7137666, "lon": -2.4618628, "tags": {"bench": "no", "bin": "no", "bus": "yes", "departures_board": "no", "highway": "bus_stop", "lit": "yes", "name": "Peverell Avenue East", "naptan:AtcoCode": "1200DOA90926", "naptan:Bearing": "NW", "naptan:CommonName": "Peverill Avenue East", "naptan:Indicator": "NW-bound", "naptan:NaptanCode": "dordptwd", "naptan:Street": "Peverell Avenue East", "naptan:verified": "no", "public_transport": "platform", "shelter": "no", "tactile_paving": "no"}}, {"type": "node", "id": 11207193096, "lat": 50.713869, "lon": -2.4618289, "tags": {"bench": "no", "bin": "no", "bus": "yes", "departures_board": "no", "highway": "bus_stop", "lit": "no", "name": "Peverell Avenue East", "naptan:AtcoCode": "1200DOA90927", "naptan:Bearing": "SE", "naptan:CommonName": "Peverill Avenue East", "naptan:Indicator": "SE-bound", "naptan:NaptanCode": "dordptwg", "naptan:Street": "Peverell Avenue East", "naptan:verified": "no", "public_transport": "platform", "shelter": "no", "tactile_paving": "no"}}, {"type": "node", "id": 11207193097, "lat": 50.7110138, "lon": -2.4383677, "tags": {"bus": "yes", "departures_board": "realtime", "highway": "bus_stop", "name": "Brewery Square", "naptan:AtcoCode": "1200DOB20212", "naptan:Bearing": "SW", "naptan:CommonName": "Brewery Square", "naptan:Indicator": "SW-bound", "naptan:NaptanCode": "dorajwgd", "naptan:Street": "Weymouth Avenue", "naptan:verified": "no", "public_transport": "platform", "shelter": "yes"}}, {"type": "node", "id": 11207193098, "lat": 50.7105119, "lon": -2.4390087, "tags": {"bench": "no", "bus": "yes", "departures_board": "timetable", "highway": "bus_stop", "name": "Brewery Square", "naptan:AtcoCode": "1200DOZ04807", "naptan:Bearing": "NE", "naptan:CommonName": "Brewery Square", "naptan:Indicator": "NE-bound", "naptan:NaptanCode": "dorajwga", "naptan:Street": "Weymouth Avenue", "naptan:verified": "no", "public_transport": "platform", "shelter": "no"}}, {"type": "node", "id": 11207193099, "lat": 50.7074992, "lon": -2.4417814, "tags": {"bus": "yes", "departures_board": "realtime", "highway": "bus_stop", "name": "Queens Avenue", "naptan:AtcoCode": "1200DOB20203", "naptan:Bearing": "N", "naptan:CommonName": "Queens Avenue", "naptan:Indicator": "N-bound", "naptan:NaptanCode": "dorajwaj", "naptan:Street": "Weymouth Avenue", "naptan:verified": "no", "public_transport": "platform", "shelter": "no"}}, {"type": "node", "id": 11207193100, "lat": 50.7072345, "lon": -2.4418445, "tags": {"bench": "yes", "bin": "yes", "bus": "yes", "departures_board": "realtime", "highway": "bus_stop", "name": "Queens Avenue", "naptan:AtcoCode": "1200DOB20214", "naptan:Bearing": "SW", "naptan:CommonName": "Queens Avenue", "naptan:Indicator": "SW-bound", "naptan:NaptanCode": "dorajwam", "naptan:Street": "Weymouth Avenue", "naptan:verified": "no", "public_transport": "platform", "shelter": "yes"}}, {"type": "node", "id": 11207193101, "lat": 50.703449, "lon": -2.4448276, "tags": {"bench": "yes", "bin": "no", "bus": "yes", "departures_board": "realtime", "highway": "bus_stop", "lit": "yes", "name": "Tesco", "naptan:AtcoCode": "1200DOA25095", "naptan:Bearing": "NE", "naptan:CommonName": "Tesco", "naptan:Indicator": "NE-bound", "naptan:NaptanCode": "dordmgtm", "naptan:Street": "Weymouth Avenue", "naptan:verified": "no", "public_transport": "platform", "shelter": "yes", "tactile_paving": "no"}}, {"type": "node", "id": 11207193102, "lat": 50.7028632, "lon": -2.4451102, "tags": {"bus": "yes", "departures_board": "realtime", "highway": "bus_stop", "name": "Tesco", "naptan:AtcoCode": "1200DOB20215", "naptan:Bearing": "SW", "naptan:CommonName": "Tesco", "naptan:Indicator": "SW-bound", "naptan:NaptanCode": "dorajtjp", "naptan:Street": "Weymouth Avenue", "naptan:verified": "no", "public_transport": "platform", "shelter": "yes"}}, {"type": "node", "id": 11486402004, "lat": 50.7074655, "lon": -2.4205174, "tags": {"bus": "yes", "highway": "bus_stop", "name": "Max Gate Roundabout", "naptan:AtcoCode": "1200DOA90870", "naptan:Bearing": "NW", "naptan:CommonName": "Max Gate Roundabout", "naptan:Indicator": "NW-bound", "naptan:NaptanCode": "dordpmtg", "naptan:verified": "no", "public_transport": "platform"}}, {"type": "node", "id": 11486402005, "lat": 50.7087701, "lon": -2.4234109, "tags": {"bus": "yes", "highway": "bus_stop", "name": "Sandringham Court", "naptan:AtcoCode": "1200DOB20374", "naptan:Bearing": "NW", "naptan:CommonName": "Sandringham Court", "naptan:Indicator": "NW-bound", "naptan:NaptanCode": "doramdjw", "naptan:verified": "no", "public_transport": "platform"}}, {"type": "node", "id": 11492406186, "lat": 50.7135582, "lon": -2.4259961, "tags": {"bus": "yes", "highway": "bus_stop", "name": "Lubbecke Way", "naptan:AtcoCode": "1200DOA90817", "naptan:Bearing": "S", "naptan:CommonName": "Lubbecke Way", "naptan:Indicator": "S-bound", "naptan:NaptanCode": "dordpjpt", "naptan:Street": "Kings Road", "naptan:verified": "no", "public_transport": "platform"}}, {"type": "node", "id": 11522840648, "lat": 50.7125807, "lon": -2.438071, "tags": {"bench": "yes", "bin": "no", "bus": "yes", "highway": "bus_stop", "lit": "yes", "local_ref": "C1", "name": "Trinity Street", "naptan:AtcoCode": "1200DOB20205", "naptan:Bearing": "N", "naptan:CommonName": "Trinity Street", "naptan:Indicator": "Stop C1", "naptan:NaptanCode": "dorajwgm", "naptan:Street": "Trinity Street", "naptan:verified": "no", "public_transport": "platform", "shelter": "yes", "tactile_paving": "no"}}, {"type": "node", "id": 11522840649, "lat": 50.7217655, "lon": -2.4121402, "tags": {"bench": "no", "bin": "no", "bus": "yes", "highway": "bus_stop", "lit": "no", "name": "Stinsford Roundabout", "naptan:AtcoCode": "1200POA10297", "naptan:Bearing": "SW", "naptan:CommonName": "Stinsford Roundabout", "naptan:Indicator": "SW-bound", "naptan:NaptanCode": "doramgjm", "naptan:verified": "no", "public_transport": "platform", "shelter": "no", "tactile_paving": "no"}}, {"type": "node", "id": 11522840650, "lat": 50.7221732, "lon": -2.412043, "tags": {"bench": "no", "bin": "no", "bus": "yes", "highway": "bus_stop", "lit": "no", "name": "Stinsford Roundabout", "naptan:AtcoCode": "1200POA10298", "naptan:Bearing": "NE", "naptan:CommonName": "Stinsford Roundabout", "naptan:Indicator": "opp", "naptan:NaptanCode": "doramgjg", "naptan:verified": "no", "public_transport": "platform", "shelter": "no", "tactile_paving": "no"}}]}