{"version": 0.6, "generator": "Overpass API 0.7.62.10 2d4cfc48", "osm3s": {"timestamp_osm_base": "2026-03-01T06:04:44Z", "copyright": "The data included in this document is from www.openstreetmap.org. The data is made available under ODbL."}, "elements": [{"type": "node", "id": 695149978, "lat": 51.8051943, "lon": 1.1551276}, {"type": "node", "id": 695149979, "lat": 51.8051872, "lon": 1.155718}, {"type": "node", "id": 705835938, "lat": 51.8055628, "lon": 1.154828}, {"type": "node", "id": 705836097, "lat": 51.8056351, "lon": 1.154833}, {"type": "node", "id": 705836338, "lat": 51.8055672, "lon": 1.1546597}, {"type": "node", "id": 705837065, "lat": 51.8056395, "lon": 1.1546646}, {"type": "node", "id": 4336781321, "lat": 51.8053463, "lon": 1.155723}, {"type": "node", "id": 4336781322, "lat": 51.8053534, "lon": 1.1551325}, {"type": "node", "id": 10301138486, "lat": 51.7924287, "lon": 1.1593569, "tags": {"addr:city": "Clacton-on-Sea", "addr:housenumber": "27a", "addr:postcode": "CO15 6BT", "addr:street": "Holland Road", "building": "yes", "leisure": "fitness_centre", "name": "Gym Fit", "source:building": "bing"}}, {"type": "way", "id": 56243229, "nodes": [705837065, 705836338, 705835938, 705836097, 705837065], "tags": {"addr:city": "Clacton-on-Sea", "addr:housenumber": "21-23", "addr:postcode": "CO15 4DA", "addr:street": "North Road", "building": "retail", "leisure": "fitness_centre", "name": "Gymophobics", "ref:GB:uprn": "100091464915"}}, {"type": "way", "id": 435783965, "nodes": [4336781321, 4336781322, 695149978, 695149979, 4336781321], "tags": {"addr:city": "Clacton-on-Sea", "addr:housenumber": "30", "addr:postcode": "CO15 4DD", "addr:street": "North Road", "brand": "Anytime Fitness", "brand:wikidata": "Q4778364", "brand:wikipedia": "en:Anytime Fitness", "building": "fitness_centre", "leisure": "fitness_centre", "name": "Anytime Fitness", "source:building": "bing", "website": "https://www.anytimefitness.co.uk/gyms/uk-0240/clacton-on-sea-east-of-england-co15-4dd/"}}]}