{"version": 0.6, "generator": "Overpass API 0.7.62.10 2d4cfc48", "osm3s": {"timestamp_osm_base": "2026-02-26T10:50:23Z", "copyright": "The data included in this document is from www.openstreetmap.org. The data is made available under ODbL."}, "elements": [{"type": "node", "id": 10784182147, "lat": 52.0584077, "lon": 1.1592151}, {"type": "node", "id": 10784182148, "lat": 52.0583711, "lon": 1.1592692}, {"type": "node", "id": 10784182149, "lat": 52.0583846, "lon": 1.1593175}, {"type": "node", "id": 10784182150, "lat": 52.0583741, "lon": 1.1594017}, {"type": "node", "id": 10784182151, "lat": 52.058354, "lon": 1.1594318}, {"type": "node", "id": 10784182152, "lat": 52.0583754, "lon": 1.1594994}, {"type": "node", "id": 10784182153, "lat": 52.0585443, "lon": 1.1595273}, {"type": "node", "id": 10784182154, "lat": 52.0585548, "lon": 1.1592794}, {"type": "node", "id": 10784182155, "lat": 52.0584351, "lon": 1.1592564}, {"type": "node", "id": 12025256212, "lat": 52.0415202, "lon": 1.1467436, "tags": {"addr:city": "Ipswich", "addr:housenumber": "21", "addr:street": "Maidenhall Green", "amenity": "community_centre", "mapillary": "1953546712084309", "name": "Maidenhall Residents Association and Community Shop", "shop": "charity"}}, {"type": "way", "id": 1159632147, "nodes": [10784182147, 10784182148, 10784182149, 10784182150, 10784182151, 10784182152, 10784182153, 10784182154, 10784182155, 10784182147], "tags": {"amenity": "community_centre", "building": "yes"}}]}