{"version": 0.6, "generator": "Overpass API 0.7.62.10 2d4cfc48", "osm3s": {"timestamp_osm_base": "2026-03-01T06:18:02Z", "copyright": "The data included in this document is from www.openstreetmap.org. The data is made available under ODbL."}, "elements": [{"type": "node", "id": 384910771, "lat": 50.119618, "lon": -5.5349204}, {"type": "node", "id": 616052578, "lat": 50.1065368, "lon": -5.5499015, "tags": {"addr:city": "Penzance", "addr:country": "GB", "addr:housenumber": "5", "addr:place": "Newlyn", "addr:postcode": "TR18 5HH", "addr:street": "The Strand", "amenity": "pharmacy", "contact:phone": "+44 1736 362324", "contact:website": "http://www.newlynpharmacy.co.uk/", "healthcare": "pharmacy", "name": "Newlyn Pharmacy", "opening_hours": "Mo-Fr 08:45-17:30, Sa 08:45-13:00"}}, {"type": "node", "id": 2391996577, "lat": 50.1194929, "lon": -5.5351482}, {"type": "node", "id": 2391996578, "lat": 50.1194256, "lon": -5.534908}, {"type": "node", "id": 8285716352, "lat": 50.1196732, "lon": -5.5348027}, {"type": "node", "id": 8285716361, "lat": 50.1196044, "lon": -5.5345196}, {"type": "node", "id": 8285716362, "lat": 50.119524, "lon": -5.5345716}, {"type": "node", "id": 8285716363, "lat": 50.1193608, "lon": -5.5346769}, {"type": "node", "id": 8285716364, "lat": 50.1197371, "lon": -5.5347649}, {"type": "node", "id": 8285716365, "lat": 50.1196522, "lon": -5.5344111}, {"type": "node", "id": 8285716366, "lat": 50.119587, "lon": -5.534448}, {"type": "way", "id": 891435262, "nodes": [2391996577, 384910771, 8285716362, 8285716363, 2391996578, 2391996577], "tags": {"amenity": "pharmacy", "brand": "Boots", "brand:wikidata": "Q6123139", "brand:wikipedia": "en:Boots (company)", "building": "yes", "dispensing": "yes", "healthcare": "pharmacy", "name": "Boots", "website": "https://www.boots.com/stores/389-penzance-market-jew-street-tr18-2le"}}, {"type": "way", "id": 891435264, "nodes": [8285716352, 8285716364, 8285716365, 8285716366, 8285716361, 8285716352], "tags": {"amenity": "pharmacy", "brand": "Superdrug", "brand:wikidata": "Q7643261", "brand:wikipedia": "en:Superdrug", "building": "yes", "contact:website": "https://www.superdrug.com/store/penzance", "dispensing": "yes", "healthcare": "pharmacy", "name": "Superdrug"}}]}