{"version": 0.6, "generator": "Overpass API 0.7.62.10 2d4cfc48", "osm3s": {"timestamp_osm_base": "2026-02-24T20:00:00Z", "copyright": "The data included in this document is from www.openstreetmap.org. The data is made available under ODbL."}, "elements": [{"type": "node", "id": 479792091, "lat": 54.2821588, "lon": -0.4024974}, {"type": "node", "id": 479792102, "lat": 54.281482, "lon": -0.402699}, {"type": "node", "id": 3048273048, "lat": 54.2857305, "lon": -0.4013688}, {"type": "node", "id": 3048273049, "lat": 54.2857395, "lon": -0.4012316}, {"type": "node", "id": 3048273050, "lat": 54.2857749, "lon": -0.4013774}, {"type": "node", "id": 3048273052, "lat": 54.2857839, "lon": -0.4012401}, {"type": "node", "id": 3124131305, "lat": 54.2813761, "lon": -0.4029661}, {"type": "node", "id": 3124131309, "lat": 54.2814599, "lon": -0.4030849}, {"type": "node", "id": 3124131311, "lat": 54.2814767, "lon": -0.4030453}, {"type": "node", "id": 3124131323, "lat": 54.281607, "lon": -0.403221}, {"type": "node", "id": 3124131650, "lat": 54.2817975, "lon": -0.4034846}, {"type": "node", "id": 3124131655, "lat": 54.2818941, "lon": -0.4032793}, {"type": "node", "id": 3124201873, "lat": 54.2816923, "lon": -0.4029951}, {"type": "node", "id": 3124669161, "lat": 54.2819849, "lon": -0.4025709}, {"type": "node", "id": 3124669163, "lat": 54.2820137, "lon": -0.4025114}, {"type": "node", "id": 3124669169, "lat": 54.2820631, "lon": -0.4026785}, {"type": "node", "id": 3124669170, "lat": 54.2820805, "lon": -0.4023736}, {"type": "node", "id": 3727413751, "lat": 54.2736683, "lon": -0.4030577, "tags": {"addr:city": "Scarborough", "addr:housenumber": "15", "addr:postcode": "YO11 2LN", "addr:street": "Ramshill Road", "amenity": "pharmacy", "healthcare": "pharmacy", "name": "Aston Pharmacy", "phone": "+44 1723 360039", "toilets:wheelchair": "no", "website": "https://www.astonpharmacy.co.uk/", "wheelchair": "yes"}}, {"type": "node", "id": 3727413752, "lat": 54.273907, "lon": -0.4029905, "tags": {"addr:city": "Scarborough", "addr:housenumber": "13", "addr:postcode": "YO11 2LN", "addr:street": "Ramshill Road", "amenity": "pharmacy", "healthcare": "pharmacy", "name": "Delivery Chemist"}}, {"type": "node", "id": 4176440707, "lat": 54.2893197, "lon": -0.4181307, "tags": {"addr:city": "Scarborough", "addr:postcode": "YO12 6JG", "addr:street": "North Leas Avenue", "amenity": "pharmacy", "dispensing": "yes", "name": "Northstead Pharmacy"}}, {"type": "node", "id": 4176875244, "lat": 54.2768553, "lon": -0.4131355, "tags": {"addr:city": "Scarborough", "addr:housenumber": "54", "addr:postcode": "YO12 5AX", "addr:street": "Falsgrave Road", "amenity": "pharmacy", "healthcare": "pharmacy", "name": "J G Squire Ltd"}}, {"type": "node", "id": 4176875255, "lat": 54.2823675, "lon": -0.410523, "tags": {"addr:city": "Scarborough", "addr:housenumber": "9-11", "addr:postcode": "YO12 7BQ", "addr:street": "Gladstone Road", "amenity": "pharmacy", "dispensing": "yes", "healthcare": "pharmacy", "name": "Aston Pharmacy"}}, {"type": "node", "id": 4196908019, "lat": 54.278105, "lon": -0.4095952, "tags": {"addr:city": "Scarborough", "addr:postcode": "YO11 1UB", "addr:street": "Belgrave Crescent", "amenity": "pharmacy", "brand": "Cohens Chemist", "brand:wikidata": "Q107998495", "dispensing": "yes", "healthcare": "pharmacy", "name": "Cohens Chemist", "note": "is in basement", "wheelchair": "no"}}, {"type": "way", "id": 300720656, "nodes": [3048273052, 3048273049, 3048273048, 3048273050, 3048273052], "tags": {"addr:city": "Scarborough", "addr:housenumber": "8", "addr:postcode": "YO12 7PD", "addr:street": "North Marine Road", "amenity": "pharmacy", "brand": "The Pharmacy Group", "building": "retail", "building:levels": "4", "building:material": "brick", "dispensing": "yes", "healthcare": "pharmacy", "name": "Scarborough Pharmacy", "old_name": "Lloyds Pharmacy", "ref:GB:uprn": "200003350364;100052153206", "source": "Bing;photograph", "wheelchair": "no"}}, {"type": "way", "id": 307311385, "nodes": [3124131305, 479792102, 3124201873, 3124131655, 3124131650, 3124131323, 3124131311, 3124131309, 3124131305], "tags": {"addr:city": "Scarborough", "addr:postcode": "YO11 1LN", "addr:street": "Westborough", "amenity": "pharmacy", "brand": "Boots", "brand:wikidata": "Q6123139", "brand:wikipedia": "en:Boots UK", "building": "retail", "building:levels": "3", "building:material": "concrete", "healthcare": "pharmacy", "name": "Boots", "source": "Bing;photograph", "website": "https://www.boots.com/stores/565-scarborough-westborough-yo11-1ln", "wheelchair": "yes"}}, {"type": "way", "id": 307357046, "nodes": [479792091, 3124669170, 3124669163, 3124669161, 3124669169, 479792091], "tags": {"addr:city": "Scarborough", "addr:housenumber": "10", "addr:postcode": "YO11 1XP", "addr:street": "Aberdeen Walk", "amenity": "pharmacy", "building": "retail", "building:colour": "white", "building:levels": "4", "dispensing": "yes", "healthcare": "pharmacy", "name": "Lincolnshire Co-op Pharmacy", "old_name": "F Maltby Ltd", "operator": "Lincolnshire Co-op", "source": "survey", "wheelchair": "yes"}}]}