{"version": 0.6, "generator": "Overpass API 0.7.62.10 2d4cfc48", "osm3s": {"timestamp_osm_base": "2026-03-01T06:03:43Z", "copyright": "The data included in this document is from www.openstreetmap.org. The data is made available under ODbL."}, "elements": [{"type": "node", "id": 773949829, "lat": 52.0876052, "lon": -4.6532249, "tags": {"alt_name": "Opposite RC Church", "bench": "yes", "bus": "yes", "highway": "bus_stop", "name": "Rugby Ground", "naptan:AtcoCode": "5230AWC51144", "naptan:NaptanCode": "cejajpa", "public_transport": "platform", "shelter": "yes"}}, {"type": "node", "id": 1522456578, "lat": 52.083599, "lon": -4.6831756, "tags": {"bus": "yes", "highway": "bus_stop", "lit": "no", "name": "Feidr Fawr", "naptan:AtcoCode": "5210WDB25214", "naptan:Bearing": "S", "naptan:CommonName": "Feidr Fawr", "naptan:Indicator": "o/s Granary Villas", "naptan:NaptanCode": "pemdpmw", "naptan:Street": "Feidr Mawr", "naptan:verified": "no", "public_transport": "platform", "shelter": "yes"}}, {"type": "node", "id": 1866545491, "lat": 52.0819184, "lon": -4.6613617, "tags": {"bench": "yes", "bus": "yes", "highway": "bus_stop", "name": "Safle Bws Grosvenor Hill (bus stop)", "name:cy": "Safle Bws Grosvenor Hill", "name:en": "Grosvenor Hill Bus Stop", "naptan:AtcoCode": "5230AWD72037", "naptan:NaptanCode": "cejajtm", "public_transport": "platform", "shelter": "yes"}}, {"type": "node", "id": 3642997534, "lat": 52.0830288, "lon": -4.6572171, "tags": {"bench": "no", "bus": "yes", "highway": "bus_stop", "name": "Stand D", "name:cy": "Safle D", "naptan:AtcoCode": "5230WDB25308", "naptan:Bearing": "SW", "naptan:CommonName": "Finch Square D", "naptan:Indicator": "o/s", "naptan:NaptanCode": "cejdwpw", "naptan:Street": "St Mary Street", "naptan:verified": "no", "passenger_information_display": "no", "public_transport": "platform", "shelter": "yes"}}, {"type": "node", "id": 3642998002, "lat": 52.0829908, "lon": -4.657448, "tags": {"bench": "no", "bus": "yes", "highway": "bus_stop", "name": "Stand B", "name:cy": "Safle C", "naptan:AtcoCode": "5230AWC51143", "naptan:Bearing": "NW", "naptan:CommonName": "Finch's Square B", "naptan:Indicator": "o/s", "naptan:NaptanCode": "cejajtg", "naptan:Street": "St Mary Street", "naptan:verified": "no", "note": "Shelter was demolished by a bus driver. Again. It may be replaced, one day.", "passenger_information_display": "no", "public_transport": "platform", "removed:shelter": "yes"}}, {"type": "node", "id": 5103997094, "lat": 52.0831618, "lon": -4.6575084, "tags": {"bus": "yes", "highway": "bus_stop", "name": "Stand A", "name:cy": "Safle A", "naptan:AtcoCode": "5230WDB25309", "naptan:NaptanCode": "cejdwta", "passenger_information_display": "yes", "public_transport": "platform", "shelter": "yes"}}, {"type": "node", "id": 5133467486, "lat": 52.08304, "lon": -4.6577167, "tags": {"bench": "no", "bus": "yes", "highway": "bus_stop", "name": "Stand C", "name:cy": "Safle C", "naptan:AtcoCode": "5230AWD72039", "naptan:Bearing": "S", "naptan:CommonName": "Stand C", "naptan:Indicator": "o/s", "naptan:NaptanCode": "cejajtj", "naptan:Street": "St Mary Street", "naptan:verified": "no", "passenger_information_display": "no", "public_transport": "platform", "shelter": "no"}}, {"type": "node", "id": 5133960150, "lat": 52.0888122, "lon": -4.6493245, "tags": {"bench": "yes", "bus": "yes", "highway": "bus_stop", "name": "Feidrhenffordd", "naptan:AtcoCode": "5230AWC51146", "naptan:Bearing": "SW", "naptan:CommonName": "Feidr Henffordd", "naptan:Indicator": "after", "naptan:NaptanCode": "cejajpw", "naptan:Street": "Aberystwyth Road", "naptan:verified": "no", "public_transport": "platform", "shelter": "yes"}}, {"type": "node", "id": 5133960154, "lat": 52.0908132, "lon": -4.649533, "tags": {"bench": "yes", "bus": "yes", "highway": "bus_stop", "name": "North Park", "public_transport": "platform", "shelter": "yes"}}, {"type": "node", "id": 5133960156, "lat": 52.0902231, "lon": -4.6520709, "tags": {"bench": "yes", "bus": "yes", "highway": "bus_stop", "name": "Maesglas Shop", "naptan:AtcoCode": "5230AWD72031", "naptan:Bearing": "NW", "naptan:CommonName": "Maesglas Estate", "naptan:Indicator": "nr 97", "naptan:NaptanCode": "cejajwm", "naptan:Street": "Maesglas", "naptan:verified": "no", "public_transport": "platform", "shelter": "yes"}}, {"type": "node", "id": 5133960158, "lat": 52.0911205, "lon": -4.6543955, "tags": {"bus": "yes", "highway": "bus_stop", "name": "Maesglas/Cnwc y Dintir", "naptan:AtcoCode": "5230AWD72033", "naptan:Bearing": "SW", "naptan:BusStopType": "CUS", "naptan:CommonName": "Hawthorns", "naptan:Indicator": "nr", "naptan:NaptanCode": "cejajtw", "naptan:Street": "Maesglas", "naptan:verified": "no", "public_transport": "platform", "shelter": "yes"}}, {"type": "node", "id": 5141249791, "lat": 52.0854901, "lon": -4.6522533, "tags": {"bench": "no", "bus": "yes", "highway": "bus_stop", "name": "Bro Teifi", "public_transport": "platform", "shelter": "no"}}, {"type": "node", "id": 5141397292, "lat": 52.0842395, "lon": -4.660563, "tags": {"bench": "yes", "bus": "yes", "highway": "bus_stop", "name": "Ship Inn (Guild Hall)", "naptan:AtcoCode": "5230AWD72038", "naptan:Bearing": "NE", "naptan:CommonName": "Commercial Hotel", "naptan:Indicator": "nr former", "naptan:NaptanCode": "cejajwj", "naptan:Street": "Pendre", "naptan:verified": "no", "note": "The Ship in no longer exists (it's now Coffee #1). The stop is some distance from where the Ship Inn was and even further from the Guild Hall. Go figure.", "public_transport": "platform", "shelter": "yes"}}, {"type": "node", "id": 5706768168, "lat": 52.0855934, "lon": -4.6587038, "tags": {"bus": "yes", "highway": "bus_stop", "name": "Jobcentre", "name:cy": "Canolfanbyd", "note": "No bus stop sign, no road marking.", "public_transport": "platform", "shelter": "no"}}, {"type": "node", "id": 5706768169, "lat": 52.0858576, "lon": -4.6582978, "tags": {"bus": "yes", "highway": "bus_stop", "name": "Coleg Ceredigion", "note": "No bus stop sign, no road markings and only usable on some routes at certain times of day.", "public_transport": "platform", "shelter": "no"}}, {"type": "node", "id": 5706768171, "lat": 52.0876259, "lon": -4.6528482, "tags": {"bus": "yes", "highway": "bus_stop", "name": "Roman Catholic Church", "name:cy": "Swyddfa Sir", "naptan:AtcoCode": "5230AWD72029", "naptan:Bearing": "SW", "naptan:CommonName": "Cardigan Rugby Club", "naptan:Indicator": "opp", "naptan:NaptanCode": "cejajpg", "naptan:Street": "Aberystwyth Road", "naptan:verified": "no", "note": "No bus stop sign, no road markings.", "public_transport": "platform", "shelter": "no"}}, {"type": "node", "id": 5706768172, "lat": 52.0813526, "lon": -4.6599855, "tags": {"bus": "yes", "highway": "bus_stop", "name": "Strand", "naptan:AtcoCode": "5230AWC51147", "naptan:Bearing": "SW", "naptan:CommonName": "Cardigan Castle", "naptan:Indicator": "opp", "naptan:NaptanCode": "cejamag", "naptan:Street": "Strand", "naptan:verified": "no", "note": "Because of lane discipline, officially only for use on routes which cross Cardigan Bridge.", "public_transport": "platform", "shelter": "no"}}, {"type": "node", "id": 5708477933, "lat": 52.0871758, "lon": -4.6511279, "tags": {"bench": "no", "bus": "yes", "highway": "bus_stop", "name": "Aldi (Rear)", "note": "No bus stop sign, no road markings.", "public_transport": "platform", "shelter": "no"}}, {"type": "node", "id": 5859170587, "lat": 52.084769, "lon": -4.65732, "tags": {"bench": "no", "bus": "yes", "departures_board": "no", "highway": "bus_stop", "lit": "yes", "name": "Cardigan CP School / Ashleigh Surgery", "naptan:AtcoCode": "5230WDB23303", "naptan:Bearing": "SE", "naptan:CommonName": "Cardigan Primary School", "naptan:Indicator": "after", "naptan:NaptanCode": "cejgatp", "naptan:Street": "Williams Terrace", "naptan:verified": "no", "note": "No bus stop sign, no road markings.", "passenger_information_display": "no", "public_transport": "platform", "shelter": "no"}}, {"type": "node", "id": 5860912126, "lat": 52.0895434, "lon": -4.6470683, "tags": {"bench": "yes", "bin": "no", "bus": "yes", "highway": "bus_stop", "lit": "no", "name": "Tesco", "naptan:AtcoCode": "5230AWC51145", "naptan:NaptanCode": "cejamaj", "passenger_information_display": "no", "public_transport": "platform", "shelter": "yes"}}, {"type": "node", "id": 5860917638, "lat": 52.0814744, "lon": -4.6780719, "tags": {"bench": "yes", "bus": "yes", "highway": "bus_stop", "lit": "no", "naptan:AtcoCode": "5210WDB48321", "naptan:NaptanCode": "pemgtjg", "passenger_information_display": "no", "public_transport": "platform", "shelter": "yes"}}, {"type": "node", "id": 5860935437, "lat": 52.0887545, "lon": -4.6820465, "tags": {"bench": "yes", "bin": "yes", "bus": "yes", "highway": "bus_stop", "lit": "no", "name": "The Moorings", "name:cy": "Glanteifion", "naptan:AtcoCode": "5210AWD72035", "naptan:NaptanCode": "pemdtja", "passenger_information_display": "no", "public_transport": "platform", "shelter": "yes", "tactile_paving": "no"}}, {"type": "node", "id": 5861711422, "lat": 52.0906621, "lon": -4.6601898, "tags": {"bus": "yes", "highway": "bus_stop", "name": "Maesydderwen", "public_transport": "platform"}}, {"type": "node", "id": 5861711423, "lat": 52.0879121, "lon": -4.6547963, "tags": {"bench": "no", "bus": "yes", "highway": "bus_stop", "lit": "yes", "name": "Cardigan Secondary School (side gate)", "passenger_information_display": "no", "public_transport": "platform", "shelter": "no", "surface": "asphalt"}}, {"type": "node", "id": 5861753004, "lat": 52.0911765, "lon": -4.6459391, "tags": {"bench": "no", "bus": "yes", "departures_board": "timetable", "highway": "bus_stop", "lit": "yes", "name": "Heol Gollen", "passenger_information_display": "no", "public_transport": "platform", "shelter": "no", "surface": "asphalt"}}, {"type": "node", "id": 5888820410, "lat": 52.0872702, "lon": -4.6551193, "tags": {"bench": "no", "bus": "yes", "highway": "bus_stop", "lit": "yes", "name": "Cardigan Secondary School (main gate)", "naptan:AtcoCode": "5230CGX16590", "naptan:NaptanCode": "cejajpd", "passenger_information_display": "no", "public_transport": "platform", "shelter": "no", "surface": "asphalt"}}, {"type": "node", "id": 6032426726, "lat": 52.0768214, "lon": -4.6573274, "tags": {"bench": "yes", "bus": "yes", "highway": "bus_stop", "lit": "no", "name": "The Ridgeway", "naptan:AtcoCode": "5230CGX16577", "naptan:Bearing": "NW", "naptan:BusStopType": "CUS", "naptan:CommonName": "Ridgeway Estate", "naptan:Indicator": "after", "naptan:NaptanCode": "cejajag", "naptan:Street": "B4546", "naptan:verified": "no", "passenger_information_display": "no", "public_transport": "platform", "shelter": "yes", "surface": "paved"}}, {"type": "node", "id": 6032426727, "lat": 52.0769208, "lon": -4.6571354, "tags": {"bench": "yes", "bus": "yes", "highway": "bus_stop", "lit": "no", "name": "The Ridgeway", "naptan:AtcoCode": "5230WDB23302", "naptan:Bearing": "SE", "naptan:BusStopType": "CUS", "naptan:CommonName": "Ridgeway Estate", "naptan:Indicator": "before", "naptan:NaptanCode": "cejgatm", "naptan:Street": "B4546", "naptan:verified": "no", "passenger_information_display": "no", "public_transport": "platform", "shelter": "yes", "surface": "paved"}}, {"type": "node", "id": 6063506166, "lat": 52.0892105, "lon": -4.6486452, "tags": {"bench": "no", "bus": "yes", "highway": "bus_stop", "lit": "no", "name": "Feidr Henffordd", "naptan:AtcoCode": "5230AWD72026", "naptan:Bearing": "NE", "naptan:CommonName": "Feidr Henffordd", "naptan:Indicator": "before", "naptan:NaptanCode": "cejajta", "naptan:Street": "Aberystwyth Road", "naptan:verified": "no", "passenger_information_display": "no", "public_transport": "platform", "shelter": "yes", "surface": "asphalt"}}, {"type": "node", "id": 6107400829, "lat": 52.0784334, "lon": -4.658613, "tags": {"bench": "yes", "bus": "yes", "highway": "bus_stop", "lit": "no", "name": "Golwg-y-castell", "naptan:AtcoCode": "5230CGX16572", "naptan:Bearing": "NW", "naptan:BusStopType": "CUS", "naptan:CommonName": "Golwg-y-castell", "naptan:Indicator": "after", "naptan:NaptanCode": "cejagwp", "naptan:Street": "Tenby Road", "naptan:verified": "no", "note": "On 16-11-2018 there was just a concrete plinth where a shelter used to be. On 30-11-2018 there is now a shelter.", "passenger_information_display": "no", "public_transport": "platform", "shelter": "yes", "surface": "concrete"}}, {"type": "node", "id": 6510778700, "lat": 52.0912567, "lon": -4.6475786, "tags": {"bus": "yes", "departures_board": "timetable", "highway": "bus_stop", "name": "Heol Derw", "public_transport": "platform"}}, {"type": "node", "id": 7101493563, "lat": 52.0889694, "lon": -4.6623681, "tags": {"bus": "yes", "departures_board": "no", "highway": "bus_stop", "name": "Cardigan Integrated Care Centre", "public_transport": "platform", "shelter": "yes"}}]}