{"version": 0.6, "generator": "Overpass API 0.7.62.10 2d4cfc48", "osm3s": {"timestamp_osm_base": "2026-02-24T19:57:00Z", "copyright": "The data included in this document is from www.openstreetmap.org. The data is made available under ODbL."}, "elements": [{"type": "node", "id": 365043292, "lat": 50.3759868, "lon": -4.1225364, "tags": {"amenity": "pharmacy", "brand": "Boots", "brand:wikidata": "Q6123139", "healthcare": "pharmacy", "name": "Boots", "operator": "Alliance Pharmacy"}}, {"type": "node", "id": 527403388, "lat": 50.3715052, "lon": -4.1537037, "tags": {"addr:city": "Plymouth", "addr:country": "GB", "addr:county": "Devon", "addr:housenumber": "97", "addr:postcode": "PL1 5JA", "addr:street": "King Street", "amenity": "pharmacy", "brand": "Well Pharmacy", "brand:wikidata": "Q7726524", "brand:wikipedia": "en:Well Pharmacy", "dispensing": "yes", "drive_through": "no", "healthcare": "pharmacy", "name": "Well Pharmacy", "opening_hours": "Mo-Fr 09:00-18:00; Sa 09:00-13:00", "website": "https://finder.well.co.uk/store/plymouth-king-street"}}, {"type": "node", "id": 1684028769, "lat": 50.3714943, "lon": -4.1445169}, {"type": "node", "id": 2786649658, "lat": 50.3810504, "lon": -4.1655402}, {"type": "node", "id": 2786649662, "lat": 50.3812471, "lon": -4.1655442}, {"type": "node", "id": 2786649665, "lat": 50.3810914, "lon": -4.1654427}, {"type": "node", "id": 2786649667, "lat": 50.3812216, "lon": -4.1656303}, {"type": "node", "id": 2917958289, "lat": 50.3723932, "lon": -4.1338999, "tags": {"addr:city": "Plymouth", "addr:country": "GB", "addr:housenumber": "61A", "addr:street": "Ebrington Street", "amenity": "pharmacy", "dispensing": "yes", "healthcare": "pharmacy", "name": "T.C.E. O'Gallagers"}}, {"type": "node", "id": 3957355076, "lat": 50.3691236, "lon": -4.1237335, "tags": {"amenity": "pharmacy", "brand": "Boots", "brand:wikidata": "Q6123139", "healthcare": "pharmacy", "name": "Boots", "opening_hours": "Mo-Fr 09:00-12:45,01:30-18:00", "operator": "Boots"}}, {"type": "node", "id": 4692089554, "lat": 50.3811021, "lon": -4.1655619}, {"type": "node", "id": 6013838455, "lat": 50.3719146, "lon": -4.1498615}, {"type": "node", "id": 6013838456, "lat": 50.3719788, "lon": -4.1499098}, {"type": "node", "id": 6013838457, "lat": 50.3719942, "lon": -4.1498588}, {"type": "node", "id": 6013838458, "lat": 50.3719946, "lon": -4.1497696}, {"type": "node", "id": 6013838459, "lat": 50.3719133, "lon": -4.149771}, {"type": "node", "id": 6774763590, "lat": 50.3856301, "lon": -4.1382298}, {"type": "node", "id": 6774763591, "lat": 50.385695, "lon": -4.1380658}, {"type": "node", "id": 6774763592, "lat": 50.3855874, "lon": -4.138197}, {"type": "node", "id": 6774763593, "lat": 50.3856504, "lon": -4.1380201}, {"type": "node", "id": 6774763594, "lat": 50.3855399, "lon": -4.138144}, {"type": "node", "id": 6774763597, "lat": 50.3855766, "lon": -4.1381868}, {"type": "node", "id": 6774763598, "lat": 50.3855485, "lon": -4.1381522}, {"type": "node", "id": 6774763599, "lat": 50.3855122, "lon": -4.1382466}, {"type": "node", "id": 6774763600, "lat": 50.3855426, "lon": -4.1382752}, {"type": "node", "id": 6774763618, "lat": 50.3855993, "lon": -4.1379737}, {"type": "node", "id": 8119258541, "lat": 50.3714988, "lon": -4.144256}, {"type": "node", "id": 8119258543, "lat": 50.3717605, "lon": -4.1445228}, {"type": "node", "id": 8119258544, "lat": 50.371763, "lon": -4.1442669}, {"type": "node", "id": 8119258545, "lat": 50.371759, "lon": -4.1446921}, {"type": "node", "id": 8119258546, "lat": 50.3714913, "lon": -4.1446839}, {"type": "node", "id": 8182574935, "lat": 50.3723867, "lon": -4.1386524, "tags": {"amenity": "pharmacy", "brand": "Boots", "brand:wikidata": "Q6123139", "brand:wikipedia": "en:Boots UK", "dispensing": "yes", "healthcare": "pharmacy", "level": "0", "name": "Boots", "website": "https://www.boots.com/stores/390-plymouth-drake-circus-pl1-1ea", "wheelchair": "yes"}}, {"type": "node", "id": 8489638587, "lat": 50.3922235, "lon": -4.1195134}, {"type": "node", "id": 8489638588, "lat": 50.3921344, "lon": -4.1195117}, {"type": "node", "id": 8489638589, "lat": 50.3921387, "lon": -4.1195872}, {"type": "node", "id": 8489638590, "lat": 50.3922143, "lon": -4.1196358}, {"type": "node", "id": 8489638591, "lat": 50.3922348, "lon": -4.1196143}, {"type": "node", "id": 8489638596, "lat": 50.3921688, "lon": -4.1195124}, {"type": "node", "id": 8569651037, "lat": 50.3823781, "lon": -4.1337379}, {"type": "node", "id": 8569651038, "lat": 50.3823966, "lon": -4.1335986}, {"type": "node", "id": 8569651039, "lat": 50.3822677, "lon": -4.1335546}, {"type": "node", "id": 8569651040, "lat": 50.3822467, "lon": -4.1336931}, {"type": "node", "id": 9103982429, "lat": 50.3700548, "lon": -4.1677788}, {"type": "node", "id": 9103982439, "lat": 50.3701039, "lon": -4.1679264}, {"type": "node", "id": 9103982440, "lat": 50.3701867, "lon": -4.1678588}, {"type": "node", "id": 9103982441, "lat": 50.3701376, "lon": -4.1677112}, {"type": "node", "id": 9554750459, "lat": 50.381187, "lon": -4.165505}, {"type": "node", "id": 9566490343, "lat": 50.3872275, "lon": -4.1638857}, {"type": "node", "id": 9566490344, "lat": 50.387114, "lon": -4.1639926}, {"type": "node", "id": 9566490347, "lat": 50.3872483, "lon": -4.1639626}, {"type": "node", "id": 9566490348, "lat": 50.3871772, "lon": -4.1640292}, {"type": "node", "id": 9566490349, "lat": 50.3871701, "lon": -4.1640122}, {"type": "node", "id": 9566490350, "lat": 50.3871315, "lon": -4.1640455}, {"type": "node", "id": 10101862623, "lat": 50.3721982, "lon": -4.1384471, "tags": {"amenity": "pharmacy", "brand": "Superdrug", "brand:wikidata": "Q7643261", "check_date": "2025-04-15", "dispensing": "yes", "healthcare": "pharmacy", "level": "0", "name": "Superdrug"}}, {"type": "node", "id": 11711806014, "lat": 50.3655384, "lon": -4.1510684, "tags": {"amenity": "pharmacy", "brand": "Day Lewis Pharmacy", "brand:wikidata": "Q62563772", "healthcare": "pharmacy", "name": "Day Lewis Pharmacy", "opening_hours": "Mo-Fr 08:30-18:00; Sa 09:00-12:00", "survey:date": "2024-03-10"}}, {"type": "way", "id": 273859288, "nodes": [2786649662, 9554750459, 2786649665, 2786649658, 4692089554, 2786649667, 2786649662], "tags": {"addr:city": "Plymouth", "addr:housenumber": "34", "addr:postcode": "PL3 4DH", "addr:street": "Devonport Road", "amenity": "pharmacy", "brand": "Well Pharmacy", "brand:wikidata": "Q7726524", "brand:wikipedia": "en:Well Pharmacy", "building": "yes", "check_date:opening_hours": "2022-09-05", "healthcare": "pharmacy", "name": "Well Pharmacy", "opening_hours:signed": "no", "ref:GB:uprn": "100041062146;100040431077", "website": "https://finder.well.co.uk/store/stoke-devonport-road"}}, {"type": "way", "id": 638002926, "nodes": [6013838459, 6013838458, 6013838457, 6013838456, 6013838455, 6013838459], "tags": {"amenity": "pharmacy", "building": "yes", "dispensing": "yes", "healthcare": "pharmacy", "name": "King Street Pharmacy", "opening_hours": "Mo-Fr 09:00-18:00"}}, {"type": "way", "id": 722240137, "nodes": [6774763591, 6774763590, 6774763592, 6774763593, 6774763591], "tags": {"addr:city": "Plymouth", "addr:housenumber": "73", "addr:postcode": "PL3 4JN", "addr:street": "Hyde Park Road", "amenity": "pharmacy", "building": "retail", "building:levels": "2", "dispensing": "yes", "drive_through": "no", "healthcare": "pharmacy", "name": "Hyde Park Pharmacy", "ref:GB:uprn": "100041062866;100040452592", "roof:levels": "0", "roof:material": "slate", "roof:shape": "gabled", "website": "https://poolearth.com/pharmacies/hyde-park-pharmacy/"}}, {"type": "way", "id": 722240138, "nodes": [6774763593, 6774763592, 6774763597, 6774763600, 6774763599, 6774763598, 6774763594, 6774763618, 6774763593], "tags": {"addr:city": "Plymouth", "addr:housenumber": "71", "addr:postcode": "PL3 4JN", "addr:street": "Hyde Park Road", "amenity": "pharmacy", "building": "retail", "building:levels": "3", "dispensing": "yes", "drive_through": "no", "healthcare": "pharmacy", "name": "Hyde Park Pharmacy", "ref:GB:uprn": "100040452590;10090563433;10090563434", "roof:levels": "0", "roof:material": "slate", "roof:shape": "gabled", "website": "https://poolearth.com/pharmacies/hyde-park-pharmacy/"}}, {"type": "way", "id": 871701244, "nodes": [8119258541, 1684028769, 8119258543, 8119258544, 8119258541], "tags": {"addr:city": "Plymouth", "addr:postcode": "PL1 1RR", "addr:street": "New George Street", "amenity": "pharmacy", "brand": "Superdrug", "brand:wikidata": "Q7643261", "brand:wikipedia": "en:Superdrug", "building": "yes", "contact:website": "https://www.superdrug.com/store/george-st-%28plymouth%29", "dispensing": "yes", "healthcare": "pharmacy", "name": "Superdrug", "source:addr:postcode": "ons_uprn_lookup"}}, {"type": "way", "id": 871701245, "nodes": [8119258543, 8119258545, 8119258546, 1684028769, 8119258543], "tags": {"addr:city": "Plymouth", "addr:postcode": "PL1 1RR", "addr:street": "New George Street", "amenity": "pharmacy", "brand": "Boots", "brand:wikidata": "Q6123139", "brand:wikipedia": "en:Boots UK", "building": "yes", "dispensing": "yes", "healthcare": "pharmacy", "name": "Boots", "source:addr:postcode": "ons_uprn_lookup", "website": "https://www.boots.com/stores/2048-plymouth-new-george-street-pl1-1rr"}}, {"type": "way", "id": 913915436, "nodes": [8489638587, 8489638596, 8489638588, 8489638589, 8489638590, 8489638591, 8489638587], "tags": {"addr:city": "Plymouth", "addr:postcode": "PL3 5JU", "addr:street": "Eggbuckland Road", "amenity": "pharmacy", "brand": "Well Pharmacy", "brand:wikidata": "Q7726524", "brand:wikipedia": "en:Well Pharmacy", "building": "yes", "dispensing": "yes", "healthcare": "pharmacy", "name": "Well Pharmacy", "ref:GB:uprn": "100041062313", "website": "https://finder.well.co.uk/store/higher-compton-eggbuckland-road"}}, {"type": "way", "id": 923155038, "nodes": [8569651037, 8569651038, 8569651039, 8569651040, 8569651037], "tags": {"addr:city": "Plymouth", "addr:housenumber": "59", "addr:postcode": "PL4 6JH", "addr:street": "Mutley Plain", "amenity": "pharmacy", "brand": "Boots", "brand:wikidata": "Q6123139", "brand:wikipedia": "en:Boots UK", "building": "yes", "dispensing": "yes", "healthcare": "pharmacy", "name": "Boots", "website": "https://www.boots.com/stores/318-plymouth-mutley-plain-pl4-6jh"}}, {"type": "way", "id": 984724176, "nodes": [9103982440, 9103982439, 9103982429, 9103982441, 9103982440], "tags": {"addr:city": "Plymouth", "addr:postcode": "PL1 4JZ", "amenity": "pharmacy", "building": "yes", "dispensing": "yes", "healthcare": "pharmacy", "name": "Devonport Pharmacy", "ref:GB:uprn": "10070770237"}}, {"type": "way", "id": 1038808573, "nodes": [9566490343, 9566490347, 9566490348, 9566490349, 9566490350, 9566490344, 9566490343], "tags": {"addr:city": "Plymouth", "addr:housenumber": "91", "addr:postcode": "PL2 3BL", "addr:street": "Wolseley Road", "amenity": "pharmacy", "brand": "Well Pharmacy", "brand:wikidata": "Q7726524", "building": "retail", "cuisine": "pizza;kebab", "healthcare": "pharmacy", "name": "Well Pharmacy"}}]}